id,name,street,zip_code,lat,lon,geojson_feature_id
79675952,Alberts,Scharnweberstraße 16,13405,52.56382,13.328849,12200309
86001835,Bellboy Berlin,Anton-Wilhelm-Amo-Straße 30,10117,52.512055,13.3918753,01100207
86005430,Newton Bar,Charlottenstraße 57,10117,52.5129305,13.3912298,01100206
111644760,No Limit Shishabar,,,52.5655612,13.3209279,12200309
149607257,en passant,Schönhauser Allee 58,10437,52.5442253,13.4128822,03601142
150989271,Can,Ollenhauerstraße 139,13403,52.5646418,13.327947,12200309
248651127,Z-Bar,Bergstraße 2,10115,52.5295259,13.3956385,01100415
267780050,Immertreu,Christburger Straße 6,10405,52.5363657,13.425073,03701658
269414693,Tiger Karaoke,Müllerstraße 6,,52.5414032,13.3684921,01300836
275375441,Café Nostalgie,Crellestraße 22,10827,52.4882652,13.361927,07200411
276762554,Schloss Neuschweinsteiger,Emser Straße 122,12051,52.4689788,13.4354663,08100208
278876847,Keyif,,,52.5120463,13.4613169,02500833
282420247,Himmelreich,Simon-Dach-Straße 36,10245,52.5102582,13.4566212,02500833
282428260,Ysy,,,52.5158118,13.4591706,02500727
282737297,Lauschangriff,,,52.5182491,13.4553049,02500727
285066943,Zeitgeist,Gärtnerstraße 15,10245,52.5111838,13.4613046,02500833
286428394,Charlotte,Charlottenstraße 14a,13597,52.5372124,13.2022687,05100316
291796493,booze bar berlin,Boxhagener Straße 105,10245,52.5127422,13.458706,02500830
293644418,Quasimodo,Kantstraße 12A,10623,52.5059347,13.3283712,04300622
306675633,Konsum,,,52.3918392,13.0953075,0
306915565,Bar im Wasserturm,Waldowstraße 20,13053,52.547659,13.4887104,11200512
309902514,Billardsalon Köh,Sophienstraße 6,10178,52.5252025,13.4018544,01100309
318810769,Deck 5,Greifenhagener Straße 47,,52.5493859,13.4164647,03601243
320217866,macke prinz,Zionskirchstraße 39,10119,52.534462,13.404733,01100416
326807333,Salon Babette,Karl-Marx-Allee 36,10178,52.5195057,13.4234314,01100311
331397676,Süß war gestern,Wühlischstraße 43,10245,52.5086027,13.4610994,02500834
332554291,Vincent Piano Bar,Schiffbauerdamm 6,10117,52.5215879,13.38609,01100308
339323154,Sohnemann,Niederbarnimstraße 23,10247,52.5142681,13.4595488,02500830
345552307,Havanna Bar,Treskowallee 111,10318,52.4816878,13.5257159,11501340
383851727,Bar Voyage,Nollendorfstraße 1,10783,52.4979752,13.3562993,07100103
386579955,Monster Ronsons Ichiban Karaoke,Warschauer Straße 34,10243,52.5051922,13.448422,02400625
410135898,Dietrich,Reichenberger Straße 103,10999,52.4935555,13.43778,02300418
410135936,Frau Luna,Paul-Lincke-Ufer 44,10999,52.4963129,13.4211347,02300417
415307012,X-Bar,Raumerstraße 17,10437,52.5415754,13.4219013,03601348
415551267,Dirty Velvet Drinkery,Lychener Straße 39,10437,52.5437162,13.417339,03601347
417009820,Der Weinlobbyist,Kolonnenstraße 62,10827,52.48657,13.3592734,07200411
429741495,Kaffee Burger,Torstraße 60,10119,52.528762,13.4086025,01100309
437611140,Palm Beach,,,52.5205872,13.404595,01100310
439752059,Huttenklause,Huttenstraße 23,10553,52.5287452,13.318287,01200517
440867442,Ringbar,,,52.4729715,13.4545924,08100417
440868652,La Vida Bar,Sonnenallee 218,12059,52.473834,13.4555497,08100417
441878996,Rauschecafe,Braunschweiger Straße 77,12055,52.4704823,13.4434357,08100417
448809597,By Cengiz,Karl-Marx-Straße 210,12055,52.4712939,13.4411312,08100208
448811300,Roter Rabe,Kottbusser Straße 13,10999,52.4965957,13.4192738,02100106
448913474,Jokers Bar,Berliner Straße 117,13187,52.5679576,13.4125434,03400723
469188998,Roderich,,,52.5706008,13.409664,03400723
472372461,Society,Stendaler Straße 25,12627,52.5380648,13.6040719,10200421
477444923,Blechbilderbar,Simon-Dach-Straße 35,10245,52.5099802,13.4564546,02500833
485354280,Escobar,,,52.4974062,13.4538746,09100101
496275217,Country Cheers,Karl-Marx-Allee 63,10243,52.5184638,13.4322518,02400521
502541867,Zart,Schinkestraße 14,12047,52.4943163,13.4250735,08100310
506901254,Yolanda,Senefelderstraße 27,10437,52.5419559,13.4228267,03601348
518469427,"Trude, Ruth und Goldammer",Flughafenstraße 38,12053,52.4812916,13.4279168,08100206
520012626,Bar Misirlou,Dunckerstraße 10,10437,52.5423488,13.4208673,03601348
522447355,Liberda,Pflügerstraße 19,12047,52.4915467,13.4287957,08100310
530715881,Freya Fuchs,Tegeler Straße 34,13353,52.5419903,13.3567093,01401046
541075876,Mad Monkey Room,Danziger Straße 1,10435,52.5410639,13.4130081,03601347
541101559,meliá tapas,Friedrichstraße 103,,52.5216924,13.3883069,01100206
549227523,EL FUEGO BAR,,,52.5486379,13.5016984,11200411
549933671,The Double Inn,Wilhelminenhofstraße 89,12459,52.4617978,13.5120508,09200510
558494289,Celo Privat Bar,Ohlauer Straße 37,10999,52.4946075,13.4295997,02300417
560524659,Tante Grete,Stargarder Straße 10,,52.5469427,13.4165427,03601346
560524662,Trixie Bar,Stargarder Straße 13,10437,52.5466467,13.4173898,03601346
566734795,Crossroads,Gneiststraße 10,10437,52.5442189,13.4155164,03601346
567570634,Le Balto,Hobrechtstraße 28,12047,52.490927,13.4262755,08100311
576157235,Slumberland,Goltzstraße 24,10781,52.4968247,13.3537835,07100102
588557533,Internezzo III Cafe Bar,Langhansstraße 151,13086,52.5486515,13.4500855,03500935
592636063,Valla Vino,Lychener Straße 3,10437,52.5410653,13.414368,03601347
593969830,"Froschkönig, Literatur- & Pianobar",Weisestraße 17,12049,52.4768748,13.423932,08100102
611030882,Lost my voice,Rosenthaler Straße 1,10119,52.5293031,13.4014198,01100309
611202787,Höschen,Dunckerstraße 9,10437,52.5422868,13.4208161,03601348
648238268,gainsbourg bar américain,Jeanne-Mammen-Bogen 5,10623,52.5046693,13.3250472,04501041
649778890,Posh Bar,Voxstraße 4,10785,52.5086655,13.3730354,01100102
652049351,Café Melanie,,,52.4245266,13.4360698,08200730
652877991,Mein Haus am See,Torstraße 125,10119,52.529979,13.4008182,01100415
685354648,AVCI Cocktail-Bar,,,52.5067062,13.4961187,11400929
685796975,Krüger,Lychener Straße 26,10437,52.5427965,13.4167236,03601347
697303672,Caspar,Greifswalder Straße 167,10409,52.5412172,13.4384465,03601245
707390945,Hook Bar,Pankstraße 15,,52.5461039,13.3719166,01300836
707409462,Mega,Gerichtstraße 57,13347,52.5445712,13.3685578,01300836
707468711,Mega 3,Wiesenstraße 18,13357,52.5471156,13.3750331,01300836
707477678,Cafe Ortak,,,52.5503873,13.3787387,01300836
715203800,Manico,Breite Straße 1,14199,52.47342,13.2991379,04400832
728285721,Paka Club,Reinickendorfer Straße 111,13347,52.5439723,13.3693646,01300836
737219923,Cafe Bar El Toredo,Stettiner Straße 60,,52.5521383,13.3843912,01300733
740165950,Absinth-Druide,Schönhauser Allee 42,10435,52.5398231,13.412569,03701554
745736672,Wax On,Weserstraße 208,12047,52.4881477,13.4298759,08100311
746853061,Babylon Café Bar,,,52.5802548,13.3988194,03200206
760476894,Tipsy Bear,Eberswalder Straße 21,10437,52.5410133,13.4106052,03701554
764610010,L.U.X,Schlesische Straße 41,10997,52.5004147,13.4437298,02300419
768275183,Freibeuter,Silvio-Meier-Straße 10,10247,52.5161739,13.4633487,02500728
769318468,K1 Bar,,,52.5743861,13.3598147,12100103
775657143,Bar Dell,Samariterstraße 17,10247,52.518836,13.46654,02500728
790502624,Hausbar,Rykestraße 54,10405,52.5348771,13.418985,03701556
811902000,Walther Bar,Rheinstraße 40,12161,52.46493,13.3287952,07300516
849601059,9:00 pm,,,52.5060947,13.3444743,01100101
876492495,eleven n lounge,Grünberger Straße 60,10245,52.5116806,13.4564219,02500833
897444076,Kaduka,Weserstraße 207,12047,52.4880862,13.430053,08100311
905883257,Zu mir oder zu dir,Lychener Straße 15,10437,52.5419558,13.4153603,03601347
923359690,erika & hilde,Weigandufer 9,,52.4856903,13.4422135,08100312
935945049,Bar Amelie,Auguststraße 2,10117,52.525821,13.3909131,01100309
937964710,Blue Island,Karl-Marx-Straße 131a,12529,52.3993621,13.4415145,0
939422156,Mon Ami,Föhrer Straße 7,13353,52.5410532,13.3481101,01401046
945106909,Eschschloraque Rümschrümp,Rosenthaler Straße 39,10178,52.5244696,13.4017208,01100309
955664305,Schlesisch Blau,Köpenicker Straße 1a,,52.5015464,13.4414603,02300316
966975630,Frannz Club,Schönhauser Allee 36,10435,52.5382108,13.4126884,03701555
989022907,Bredouille Bar,Georgenstraße 199,,52.5199841,13.3892969,01100206
992806004,Henrys Bar,Leonorenstraße 22,12247,52.4435741,13.3401829,06200312
993811860,Kapitalist,Oderberger Straße 2,10435,52.5381294,13.4114113,03701554
995669472,Mysliwska,Schlesische Straße 35,10997,52.4994811,13.44534,02300419
998544689,Sonntags-Club,Greifenhagener Straße 28,10437,52.5513309,13.4187281,03601243
998970507,Nathanja & Heinrich,Weichselstraße 44,12045,52.4874088,13.4367417,08100312
1001470733,Nonno,Akazienstraße 7A,10823,52.4877957,13.3546493,07200409
1023766697,La Buvette,Gleimstraße 41,10437,52.5474549,13.409139,03601142
1051175900,Mario´s Pub,,,52.4108264,13.2624513,06300525
1057705696,Hackbarths,Auguststraße 49a,10119,52.5278237,13.4007418,01100309
1093969677,Troy,Simon-Dach-Straße 14,10245,52.5100814,13.4560026,02500833
1095435084,Qum Bar,Danziger Straße 16,10435,52.5403024,13.4154684,03701555
1108235754,Maigold,Merseburger Straße 7,10823,52.4881786,13.3525685,07200409
1115413260,Paparazzi 63 - Cafe Shisha Lounge Bar,,,52.5216538,13.5916156,10200630
1118848377,K-King Karaoke,Leibnizstraße 68,10625,52.5055359,13.3134145,04300623
1130983556,Broschek,Weichselstraße 6,12043,52.4840568,13.4329483,08100314
1134198863,X-Terrain,,,52.5255838,13.3910972,01100309
1134199000,Silberfisch,,,52.5253598,13.3919367,01100309
1140928133,Primitiv Bar,Simon-Dach-Straße 28,10245,52.5085895,13.4557684,02500834
1147969832,WerkStadt Kulturverein Berlin e.V.,Emser Straße 124,12051,52.4690248,13.4359035,08100208
1161567853,The Wash Bar,Brunnenstraße 163,10119,52.5343009,13.3979384,01100415
1163845234,Pavlovs Bar,Eylauer Straße 26,10965,52.4875802,13.3751277,02200209
1167205365,Mirror,,,52.4995796,13.4347585,02300419
1170425735,Bar Lenciaga,,,52.5512616,13.3678933,01401044
1175886700,Karl Gusto Weinbar,Krumme Straße 58,10627,52.5075518,13.3095914,04300623
1212504460,Neue Odessa Bar,Torstraße 89,10119,52.529697,13.4056757,01100309
1219537848,Mondhuegel,Bürknerstraße 6,,52.4933655,13.425295,08100310
1221366529,C&B Cafe & Bar,Weitlingstraße 13A,,52.5097357,13.4983171,11400929
1226785497,Alles GuT,Horstweg 7,14059,52.5119063,13.2940549,04300414
1244487091,Enoteca Sorsi e Morsi,Marienburger Straße 10,10405,52.5345014,13.4248197,03701659
1244655179,Hintersee,Greifenhagener Straße 55,10437,52.5476458,13.4151827,03601346
1248675711,Moto,Paul-Robeson-Straße 46,10439,52.5520795,13.4127679,03601141
1252481772,2 Dünyar,Willdenowstraße 19A,,52.5427982,13.3623388,01401047
1271867424,Amigo,,,52.4944808,13.3013483,04500939
1278254656,Betty F***,Mulackstraße 13,10119,52.5275404,13.4052143,01100309
1285681192,Greentree,Heerstraße 8,14052,52.5094527,13.2694085,04200310
1286549514,The Pig in Paradise,Wichertstraße 10,10439,52.5496846,13.4173106,03601243
1293209211,Caffe Sammbuca Sportbar,Schottstraße 4,10365,52.5150468,13.4907369,11300724
1295218968,Feger,,,52.5008108,13.4206261,02300314
1295438384,Reingold,Novalisstraße 11,10115,52.528723,13.3882109,01100415
1298564743,Divabar,,,52.5230477,13.452709,02500726
1307640400,Empor Sportsbar,Milastraße 5,10437,52.5452385,13.4109583,03601142
1311121799,Freunde,,10711,52.5011056,13.2982428,04500936
1319378156,Volksbar,Rosa-Luxemburg-Straße 39,10178,52.5266813,13.4107359,01100310
1319751809,CoCo,Turmstraße 54,10551,52.5273017,13.3311755,01200519
1332424261,ČSA,Karl-Marx-Allee 96,10243,52.5166757,13.44235,02400624
1333812252,Punta Sportsbar,,,52.4637913,13.3310762,06100209
1357806582,Casablanca,,,52.4348935,13.2597133,06300526
1366693664,Atelier,Kurfürstendamm 110,10711,52.4979205,13.2926578,04500937
1368599671,Rodi Cocktailbar,Holzmarktstraße 75,10179,52.5158643,13.4187906,01100311
1370691436,Lale,Müllerstraße 121,13349,52.5540937,13.3451068,01400938
1383599519,Caipi Bar,Greifswalder Straße 191,10405,52.5357255,13.43204,03701658
1391604297,Bar Tausend,Schiffbauerdamm 11,10117,52.5208236,13.3847097,01100308
1393863292,Zaffke,Rathenower Straße 44,10559,52.5335484,13.3499961,01200623
1400418885,O Tannenbaum,Hermannstraße 232,12049,52.481649,13.425143,08100206
1415328504,Mastul,Liebenwalder Straße 33,13347,52.5519644,13.358201,01401048
1450379594,Albert,Berliner Allee 122,13088,52.5504013,13.4611168,03500936
1482547512,Sportsbar,Baumschulenstraße 11,12437,52.4668466,13.4888557,09100304
1485800803,Moonlight,Frankfurter Allee 98,10247,52.5136642,13.4727613,02500832
1525332844,Salut!,Goltzstraße 7,,52.4910645,13.3534365,07100204
1544188674,Treff 25,Gleimstraße 25,,52.5473764,13.4114317,03601142
1552045336,Patesô,Novalisstraße 2,10115,52.528135,13.3890236,01100415
1552565067,Bijou Bar,Monbijouplatz 1,10178,52.5229828,13.3999603,01100309
1556403862,"Bistro und Bar ""New Wave""",Pistoriusstraße 90,13086,52.5562786,13.4360157,03500934
1576962397,WeserKulisse,,,52.4884157,13.4276444,08100311
1584702682,Profi Sportsbar,Sonnenallee 166,12059,52.4776533,13.4478077,08100415
1585056886,Kek Bar,Oranienstraße 31,10999,52.5014913,13.4189492,02300314
1585540540,Bar Südwest,,12161,52.4733246,13.3221536,07300515
1589659413,Kumpelnest 3000,,,52.5030829,13.3663544,01100104
1607815772,Ajpnia,Wartburgstraße 18,10825,52.4868332,13.3430245,07200307
1625198548,Kindl Stuben,Sonnenallee 92,12045,52.4824545,13.4380927,08100314
1636136230,XXL Cruising-Club,Bornholmer Straße 7,10439,52.554228,13.4120945,03601139
1636136232,Q62,Schönhauser Allee 111,10439,52.5511894,13.4136394,03601141
1643495255,Schmetterling,,,52.4944211,13.4289064,02300417
1653338932,Bar bOx,,,52.5251526,13.3913033,01100309
1663350388,Nice2SeeU,Warschauer Straße 65,10243,52.5108811,13.4522737,02500833
1673390303,Becketts Kopf,Pappelallee 64,10437,52.5454977,13.4169082,03601346
1690439220,Coconut Cafe / Bar / Lounge,Anton-Saefkow-Platz 11,10369,52.529183,13.4700307,11300617
1698512991,Cento Passi,Krossener Straße 34,10245,52.5093544,13.464978,02500833
1707013603,Emils Bar,,,52.5068439,13.4962055,11400929
1712805517,Hotelbar Rix,,12053,52.47843,13.4269382,08100206
1731268880,Kunstfabrik Schlot,Invalidenstraße 117,10115,52.5302814,13.385162,01100415
1737232122,Capone\s Bar,,,52.5713082,13.5684409,10100102
1741956106,Palladium Berlin,,10178,52.5222496,13.398825,01100310
1765962611,meisterschueler,,,52.522644,13.38874,01100309
1773535615,Continental Club,Uhlandstraße 124,,52.4906445,13.323321,04501149
1776156514,Geist im Glas,Lenaustraße 27,12047,52.4901043,13.4248129,08100311
1778040545,Rosies,,,52.5301475,13.4018631,01100416
1778046299,,,,52.6689725,13.2817904,0
1782481445,Gravity Bar,Lehrter Straße 55,10557,52.5341997,13.3586574,01200623
1809944626,Varadero,Vorbergstraße 11,10823,52.4891131,13.3552405,07200409
1813041644,Marlene Bar,,,52.5067921,13.3450842,01100101
1814747571,Le Jardin,Kleine Präsidentenstraße 4,10178,52.5225271,13.4000208,01100309
1818748428,Ottorink Weinbar,,10999,52.5008697,13.4167581,02300314
1824052681,Freetime,,,52.5557323,13.479348,03501038
1867212497,Lab.Oratory,,10243,52.5115736,13.4430142,02400625
1870419341,Green Door Bar,Winterfeldtstraße 50,10781,52.497044,13.3529334,07100102
1876548210,Puro,,,52.4980519,13.308142,04501043
1884132781,Café Augusta,Jonasstraße 22,12053,52.4715083,13.4336754,08100208
1887067008,Suzie Mambo,Veteranenstraße 16,10119,52.5335272,13.4023074,01100416
1891606801,Timber Doodle Bar,Wühlischstraße 37,10245,52.509129,13.458883,02500834
1896694799,Landebahn 3.0,Wiesenweg 1,12529,52.3635575,13.4718371,0
1898919376,BARBARO Cafe Bar,Bleibtreustraße 5a,10623,52.5056837,13.3197974,04300624
1902766750,Roberta,Zionskirchstraße 7,10119,52.535623,13.401254,01100416
1915578953,Stagger Lee,Nollendorfstraße 27,10777,52.4975858,13.3514801,07100102
1915589289,Nachbar,Maaßenstraße 12,10777,52.4975047,13.3541391,07100102
1919824266,City Bar Sopot,,,52.4904912,13.4347267,08100312
1927763622,Tristeza,Pannierstraße 5,12047,52.4865618,13.430953,08100312
1942415142,Kamine & Wein,Prinzenallee 58,13359,52.5578993,13.3853061,01300730
1943589420,Kürbiskern Zauberbar,Kopernikusstraße 23,10245,52.5103553,13.4543954,02500833
1952553015,CuBar,,10709,52.4984514,13.3069828,04500939
1954982646,Arkaoda,Karl-Marx-Platz 16,12043,52.4738852,13.4425685,08100416
1954982647,Balera Weinhandlung,Karl-Marx-Platz 6,12043,52.4735534,13.4416997,08100416
1960016516,Bären-Stübl,Guerickestraße 28,10587,52.517158,13.3202011,04300622
1963335045,Bar96,Leibnizstraße 43,10629,52.504227,13.313787,04501040
1969213797,Billardaire,Monumentenstraße 35,10829,52.489166,13.365328,07100206
1976742386,Weinberg,,,52.5327033,13.4240153,03701659
1987663374,Jatz,Gottschedstraße 2,13357,52.5502352,13.3691639,01401044
1991365954,Mega Spass Mega Bar,,,52.4854486,13.4491303,08100419
2031641135,Rum Trader,,,52.4984384,13.3266289,04501045
2034905742,Mozartkugel,,,52.5422071,13.2378644,05300737
2068646525,Fuks,Hobrechtstraße 64,12047,52.4897279,13.4262801,08100311
2085088144,Gaststätte Berlinicke Stuben,,,52.466406,13.3776078,07400823
2127409174,Blitz Café,Gerichtstraße 57,13347,52.5445952,13.3684959,01300836
2127423442,Destille,,,52.5517605,13.3618932,01401048
2128900304,Kubis Point,Medebacher Weg 14,13507,52.5868932,13.2809427,12200515
2156721770,Gallina,,,52.5023128,13.4305072,02300315
2169053649,Poropati,Weserstraße 79,,52.4804034,13.4466449,08100418
2209126224,Lambo Bar,Torfstraße 9,,52.5401924,13.3525383,01401046
2213818303,Curly,Adolfstraße 17,13347,52.5479459,13.3668959,01401043
2296975568,Herman Belgian Bar,Schönhauser Allee 173,10119,52.5323828,13.4121244,03701554
2298418695,Tetova,,,52.5482802,13.3625576,01401043
2298929621,Osmanli,,,52.5465569,13.368977,01401043
2299953820,Piano Bar,Seestraße 57,13347,52.5518114,13.355377,01401048
2301610459,Kiss Lounge,,,52.55007,13.3646081,01401043
2301610478,Moda Bar,,,52.5501199,13.3646879,01401049
2303782064,Henrietta,Malplaquetstraße 28,13347,52.55135,13.3580448,01401048
2305236117,Yeşilirmak,Prinz-Eugen-Straße 23,13347,52.5472575,13.3652811,01401043
2308103498,Horkes Café & Bar,,,52.5607202,13.0996528,0
2308129193,B-Lage,Mareschstraße 1,12055,52.4736946,13.451159,08100417
2325901159,Vesper Bar,,10709,52.4993133,13.3048007,04500938
2335055867,Café Helium,,,52.5010043,13.4233725,02300314
2335254953,Goldfisch,Grünberger Straße 67,10245,52.5116374,13.4583283,02500833
2340436243,Hefner,Kantstraße 146,10623,52.5055626,13.3233342,04300624
2357585725,Blauer Affe,,,52.4791435,13.449724,08100418
2384139342,EX YU Lounge,,,52.564801,13.3242019,12200309
2390688858,12,Sprengelstraße 12,13353,52.5420906,13.3556319,01401046
2420872155,Essence Bar,Wilhelmshavener Straße 70,10551,52.5272358,13.3411656,01200520
2420872160,Tirrée,Birkenstraße 46,10551,52.5320467,13.3415576,01200520
2423932912,Rote Rose,Adalbertstraße 90,10997,52.5015069,13.419281,02300314
2424288635,Kumami,Kietzer Straße 3,12555,52.4446007,13.5777014,09401534
2432755484,Schwarze Traube,Wrangelstraße 24,10997,52.5022042,13.4328535,02300315
2447630905,Absolut,Pichelsdorfer Straße 98,13595,52.5235334,13.197796,05200631
2472046777,Q1 Cafe Lounge,,,52.5510264,13.509957,11200410
2482984713,Cafe Trifft,Triftstraße 7,,52.5443687,13.3597319,01401047
2483768468,Bar Solut,Müllerstraße 157,13353,52.5448883,13.3613469,01401047
2495554364,Barbie Bar,Mehringdamm 77,10965,52.4894745,13.3867705,02200209
2495554382,Mandingo-Diskothek,Mehringdamm 107,10965,52.4871284,13.3864809,02200209
2496651176,Suspiria,Bergmannstraße 104,10961,52.4900059,13.3889535,02200211
2496860542,Pool & Cigars,,,52.5397141,13.4141454,03701555
2497904104,Riwaq Bar Und Restaurant,Skalitzer Straße 68,10997,52.5002714,13.4397253,02300419
2503426687,Studio 8,Grüntaler Straße 8,13357,52.5517988,13.3865542,01300733
2512986102,Vineria Carvalho,Heinrich-Roller-Straße 9,10405,52.5298844,13.4245765,03701659
2520313547,Bistro Spumante,Reichenberger Straße 73,10999,52.4943295,13.4338186,02300418
2541047698,Café & Bar,Karl-Marx-Straße 212,12055,52.4708278,13.4411973,08100208
2587344133,Cafe Barman,An der Urania 5,10787,52.5020743,13.3492123,07100102
2589657756,Its A Bar,Spreewaldplatz 14,10999,52.4982138,13.4308227,02300417
2598153634,Surprise Club,Potsdamer Straße 84,10785,52.5034016,13.3656474,01100103
2599938447,Granada,Seestraße 95,13353,52.5503613,13.3509782,01400938
2612336438,Hafenbar Tegel,Wilkestraße 1,13507,52.5883516,13.274449,12200515
2616118717,Mango Cocktailbar,,,52.4446386,13.5861546,09401431
2621393087,Sowieso Neukölln e.V.,Weisestraße 24,12049,52.475401,13.4243723,08100103
2633828235,Weinverein am Berg,Fidicinstraße 38,10965,52.4871836,13.389101,02200211
2670673624,The Black Lodge,,,52.4921891,13.4244162,08100310
2677254710,Musikcafé Sterlitz,Seestraße 104,13353,52.5490612,13.3484073,01400938
2699780030,Fitchers Vogel,Warschauer Straße 26,10243,52.5104061,13.4512424,02400624
2703339457,Ciao!,Schönhauser Allee 110,10439,52.5512437,13.4136505,03601141
2711790241,Hurricane,Ufnaustraße 2,10553,52.5291922,13.31727,01200517
2712285022,George R,Wilhelmshavener Straße 57,10551,52.5301741,13.3411616,01200520
2720667492,Bar Zentral,Lotte-Lenya-Bogen 551,10623,52.5050525,13.3290327,04300622
2722864624,,Flatowallee 16,14055,52.5103636,13.2441359,04200205
2727229961,Monkey Bar,,,52.5056642,13.3376934,04501042
2739097086,Zyankalibar,Gneisenaustraße 17,10961,52.4915715,13.392825,02200211
2739098725,Junction Bar,,,52.491493,13.3932513,02200211
2752211161,X Cafe Lounge,Wollankstraße 96,13359,52.563571,13.3920583,01300732
2752211163,Café Löwe,Soldiner Straße 88,13359,52.5583326,13.386891,01300732
2752211188,Flamingo 33,Wollankstraße 68,13359,52.5605451,13.3881567,01300732
2756763410,Graffiti Lounge,Kattegatstraße 2,13359,52.564066,13.3919548,01300731
2769572070,Academie Lounge,Köthener Straße 44,10963,52.5071731,13.377563,02100101
2774900830,Maza Lounge,Karl-Marx-Allee 121,10243,52.5170609,13.4473253,02400522
2774920018,Tennis,,,52.4810266,13.4293652,08100206
2785657617,Steckenpferd,,,52.4128183,13.5152165,08401246
2810565661,Amalia,Selkestraße 27,12051,52.470061,13.4369235,08100208
2823022545,Prachtwerk,Ganghoferstraße 2,12043,52.4790539,13.4387942,08100415
2823033640,Vin Neukölln,Elsenstraße 74,12059,52.4852587,13.449385,08100419
2824979763,Horst & Jutta,Scharnweberstraße 42,10247,52.5127512,13.4650775,02500831
2830322394,Zum goldenen Handwerk,Obentrautstraße 36,,52.4967894,13.3852031,02200208
2840289301,Queso y Jamon Cocktails & Tapas,Schönhauser Allee 36-39,10435,52.5385323,13.4140365,03701555
2860066610,Jaja,Weichselstraße 7,12043,52.4841767,13.4330258,08100314
2866626835,Barrel Weinbar,Petersburger Platz 1,10249,52.5217699,13.4494539,02400522
2866993674,Kleopatra Shishabar,,,52.5286774,13.3856375,01100308
2874570616,solar,Stresemannstraße 76,10963,52.5043141,13.3836872,02100101
2880320913,KiKi Sol,Reinickendorfer Straße 96,13347,52.5475959,13.3689037,01401043
2918828516,Das Rössle,Braunschweiger Straße 51,12055,52.4709121,13.4468415,08100417
2935231201,Brinks,Hasenheide 117,10967,52.4864102,13.4233747,08100101
2935274508,Oldieclub,Scharnweberstraße 55a,13405,52.567578,13.314109,12200309
2935287802,Adara,Boxhagener Straße 75,10245,52.50726,13.4683846,02500832
2935515203,Perro Loco,Sonntagstraße 5,10245,52.5051677,13.467245,02500834
2940887425,Elegance Cafe,Genter Straße 7,13353,52.5444044,13.3579215,01401047
2941462114,Klunkerkranich,Karl-Marx-Straße 66,12043,52.4820706,13.4313317,08100206
2963972260,Café Diseño,,,52.5585787,13.4129685,03400826
2969999433,Unterm Baum,Planufer 92d,10967,52.4954314,13.4178333,02200213
2971387933,Ramones Museum,Weserstraße 159,12045,52.4824813,13.4430897,08100418
2979939980,Helle Beach,Lyonel-Feininger-Straße 1,12627,52.5371409,13.607323,10200421
3008816619,Zap,Seelingstraße 21,14059,52.5156063,13.2931008,04300413
3021118498,Miami Cocktail Bar,Kurt-Weill-Gasse 7,12627,52.5375709,13.6036251,10200421
3036860727,Fabelhaft Bar,Schönleinstraße 6,10967,52.4922712,13.4209764,02200213
3039741145,Sheriff Teddy Bar,Weserstraße 25,10247,52.5114506,13.4634671,02500831
3045372048,HASE,Gabriel-Max-Straße 3,10245,52.5099489,13.4582773,02500833
3061336433,Bar Elisabeth,Sprengelstraße 41,13353,52.5419449,13.3565269,01401046
3062860284,Barkamp,Harbigstraße 14,14055,52.502687,13.263174,04200207
3081238388,Kieztreff,Alt-Buch 38A,13125,52.6352711,13.4998731,03100102
3081710993,Lounge Bar Café,Grunewaldstraße 53,10825,52.4881171,13.3373979,07200307
3087407610,Bar Buñuel,Bergstraße 25,10115,52.5317299,13.3944502,01100415
3095210830,Baden im Wein,Schönhauser Allee 155,10435,52.5375887,13.4117811,03701554
3098125032,Kitty Cheng,,,52.5298949,13.4043349,01100309
3110350780,Villa Neukölln,Hermannstraße 233,12049,52.4820635,13.425089,08100206
3157916989,Bar 55°,Rheinstraße 55,12159,52.4692985,13.3332592,07300618
3163411214,Galander Kreuzberg,Großbeerenstraße 54,10965,52.4919033,13.3831496,02200209
3178165275,Offen Bar,Hauptstraße 80B,12159,52.4722481,13.3364059,07300618
3184975056,Café Keese,Bismarckstraße 108,10625,52.5120173,13.3165894,04300624
3196075327,Bryk Bar,Sredzkistraße 65,10405,52.537545,13.4223765,03701555
3215985261,Apothekenbar,,,52.5017456,13.4239139,02300314
3218209930,iLand,Tempelhofer Damm 227,12099,52.4544266,13.3857047,07400927
3239758863,Al Contadino,,,52.5276155,13.4048044,01100309
3239758885,Bar Steinkeller,Steinstraße 20,10119,52.5273496,13.4039576,01100309
3273837961,Fadice Bar,,,52.5386174,13.2060653,05100316
3302170508,Arizona,Neue Grottkauer Straße 3,,52.5294451,13.5922585,10200628
3307304710,HELLERSDORFER PERLE,Riesaer Straße 102,12627,52.5304852,13.6210788,10200525
3308644130,Sporthalle Charlottenburg,,,52.5232822,13.3055903,04300518
3343659162,Pozzi Bar,Potsdamer Straße 124,10783,52.4995975,13.3624937,07100103
3354419270,Ciro Bar,Rankestraße 31,10789,52.5031413,13.3347999,04501042
3354419276,Gecco,Rankestraße 3,10789,52.5034418,13.3344126,04501042
3359334977,Rotbart,Böhmische Straße 43,12055,52.4742101,13.4491949,08100416
3380514461,Badfish,Stargarder Straße 14,10437,52.546571,13.4176684,03601346
3388516448,Whats up,Dominicusstraße 36,10827,52.4813172,13.3489297,07200308
3390615493,Kaschk by Brlo,Linienstraße 40,10119,52.5284199,13.4099389,01100310
3391940193,The Golden,,,52.5003625,13.3006497,04500936
3395000386,Vin Aqua Vin,Weserstraße 204,12047,52.4878896,13.4306193,08100311
3407556126,Zig Zag,Hauptstraße 89,12159,52.4750941,13.3399867,07300618
3419393693,Windhorst,Dorotheenstraße 65,10117,52.5184424,13.3861893,01100206
3446657745,Jansen Bar,Gotenstraße 71,10829,52.4830062,13.3604399,07200413
3455613401,Cocktailbar Zeitlos IV,Schlüterstraße 60,10625,52.5054368,13.3176983,04300624
3458901232,Gestrandet an der Jannowitzbrücke,,10179,52.514901,13.4173876,01100310
3480334314,Voima,,,52.4966531,13.3579232,07100103
3571993093,Blarney Pub,Methfesselstraße 4,,52.4895024,13.3854467,02200209
3573519566,"KK2 Kneipenkönig ""zwei""",,,52.4661691,13.3229938,06100103
3573519567,Zum Lindenblatt,Bornstraße 9,12163,52.4660215,13.3242491,07300516
3614692915,Alaska,Reuterstraße 85,12053,52.4828937,13.4287764,08100206
3632408170,Neues Ufer,Hauptstraße 157,10827,52.4895234,13.3597788,07200411
3632409697,Seventies,Hauptstraße 155,10827,52.4892699,13.3595731,07200411
3644102893,Café und Game,Grünauer Straße 4,,52.443905,13.5689485,09200819
3644133593,Foersters Feine Biere,Bornstraße 20,12163,52.466559,13.321931,06100103
3644228395,Aliyah,Rheinstraße 36,12161,52.4660933,13.3292622,07300516
3644364395,Diele,,,52.4545762,13.5769592,09501939
3644405821,Tusches Kick & Rush,Am Generalshof 3,12555,52.4526495,13.5753562,09501941
3644435051,Molly Malones,Torellstraße 1,10243,52.5111639,13.4470038,02400624
3683471518,Fairytale,Am Friedrichshain 24,10407,52.5287322,13.4281707,03701660
3687506125,Barkett,Czeminskistraße 10,10829,52.488058,13.3640294,07200414
3688980394,Zoo Loge,,,52.5059528,13.3337971,04501042
3689263626,Caravaggi Naturwein,Lettestraße 3,10437,52.543007,13.4201977,03601347
3694046846,Fjord,Eisenacher Straße 86,10781,52.490247,13.3493507,07100204
3702768869,Ernst,Solmsstraße 29,,52.4895474,13.3922277,02200211
3709932075,Miami Club & Cocktailbar,Seddiner Straße 8,10315,52.5133812,13.5222231,11401033
3716997681,Town Bar,Werderscher Markt 11,10117,52.5150859,13.3978884,01100207
3717372825,The Bar Fox,,,52.502635,13.3223169,04501041
3718951169,Arena Bar 1136,,,52.5067882,13.5124269,11400931
3722032234,Collins,Schönfließer Straße 17,16540,52.6691561,13.2879121,0
3727953647,Wohnzimmer,Lettestraße 6,10437,52.5434287,13.4192287,03601347
3747274058,Keith,Schillerpromenade 2,12049,52.4782382,13.4213181,08100102
3749393119,La BarBer Queer Tattoo Bar,Pannierstraße 56,12047,52.4871386,13.4310129,08100311
3749729346,Simons Bar,Simon-Dach-Straße 40,10245,52.5112243,13.4570222,02500833
3752880216,Meißners Probierstube,Bochumer Straße 6,10555,52.5235063,13.3378932,01200522
3755414776,WeinBasis,Schützenstraße 3,12165,52.4549907,13.324515,06100207
3755709523,Cherry Lounge,Waidmannsluster Damm 175,13469,52.6069824,13.3190534,12500928
3757292288,Shisha Sova Lounge,Koloniestraße 9,13357,52.5552586,13.3774088,01401045
3758747572,Moje Bar,Brüsseler Straße 6,13353,52.5482976,13.3520419,01400942
3769088532,Wilma,,13409,52.5608023,13.3729264,12100101
3769343186,alphonse,Sanderstraße 2,12047,52.4921107,13.4234179,08100310
3775184616,Cafe Warschau,Sonnenallee 27,12047,52.4865786,13.4294538,08100311
3778102238,lütt,,,52.4939486,13.4290907,02300418
3783275205,Sharlie Cheen Bar,Brunnenstraße 196,10119,52.5301909,13.4006727,01100415
3798370392,Karakas Bar,Kurfürstenstraße 9,10785,52.4992096,13.3674515,01100104
3799268857,Timeless,Hauptstraße 34,10827,52.4846046,13.3525429,07200409
3801422906,Qiu,,,52.5090261,13.3739893,01100102
3811492219,Dr. Maury in vino sanitas,Schönhauser Allee 62,10437,52.5456872,13.413263,03601142
3825899759,Limonadier,Nostitzstraße 12,10961,52.4918649,13.3905261,02200211
3826014006,Heile Welt,Motzstraße 5,10777,52.4987557,13.3516497,07100102
3826014922,Die Wein,Nollendorfstraße 15,10777,52.4979024,13.3518255,07100102
3826451051,Scheune,Motzstraße 25,10777,52.4977185,13.3484263,07100102
3826452056,Hans Weinstube,Motzstraße 10,10777,52.4988758,13.3510921,07100102
3826452472,Privatclub The Jaxx,Motzstraße 19,10777,52.4978968,13.3489686,07100102
3826455885,Segunda Casa,Eisenacher Straße 2,10777,52.4998512,13.3493148,07100102
3826455890,Tabasco,Fuggerstraße 3,10777,52.4992618,13.3489343,07100102
3830235403,Bar am Lützowplatz,,,52.5045842,13.3535636,01100103
3830235451,Lebensstern,Kurfürstenstraße 58,10785,52.5020478,13.3546078,01100103
3837620168,El Greco,Karl-Heinrich-Ulrichs-Straße 2,10787,52.5002999,13.3542777,07100102
3842659819,Isy Chill Out,,,52.5450317,13.5504182,10100210
3844947697,Ciwan,,,52.5124029,13.4899339,11300724
3855567144,Big Ben Bar,,,52.4977701,13.361099,07100103
3874489657,WandelBar,Birkbuschstraße 87,12167,52.4505207,13.322746,06100207
3874680812,Weinverein Rote Insel,Leuthener Straße 5,10829,52.4812946,13.3612554,07200413
3883262657,Café Zero,Wilhelminenhofstraße 38,12459,52.4612569,13.5198598,09200511
3895249257,Belushis Berlin,Rosa-Luxemburg-Straße 41,10178,52.5268736,13.4106518,01100310
3901335180,Kani Mani,Kastanienallee 95,10435,52.5389246,13.4103641,03701554
3905700621,Lucky Bar,Edisonstraße 17,12459,52.464088,13.5139043,09200511
3906102057,Mauerwinzer,Wolliner Straße 20,10435,52.539349,13.402115,01100416
3906921130,Tagesbar 69,Warschauer Straße 69,10243,52.5115561,13.4525781,02500833
3907010222,GinChilla Bar,Warschauer Straße 33,10243,52.5079337,13.4501407,02400624
3922914841,A-Trane,Bleibtreustraße 1,10625,52.5073394,13.3200854,04300624
3936518632,Lang Bar,,,52.5054381,13.3332189,04501042
3937667737,Buck & Breck,Brunnenstraße 177,10119,52.5321317,13.3990383,01100415
3937670618,Sportsbar,,,52.5296781,13.3996584,01100309
3986643071,Sportsbar 63,Frankfurter Allee 61,10247,52.5147333,13.4665581,02500728
3987612969,Zum Patzenhofer,Meinekestraße 26,10719,52.5025098,13.3293621,04501042
3992172154,45° Cocktailbar,Frankfurter Allee 250,,52.5117529,13.4977017,11300725
3992172155,Yu,,,52.512667,13.4980396,11300725
4003323948,Schurkenkeller,Christinenstraße 28,10119,52.5327062,13.4101937,03701554
4006934384,Die Legende von Paula und Ben,Gneisenaustraße 58,10961,52.4898866,13.4042422,02200210
4014983659,Havana Bar & Chat,Wollankstraße 115,,52.5667166,13.3972566,03400721
4029054547,Anton-Cafe-Bar,Berliner Allee 39,,52.5485806,13.4514166,03500936
4029729690,Wild Tales,Diedenhofer Straße 6,10405,52.5341405,13.417199,03701556
4034138654,Roses Bar,Oranienstraße 187,10999,52.5005362,13.4216423,02300314
4034138656,Molotov Cocktail,Oranienstraße 189,10999,52.5004415,13.4219521,02300314
4035162211,Xara Beach,Adalbertstraße 98,10999,52.4999219,13.4176547,02300314
4052810556,End.,Heidenfeldstraße 11,10249,52.5260058,13.451437,02500726
4061391765,Korkis Bar,Wilmersdorfer Straße 143,10585,52.5126891,13.3052701,04300621
4072577191,Frolic Lounge,,,52.4452383,13.5735623,09401534
4076409716,Basalt,Utrechter Straße 38,13347,52.5506938,13.3607102,01401048
4083481126,,,,52.5887962,13.2889889,12200515
4089521566,Saligari,Simplonstraße 23,10245,52.5083035,13.4592671,02500834
4100572575,Green Village,Brunnenstraße 94,13355,52.545694,13.3906394,01300834
4107746583,Bar Franzotti,Kreuzbergstraße 71,10965,52.4897849,13.383376,02200209
4111128215,,,,52.5685413,13.1954576,05100101
4111750190,Mendy und Edeltraut,Weserstraße 43,12045,52.4846681,13.4379323,08100312
4119516722,King café,,,52.554105,13.3764108,01401045
4126809989,Eetcafé,Rhinower Straße 3,,52.548104,13.4100854,03601142
4135389206,ZOE Bar,Große Präsidentenstraße 6-7,10178,52.5230679,13.4008415,01100309
4139442790,,Bellermannstraße 97,13357,52.5548049,13.3845642,01300733
4149295990,Saphire Bar,Bötzowstraße 31,10407,52.5318367,13.4340845,03701660
4149355489,Marsha*s,Sredzkistraße 64,10405,52.5372999,13.4221763,03701555
4160090541,Bar Milano,,,52.5312787,13.4001841,01100415
4173488703,Lindeneck,,,52.4451329,13.5053311,09100408
4188134452,Comedy Café Berlin,Roseggerstraße 17,12059,52.480241,13.446892,08100418
4208570623,Coco Lounge,,10623,52.5081169,13.3208679,04300624
4213412590,vorWien,Skalitzer Straße 41,10997,52.499129,13.4287641,02300417
4234437066,Funkloch,Wildenbruchstraße 68,12045,52.4863519,13.4460766,08100313
4267091485,Mauna Island,,,52.5334733,13.3858904,01100414
4267091486,BeachBar Mitte,,,52.5331987,13.384923,01100414
4267091487,Coron & Bar,,,52.5339051,13.3849023,01100414
4267091826,,,,52.5337617,13.3844643,01100414
4267092102,Big Kahuna Lounge,,,52.534051,13.3850259,01100414
4269744590,Bar a Vin,,,52.5215281,13.3859832,01100308
4275918534,Shisha-Bar International,,,52.3768329,13.0934458,0
4279608389,US Bowl,,,52.562118,13.4597399,03501037
4303177506,Stock & Stein,Wühlischstraße 43,10245,52.5086513,13.4608863,02500834
4304142392,Rhabarbar,Danziger Straße 58,10435,52.5393312,13.4217457,03701555
4306025962,Cafe Köşe Başi,Gerichtstraße 16,13347,52.5438324,13.374252,01300836
4307700921,Bata,Heidestraße 50,10557,52.5303619,13.3670529,01200624
4318471414,Bar 24/7,Pichelsdorfer Straße 114,13595,52.5231481,13.1978716,05200631
4339053549,Medlodi,,,52.5657286,13.3636512,12100101
4339053551,Ex Yu,,,52.5457054,13.3690581,01401043
4349464591,La Picá,Boxhagener Straße 48,,52.5086502,13.4659312,02500833
4351511589,Viola Lounge,,,52.5423111,13.3506804,01401046
4351511592,Chill Zone,,,52.5503129,13.364962,01401049
4359104142,Jahns Biergarten,Binzstraße 47a,13189,52.5638651,13.4216358,03400829
4360052978,Las Vegas,Karl-Marx-Straße 215,12055,52.4706748,13.4416926,08100208
4363623303,Bilionari,,,52.5069221,13.3043342,04300623
4376038431,Blooms,Detmolder Straße 61,10715,52.4785828,13.3253779,04501151
4379249092,Papillon Musikcafé,Prühßstraße 49,12105,52.4433958,13.3856223,07501030
4381991352,San-Franz-Isco,Detmolder Straße 21,10713,52.479025,13.3190222,04501148
4383654012,The Forsberg,Gerichtstraße 26,,52.5444471,13.3716585,01300836
4407986956,Gleis 11,,,52.5002687,13.3754599,02200207
4411589593,Akita Sushi Bar,Beusselstraße 72,10553,52.5282486,13.3284535,01200518
4411605189,Layal Lounge,Beusselstraße 18,10553,52.5281328,13.3289224,01200519
4412294195,Chez Charly,,,52.5471538,13.3501809,01400942
4414048693,Bar Brutal,Hobrechtstraße 54,12047,52.4918196,13.425715,08100310
4424407690,Thelonious Bar,Weserstraße 202,12047,52.487764,13.4309811,08100311
4437566769,Pharaos,Prinzenallee 86,13357,52.5532505,13.3818478,01401045
4443463238,Café Gold,Altenbraker Straße 19,12053,52.4702842,13.4325411,08100208
4443537590,Zum Starken August,Schönhauser Allee 56,10437,52.5436763,13.4127672,03601142
4446880414,Château,,,52.5645291,13.3269619,12200309
4453748197,Beste,Willdenowstraße 12A,13353,52.5438832,13.3606142,01401047
4455654489,La Vie,,,52.4861394,13.429165,08100314
4457967039,Cafe Sohbet,Sprengelstraße 6,13353,52.5426035,13.3581099,01401047
4476665092,Sportsbar Maxim,,13187,52.561368,13.4091586,03400826
4483858624,Cest la vie,,,52.5176701,13.3068261,04300619
4505979306,Victoria Bar,Potsdamer Straße 102,10785,52.5013718,13.363858,01100103
4524888114,Paloma Bar,,,52.4992818,13.418915,02300314
4527116689,Adara House,Buckower Chaussee 160,12305,52.4141283,13.4001454,07601442
4530197493,Bloona,Gärtnerstraße 12,10245,52.5104837,13.4609251,02500833
4533854888,Local66,Niederbarnimstraße 25,10247,52.5145199,13.4598449,02500830
4533857102,Luft und Liebe,Boxhagener Straße 26,10245,52.512616,13.4578979,02500833
4542091130,,,,52.4558613,13.5776363,09501939
4545683589,Beuster Bar,Weserstraße 32,12045,52.4859634,13.4353837,08100312
4565145424,Promenaden Eck,Schillerpromenade 11,12049,52.4757036,13.4221159,08100102
4595444463,Nachtigall Bar,,,52.535845,13.4163564,03701556
4619327772,Hafen,Motzstraße 19,10777,52.4979722,13.3492092,07100102
4632214719,Kims Karaoke,Mehringdamm 32,10961,52.4938763,13.3878471,02200208
4654410911,Mein Freund Harvey,Kulmer Straße 20A,10783,52.4920033,13.3645867,07100206
4702346689,BAR BAUTROCKNER,Jungstraße 29,10247,52.5119926,13.4665483,02500831
4703094281,Le Jardin,Buschkrugallee 60,12359,52.4581514,13.4478628,08200623
4706749195,Marrakesch,Schönhauser Allee 5,10119,52.5295322,13.4102878,03701554
4715187589,Sports Bar,Bölschestraße 68,12587,52.4561082,13.6256211,09501737
4720102290,PlaceOne Panoramabar,Strausberger Platz 1,10243,52.5192545,13.426984,02400521
4720903019,Facciola,Forster Straße 5,10999,52.4957929,13.4335797,02300418
4732222721,Bar Centrale Novantesimominuto,Augsburger Straße 33,10789,52.5018457,13.3340212,04501042
4741547274,Café Linie 1,Wilhelmstraße 9,10963,52.501387,13.3890261,02100102
4746854421,Jokers Bar,,,52.5321759,13.4707502,11300616
4750795022,Bar Luxus,Prenzlauer Allee 197,10405,52.5387093,13.42348,03701555
4773307931,Rockz,Simon-Dach-Straße 37,10245,52.5103508,13.4566525,02500833
4776626158,Bar BoBu,Müggelstraße 9,10247,52.5121173,13.4707775,02500832
4782878421,Wows!ville,Ohlauer Straße 33,,52.4948737,13.429902,02300418
4799003823,Bull,Kleiststraße 35,10787,52.5001984,13.3494308,07100102
4813859501,Overtime,,,52.5650031,13.3946691,03400721
4815202826,Holzmarkt25,Holzmarktstraße 25,10243,52.5114976,13.426733,02400623
4817567278,Black Pearl,,,52.5312529,13.3435021,01200625
4826193923,Sportsbar,Rostocker Straße 15,,52.5745974,13.5094165,11100206
4840148521,Bar Solut,,,52.5252941,13.4523136,02500726
4846723150,Beach Zone Lichtenberg,,,52.5305765,13.4766342,11300617
4881470568,KollektivBar ES,Pflügerstraße 52,12047,52.4901195,13.4335474,08100310
4881993966,Sportbar,Wühlischstraße 21,10245,52.5089273,13.4607705,02500833
4899765886,Society,,,52.5548347,13.3762977,01401045
4904205521,Club Lokum,Buddestraße 12,13507,52.5885571,13.2888965,12200515
4904217721,Aladin Shisha Lounge,Medebacher Weg 3,13507,52.5855595,13.280794,12200515
4908049914,Honigdachs,Grünberger Straße 64,10245,52.5114842,13.4576903,02500833
4908694240,K2 Bar,,,52.5674556,13.3785934,12100101
4919618121,Meine Bar Ici,Auguststraße 61,10117,52.5272149,13.3974755,01100309
4931223880,The Wall Comedy Club Berlin,Grünberger Straße 84,10245,52.5108674,13.4614853,02500833
4936116185,Spielpass Bierbar,,,52.5462512,13.5925937,10200417
4938965404,Heine,Putlitzstraße 19,,52.5324846,13.3429665,01200520
4945925189,The Castle,Invalidenstraße 129,10115,52.5314884,13.3883867,01100415
4948140228,,,,52.5102176,13.3752486,01100102
4948140430,Prinzipal Bar,,,52.5010099,13.419712,02300314
4948143723,203 Bar im Fernsehturm,Panoramastraße 1a,10178,52.5208599,13.4093633,01100310
4959707324,Botanical Affairs - Gin&Tonic Bar & Shop,Torstraße 95,,52.529821,13.4047968,01100309
4959884323,Journey into the Night,,,52.5051712,13.3201949,04300624
4967649020,Kupferkanne,Steinmetzstraße 18,10783,52.4957793,13.363058,07100205
4970978698,12 Grad Aetherloge,,,52.5150497,13.459003,02500830
4998526587,Balcone Lounge,Hasenheide 47,10967,52.4888108,13.4117261,02200212
5022231323,Mikkeller Craft Beer Bar,Torstraße 102,10119,52.5295519,13.403818,01100309
5031751089,Miami,,,52.5526811,13.3796923,01401044
5079340611,Die Bar Frohnau,,,52.6315162,13.289006,12400720
5082327736,Fantasy & Cocktail Bar,,,52.5106829,13.5023589,11400931
5109682741,Grand Bar,,10117,52.5250417,13.3933348,01100309
5111541616,Zum Schwalbenschwanz,Margaretenstraße 22,10317,52.5076346,13.4990703,11400929
5111587017,Morgen wird besser,Hagenstraße 7,10365,52.5136741,13.4998066,11300725
5128352222,Donau 115,Donaustraße 115,12043,52.4835313,13.4335435,08100314
5128359711,Mini Lounge,Neue Bahnhofstraße 36,10245,52.5046048,13.4685202,02500834
5141152703,Carlotta Bar,Lenbachstraße 10,10245,52.5050754,13.4659465,02500834
5143147765,The Brit-Pub,,13467,52.6165344,13.3086284,12400723
5234709983,Oblomov,Lenaustraße 7,12047,52.4900273,13.4262039,08100311
5313840260,Du Beast drinks & coffee,,,52.4824527,13.4451507,08100418
5324651378,Bar Schwips,Eichendorffstraße 1,10115,52.5294941,13.3880961,01100415
5332786082,Mima,Winsstraße 1,10405,52.5309987,13.4228741,03701659
5336750821,Lux 11,Rosa-Luxemburg-Straße 11-13,10178,52.5247036,13.4099587,01100310
5384055524,Mister Hu,,,52.4928356,13.3533229,07100204
5440526349,Erdal’s Bierstube,,,52.4558486,13.3806935,07400825
5467043156,Noble Rot,Gärtnerstraße 6,10245,52.5093799,13.4603446,02500833
5480181391,Mandaloun,Kaiser-Friedrich-Straße 40,10627,52.5091332,13.3016351,04300416
5481084048,Seventh Day,,,52.4927707,13.3867744,02200209
5486308639,Barbie Deinhoffs,Schlesische Straße 16,10997,52.499001,13.4455796,02300419
5503778828,Herr Lindemann,,,52.4737454,13.4449997,08100416
5630437216,Why Not Café,,,52.5258865,13.3072553,04300518
5640234265,ILOsBar,Motzstraße 30,10777,52.4977119,13.3474298,07100102
5640350672,LAFLAVA,,,52.5440345,13.3937483,01300834
5648017162,New Action,Kleiststraße 35,10787,52.500205,13.3495286,07100102
5667813593,Meins,Rembrandtstraße 12,12157,52.4689797,13.3408049,07300619
5675569442,The Hat Bar,Lotte-Lenya-Bogen 550,10623,52.5050846,13.3291618,04300622
5682506044,Orania,,,52.5021104,13.4168455,02300314
5715364552,Torbar,Torstraße 183,10115,52.528615,13.3934672,01100415
5715364553,Anna Hirsch Bar,,,52.5276115,13.3886111,01100415
5718697046,Café Sportsbar,Hauptstraße 8,10827,52.4893438,13.3589378,07200409
5718697047,Cafe Isy,Hauptstraße 8,10827,52.4893283,13.358919,07200409
5726198087,Berlin Icebar - Polar Expedition,Spandauer Straße 2,10178,52.5212657,13.4036317,01100310
5730290888,Blacklist,Neue Kantstraße 1,14057,52.5069868,13.2942893,04300416
5742057515,Bar hotel Numa,Friedrichstraße 31,10969,52.5047832,13.3910291,02100102
5776716413,BLO Kantine,Kaskelstraße 55,10317,52.5047247,13.4834592,11300826
5792730410,Zuckerzauber,Markgrafendamm 24c,10245,52.5022839,13.4663084,02500835
5800889978,Antikriegscafé COOP,Rochstraße 3,,52.5240121,13.4072985,01100309
5801381294,Bebua,,,52.5001599,13.3218194,04501041
5834257629,mokai,,,52.5064733,13.2989681,04300416
5837637799,Mr. Susan,Krausnickstraße 1,10115,52.5244238,13.3956778,01100309
5839839285,Cafe Happy,,,52.4679437,13.4417844,08100209
5856805935,Comebuy,Friedrichstraße 150,,52.5184467,13.3883733,01100206
5868881267,Glasweise Weinbar,Taubenstraße 20,10117,52.513162,13.3945066,01100206
5875655611,Kosova Bar,,,52.5090294,13.502728,11400929
5887756694,Cafe Prince / Kings Bar,,,52.5528953,13.3824815,01300733
5887756696,Baraka,,,52.5546426,13.3836801,01300733
5899203320,Bar 131,,,52.5273167,13.3864832,01100308
5905339085,Bubbles - Lounge,Roedernallee 167,13407,52.5813027,13.3447214,12500930
5915926102,The Suite,Gneisenaustraße 57,,52.4898283,13.4045527,02200210
5922258666,Wieviel Zeit,,,52.5240075,13.3819109,01100308
5933931111,Hildegard Bar,Marburger Straße 3,10789,52.5030662,13.3368675,04501042
5966966473,Rodi Bier Bar,Hohenschönhauser Straße 72,10369,52.5351527,13.468831,11300616
5995084892,Ruine Bar,,,52.4687045,13.43175,08100208
5997207785,Atlas,Graefestraße 10,,52.4939822,13.4182949,02200213
6032354004,Relax Mimmo Can,Reinickendorfer Straße 112,,52.5435155,13.369402,01300836
6041857820,Bierladen,Kreuzbergstraße 78,,52.4896926,13.3855384,02200209
6092640793,"Sportsbar, Bet 3000",Hansastraße 249,13051,52.5613525,13.4992297,11200410
6119368041,Lobby 030,Richardstraße 76,12043,52.4747593,13.4448611,08100416
6135203778,Black & White,Soldiner Straße 69,13359,52.5598913,13.3812912,01300730
6137406832,Miami,,,52.5563441,13.3728863,01401045
6157289432,Femo-Cafe,,,52.5712437,13.3796086,12100102
6170007186,Barred,Mariannenstraße 29,10999,52.4969291,13.4206723,02300417
6201408000,Galander Haifischbar,Arndtstraße 25,10965,52.4886008,13.389902,02200211
6204178136,Compass Bar Berlin,,,52.5075103,13.4713018,02500832
6215636685,Times Bar,Fasanenstraße 10,10623,52.505977,13.327695,04300622
6226975090,MINI,Urbanstraße 126,10967,52.4912543,13.4159154,02200213
6268073102,Baraka,,,52.5644871,13.3777744,12100101
6280799258,Fabelei,Kyffhäuserstraße 21,10781,52.4935533,13.3520538,07100204
6286663260,Break Bar & Lounge,Freiheit 12,12555,52.4478812,13.57847,09401534
6295530685,duke bar,Freiheit 15,12555,52.447804,13.5769322,09401534
6298093554,Das Caro,Caroline-Michaelis-Straße 1,10115,52.531471,13.3857245,01100415
6301879864,[B],Marktstraße 7,,52.5045098,13.4721286,11400927
6312320314,Restaurant Kleens Bar,Tile-Brügge-Weg 25,13509,52.5915845,13.2914723,12500824
6316591590,Malia Cocktail Bar,Karl-Marx-Straße 191,12055,52.4731385,13.4411487,08100208
6316591592,Alhayba,Karl-Marx-Straße 195,12055,52.4728261,13.4412722,08100208
6316591601,Café Kulis,Karl-Marx-Straße 198,12055,52.4725676,13.4409114,08100208
6331736867,Bebeq Xalcatraz,Karl-Marx-Straße 170,12043,52.4748329,13.4397725,08100207
6346569898,Loft14,Landsberger Allee 106,10369,52.5285246,13.4574432,11300618
6369181943,Schröders,Karl-Marx-Straße 18,14532,52.417566,13.2263226,0
6400761574,Transformator Frohnau,Fürstendamm 40,13465,52.6309488,13.308953,12400721
6409919467,Zagga Bar,,,52.5066138,13.3011443,04300416
6430926123,Keyta Lounge,Turmstraße 52,10551,52.5272698,13.3318248,01200519
6444647570,Louvre,,,52.497753,13.3611748,07100103
6447587236,260 Grad,Mühlenstraße 13,10243,52.5043994,13.4425535,02400625
6451857149,Fredericks,Lüderitzstraße 10,13351,52.5504348,13.3492218,01400938
6462718085,Al Mayas Shisha Bar,,,52.557591,13.3857976,01300732
6467825187,As,Ollenhauerstraße 14,13403,52.5666162,13.3292199,12200309
6501792285,Bar,,,52.5187432,13.3015715,04300621
6520925485,New-Pacha,Schützenstraße 21,12165,52.4525855,13.3215514,06100207
6534789986,Xerima,,,52.4598169,13.3258305,06100102
6612061218,Space Meduza,Skalitzer Straße 80,10997,52.5007117,13.4392206,02300316
6638535035,Migi Würsch,Boxhagener Straße 14,10245,52.513744,13.4544826,02500833
6652546285,Lolo Bar,,,52.5513735,13.3619442,01401048
6654940879,Serre Bar,Kremmener Straße 8,10435,52.5393605,13.4024212,01100416
6665207685,Bizim Mekan,,,52.5511473,13.3642509,01401049
6683553622,Lamm Bar,Wisbyer Straße 10439,,52.5533325,13.4150542,03601243
6698553589,Kapadokya,,,52.5546279,13.3839726,01300733
6732245435,Masala,Reginhardstraße 54,13409,52.561872,13.3730826,12100101
6739223738,Badfish,,,52.5105428,13.4577721,02500833
6739388159,Kingston,,,52.5178335,13.3067592,04300619
6746281386,Barbados,Reinickendorfer Straße 91B,13347,52.5488792,13.3684952,01401043
6761490089,Yigidolar 58,Plantagenstraße 41,,52.5461773,13.3681891,01401043
6764573670,M2,,,52.4286492,13.3302715,06200422
6764573672,Frobenstübl,,,52.4262893,13.3350024,06200314
6801987029,,,,52.5133716,13.3899735,01100206
6825107609,Imperial,,,52.4934783,13.3649752,07100206
6845042072,Isotop,Pohlstraße 64,10785,52.5014222,13.3620801,01100103
6856217637,Herbst,Monumentenstraße 29,10965,52.4879945,13.3740815,02200209
6876047360,Bar 51,,,52.4854205,13.4326586,08100312
6894842590,My Dream,,,52.4937676,13.363224,07100206
6916246685,Sicula Bar,Scharnweberstraße 46,10247,52.5126251,13.4664436,02500831
6917116188,Golden Turtle,Weserstraße 31,12045,52.4861422,13.4349457,08100312
6928789314,Trauma,Eschenbachstraße 1,12437,52.4686388,13.4904255,09100305
7025879077,Sportsbar,,,52.535224,13.4343806,03701660
7036400896,Poison Rock Karaoke Bar,Flughafenstraße 39,12053,52.4810026,13.4275975,08100206
7067306935,be-mee,,,52.5046357,13.3275063,04501042
7067306942,Kalyan,,,52.5046856,13.3272907,04501042
7067306943,Die Kleine Philharmonie,,,52.4996857,13.3301349,04501045
7089755261,Laros,,,52.5251841,13.3302945,01200521
7101244895,Belushis,Ziegelstraße 28,10117,52.5236046,13.3910427,01100309
7137634556,Fasanen 47,Fasanenstraße 47,10719,52.4961228,13.3266873,04501045
7141438133,Baba,,,52.4673067,13.4402339,08100209
7143309623,Badabing Social Club,,,52.4901582,13.4184324,02200212
7146586543,House of Gin,,,52.5049526,13.3386751,04501042
7157660285,Mein Quartier,,,52.6385434,13.4904715,03100101
7187974685,Deriva Bar,Mainzer Straße 23,12053,52.4807437,13.4277148,08100206
7195094856,Sports Bar,,,52.4937079,13.5078918,11401135
7217143490,Eva,,,52.5513557,13.3795539,01300836
7233554318,Double X Bar 2,Greifswalder Straße 160,10409,52.5428964,13.4403864,03601245
7233554323,Zum Anker,Greifswalder Straße 157,10409,52.5434113,13.4409525,03601245
7252449962,Janas Coffee Lounge,,,52.4758068,13.4232769,08100102
7256261949,Noka Korea Karaoke,,,52.5500151,13.3653417,01401043
7273899893,Adrijan Smoking Lounge,,,52.5172778,13.4539575,02500727
7277014959,Hollypipe,,,52.4740339,13.4422422,08100416
7330043786,Casablanca,,,52.4959253,13.295164,04500938
7340643730,Coppi Cabana,Coppistraße 14,10365,52.5081879,13.4823198,11300826
7340692918,RedRum,,,52.4938405,13.4150474,02200213
7382754571,Schnabels Klause,,,52.4342671,13.4552477,08300934
7450068804,Café Bar 09,,,52.5514194,13.364636,01401049
7590532349,Zur glücklichen Auster,,,52.4934978,13.4179104,02200213
7609092407,Liquid,Müllerstraße 121,13349,52.5540198,13.3452196,01400938
7610396212,Black & Gold Bar,Müllerstraße 116,13349,52.5548222,13.3438528,01400937
7610691602,Vater Bar,Weserstraße 202,12047,52.4877308,13.4310767,08100311
7612272350,Lucky Seven,Ofener Straße 15,13349,52.5555379,13.3439452,01400939
7612272351,Happy Sportsbar,Müllerstraße 61A,13349,52.5555989,13.3433676,01400937
7612272356,Palme,Müllerstraße 60,13349,52.5551046,13.3442379,01400939
7612272362,Barcelona,Müllerstraße 67,13349,52.5565569,13.3416822,01400937
7612272367,Milano,Müllerstraße 60,13349,52.5550787,13.3442788,01400937
7612272368,Helina,Müllerstraße 60,13349,52.5550522,13.3443219,01400937
7612272371,Schneeeule,Ofener Straße 1,13349,52.5553676,13.3442728,01400939
7613183872,Hook Bar,,13349,52.5549197,13.3457237,01400939
7617356459,Hotelbar,Rudolf-Breitscheid-Straße 190-192,14482,52.3954476,13.1273888,0
7647312767,Almi Su,,,52.5528672,13.3472911,01400938
7659253637,Sweet Monkey Bar,,,52.4787098,13.344949,07200308
7680872547,Drehmoment,Glasgower Straße 29,13349,52.5555417,13.3445488,01400939
7687416185,Bar26,,,52.595447,13.3320243,12500927
7689206529,Barracuda,Warnitzer Straße 24,13057,52.5670655,13.5172004,11100204
7702380333,Cafe Lion,,,52.5562012,13.3721193,01401049
7716439207,Luckys Bier Bar,Rykestraße 29,10405,52.5389849,13.4228433,03701555
7728242330,Weser 58,,,52.4829109,13.4414747,08100312
7757108364,interkosmos,Fanningerstraße 47,10365,52.5140772,13.4983885,11300725
7765118907,V&M (Zweiners),Hermannstraße 233,12049,52.4821791,13.4250677,08100206
7788079385,Fantasy,Silbersteinstraße 101,12051,52.465815,13.4274656,08100105
7804926614,Café Şamata,,,52.5590396,13.3862005,01300731
7821888885,Cafe Bar Gold,Silbersteinstraße 82,,52.4662638,13.4297197,08100105
7849523691,Cafe Lounge,Niemetzstraße 22,12055,52.4720839,13.4509287,08100417
7873975715,Art Stalker,Kaiser-Friedrich-Straße 67,10627,52.509259,13.3021631,04300416
7905585320,Bajszel,Emser Straße 8-9,12051,52.4696889,13.4394258,08100208
7928643415,the Neighbourhood,,,52.4929029,13.3797278,02200208
7953200955,Xelor Kesselhaus JazzBar,Mittelbuschweg 10,12055,52.4693237,13.4483482,08100521
7955521983,Lina Cafe Lounge,Heinz-Galinski-Straße 15,13347,52.5549788,13.3719398,01401045
7959695693,Bar Hadouken,,,52.551109,13.3679311,01401044
7978440744,Panda Bar,,,52.5710296,13.3608723,12100103
7978440764,Cafè Time E.K.,,,52.5686911,13.3614148,12100204
7978440766,Diamond Café Lounge,,,52.5684131,13.3622818,12100103
7992505502,Bar Solut,,,52.5503093,13.3635157,01401049
7995684603,Remem Bar,Hauptstraße 111,10827,52.481422,13.348212,07200308
7995802536,Black Rose,Hauptstraße 113-115,10827,52.4819584,13.3490544,07200410
8009527458,Pool-Inn,Wönnichstraße 68-70,10317,52.5047476,13.4964519,11400929
8021577476,Zum Rennbahn-Eck,Rennbahnallee 1,15366,52.5139178,13.6690258,0
8095094749,Bar 18,Erkstraße 18,12043,52.4814991,13.4387227,08100314
8114446143,EGO Cafe bar,Braunschweiger Straße 33,12055,52.4713605,13.4499946,08100417
8118641420,Bar solut,,,52.5604743,13.3347652,01400937
8331350712,Treff 26,,,52.5983372,13.3554381,12601134
8413213040,Shisha Code Red,Brückenstraße 7,12439,52.4576731,13.5113925,09200613
8423617316,The famous bar,Dominicusstraße 44,10827,52.4806403,13.3504964,07200308
8464152655,Mauritius,Havemannstraße 12A,12689,52.5690009,13.5684715,10100103
8464152661,Chill Lounge,Havemannstraße 4A,12689,52.5698427,13.5667615,10100103
8464152666,BMC Lounge,Eichhorster Straße 1C,12689,52.571066,13.5694808,10100102
8516433538,Manzana,Residenzstraße 80,13409,52.5584214,13.3711948,01300730
8688706870,Savlatore Pulvermacher,,,52.5470259,13.4095171,03601142
8809221742,Café Fulda,Fuldastraße 2,,52.4822073,13.4340085,08100314
8912407326,,,,52.5102675,13.4280802,02400623
8933355539,Lehmanns Weinstube,,,52.4711417,13.2907314,04400832
9029037207,Club49,Ohlauer Straße 31,10999,52.4950468,13.4300486,02300418
9045180679,Bar Saint Jean,Ziegelstraße 29,10117,52.5235889,13.3907508,01100309
9070952939,The B-Side,Gerichtstraße 56,13347,52.5446486,13.368355,01300836
9187138171,Fero Cafe Bar,Böhlener Straße 7,12627,52.5400999,13.6208275,10200423
9214875565,Tiger Bar,,,52.5013356,13.3654119,01100104
9221832353,BeachBar,,12681,52.5281533,13.5385618,10100312
9264160672,Treffpunkt Panne,,,52.5777944,13.3157357,12200308
9279640084,MMB,Herbert-Baum-Straße 5,13088,52.548643,13.4558126,03500936
9331836494,Cake,Müllerstraße 54,13349,52.5534832,13.3470482,01400938
9352941028,Maxat,,,52.5532271,13.3820524,01401045
9356429619,Zart Daneben,Hermannstraße 99,12051,52.4697038,13.4297355,08100104
9371207523,Incognito,Hohenstaufenstraße 53,10779,52.4941692,13.344973,07200307
9397557434,Bademeister,Bizetstraße 143,13088,52.5506028,13.4660866,03500936
9423354155,Public City,,,52.5608174,13.3876828,01300731
9423354158,Champions Café M Lounge,,,52.561058,13.3878826,01300731
9431809851,Die Darterei,Berliner Allee 106,13088,52.5500165,13.4593433,03500936
9450251709,KICK INN,,,52.4523636,13.5352059,09200613
9461892156,Cafe 54,,,52.5727681,13.3593068,12100205
9495344745,Ruby,,,52.4977269,13.3121237,04501043
9496868151,Sportsbar Twentyone,Reinickendorfer Straße 9,13347,52.5415487,13.3702233,01300836
9501863918,ZweiMalVier,Saalestraße 29,12055,52.471146,13.4518144,08100417
9523889809,KROM,Winsstraße 9,,52.5322134,13.424032,03701659
9530480257,time out,,,52.5666578,13.3637355,12100102
9531153633,Galaxy Bar,Schnellerstraße 35,12439,52.4545197,13.5160746,09200613
9531153639,Arkadasch,Schnellerstraße 115,12439,52.4548467,13.5155459,09200613
9562206135,Operlounge,Bismarckstraße 88,,52.5114055,13.3080362,04300623
9656316622,La Gano,,,52.4484598,13.3568874,06100205
9663220920,Fly,,,52.5625182,13.3532564,12100204
9693577409,Bar Santana,,,52.5515263,13.38182,01300836
9693592495,Cafe Divan,,,52.5513968,13.3816328,01300836
9698094769,Cassiopeia,Revaler Straße 99,10245,52.5069978,13.4543762,02500834
9737167645,Katre,,,52.5140945,13.300796,04300414
9741678957,Café Asya,Pankstraße 80,,52.5469973,13.3725387,01300836
9784061163,Black & White,,,52.5598931,13.3812922,01300730
9816599992,Wodessa Lounge,,,52.5104272,13.2924213,04300416
9823829856,800A,Stettiner Straße 19,13357,52.553832,13.3873281,01300733
9823829857,Sixty9,Stettiner Straße 41,13357,52.5541587,13.3872723,01300733
9867335578,uni keller,,,52.5206129,13.2748776,04200308
9892583809,Zur Schmalzstulle,Niederstraße 45,,52.6290727,13.3112232,0
9971724817,Eigengrau,Skalitzer Straße 45,10997,52.4991429,13.4298149,02300417
9992881817,Doors,Knaackstraße 94,10435,52.5398784,13.4147476,03701555
9998217225,Magic Bar,,,52.559189,13.3850671,01300731
9998932517,Möhrchen,,,52.5967822,13.3394471,12601236
10003704988,Café Arda,Beusselstraße 37,10553,52.5317092,13.328746,01200518
10004140875,FIFTY Cocktail Heroes,Sredzkistraße 62,,52.5373381,13.4221071,03701555
10034302774,,,,52.5626495,13.3657198,12100101
10045257319,Mono,Prenzlauer Allee 88,,52.5449137,13.4278802,03601245
10058271209,GLASWEISE Weinbar,Reichenberger Straße 109,10999,52.4941624,13.435728,02300418
10064345324,NOOR Lounge,,,52.5401917,13.4146272,03701555
10066682017,GEM Bar,Fuggerstraße 34,10777,52.4993412,13.3419792,07100101
10069398117,Kuckuckszwei,,,52.4938282,13.3451582,07200307
10088326755,Kleine Freiheit,Nansenstraße 31,12047,52.4904917,13.4314456,08100311
10103240873,Paparazzi 63,Stollberger Straße 31,12627,52.5308612,13.6046655,10200526
10141301399,Wunder Bar,,,52.5231922,13.1985206,05200631
10141301405,Royal Shisha Bar,,,52.5221679,13.1976031,05200630
10178375718,Cafe Casino,,,52.6654549,13.3785629,0
10188758726,Smoke,,,52.5048912,13.3139135,04501041
10308158102,Knutschfleck,Panoramastraße 1a,10178,52.5212261,13.4096113,01100310
10314935583,Bar 100 Gramm,Weinbergsweg 25,,52.5306277,13.4017601,01100416
10540009033,Majestic,Karl-Marx-Straße 60,12043,52.4827034,13.4319202,08100206
10559629844,Junction Cafe,,,52.4915117,13.3931594,02200211
10564972903,Repeat,Lausitzer Straße 1,10999,52.4989759,13.4301983,02300417
10607775155,Lounge 64,Bundesallee 64,12161,52.4763115,13.3281085,07300515
10648178213,Black Wedding Bar,,,52.5533978,13.3787503,01401045
10652249461,Männerfalle,,,52.3661854,13.0943511,0
10681117658,KnockOut by Franky,,,52.6096809,13.3356307,12601032
10693200406,Quinti Brunch & Bar,Weserstraße 31,12045,52.486138,13.4349794,08100312
10708090106,SWAY,Pannierstraße 29,12047,52.4906096,13.4348865,08100310
10710960705,Mex Café,,,52.5507082,13.362812,01401049
10759820100,B10,Großbeerenstraße 64,,52.4943755,13.3839947,02200208
10815869135,Relax,,,52.4240304,13.4849421,08301037
10902497105,Bar im Luftschloss,,,52.4737167,13.3885448,07400721
10939598259,Abgedreht,,,52.5157199,13.4520425,02400624
10944714245,Le moon,,,52.4928128,13.3866652,02200209
10958639666,Beans & Barley,,,52.3669167,13.5084899,0
10958644025,Berlin Pub,,,52.3678455,13.5102783,0
10968238705,THE ALCHEMIST,Linkstraße 4,10785,52.5073532,13.3749166,01100102
10969402149,Berlinos,Hindenburgdamm 84,12203,52.4448919,13.3152399,06300633
10997319075,Kästner Bar & Bistro,,10779,52.493801,13.3332387,04501152
11005743639,Zum Franziskaner,Dresdener Straße 17,10999,52.5013247,13.4169079,02300314
11006949321,Blauer Mond,Müggelheimer Straße 21,12555,52.4416584,13.5841144,09401534
11035783613,Boyberry Berlin,Motzstraße 19,10777,52.4980199,13.3493684,07100102
11035951199,Blond,Motzstraße 28,10777,52.4978319,13.3477984,07100102
11094595134,Stolpertreppe,,,52.4224898,13.4373711,08200832
11112849994,Sports Laola Bar,,,52.4404871,13.3877093,07501134
11119496067,Cafe Bar II,,,52.5319148,13.349758,01200623
11146509967,Meriam,,,52.465261,13.4423678,08100209
11148256765,P-two,,,52.5360974,13.6019074,10200421
11153531572,Rodi,,,52.5534161,13.4357207,03500934
11156195605,Bebo,Mehringdamm 61,10961,52.4908245,13.3873042,02200211
11204542037,Das Weinlokal,Rupprechtstraße 31,,52.5035239,13.4903004,11400929
11211802128,Kaia,,,52.50989,13.4551961,02500834
11243282099,Katzler Stuebchen,,,52.4925957,13.3694206,07100206
11247047113,Franken Bar,,,52.5005841,13.4222262,02300314
11267067416,Pawn Dot Com,Torstraße 164,10115,52.5288378,13.3962737,01100309
11276723429,"migas, a listening bar",Lindower Straße 19,13347,52.5437369,13.367712,01300836
11288307630,Humboldtbar,,,52.5250199,13.3920276,01100309
11379822356,M-Bar,,,52.4568711,13.5084234,09200613
11422924271,SPINA,Seumestraße 2,10245,52.5077324,13.4609663,02500834
11472992146,Bar Neiro,Ohmstraße 11,10179,52.5116908,13.4178864,01100313
11502926870,Himitsu Speakeasy Bar,Alte Potsdamer Straße 7 7,,52.5074908,13.373594,01100102
11515083655,Oona,,,52.4834276,13.4410739,08100312
11577388449,Deplasman / Reyyan,,,52.5609811,13.3878135,01300731
11583914069,Ficken3000,Urbanstraße 70,10967,52.4886087,13.4227057,02200212
11599708040,100 Gramm Lounge,Weinbergsweg 26,,52.5305167,13.4016781,01100416
11638641758,Kaminbar,Oderberger Straße 57-59,10435,52.5379537,13.4107415,03701554
11646308669,,,,52.6070267,13.3648085,12500929
11652139145,Bier-Bar,,,52.5104666,13.4526678,02500834
11661010069,,,,52.5352401,13.434176,03701660
11667024169,Café Huzur,,,52.4811113,13.4292917,08100206
11669256242,Knutschfleck,Panoramastraße 1a,,52.5211981,13.4087233,01100310
11688459683,Sportsbar 777,,,52.4699749,13.4301579,08100104
11735126207,Little Stage,Jonasstraße 1,12053,52.4723958,13.4405933,08100208
11762544217,Freundschaft,Mittelstraße 1,10117,52.5182338,13.3902935,01100206
11766261231,Turn Up,,,52.5066091,13.3030775,04300623
11768023465,Walther-Bar,,,52.4649391,13.3287764,07300516
11777972685,BAR DaF,Bouchéstraße 15,,52.4911813,13.4497029,09100101
11809829682,Cafe All In Berlin,,,52.509819,13.2978111,04300416
11829124900,Hier wo du strahlst,Rosa-Luxemburg-Straße 20,10178,52.5251715,13.4107281,01100310
11873736973,F37 Berlin Weinbar & Kunstgalerie,Fasanenstraße 37,10719,52.4989221,13.3266393,04501045
11892812606,Tati,,,52.532053,13.413919,03701556
11932449771,Küche Bar,Tempelhofer Ufer 16,10963,52.4985028,13.3840173,02200208
11942554597,Orta Mezze & Bar,,,52.5265653,13.3515207,01200625
11945354544,Lounge Fifty-Two,,,52.4353561,13.5471802,09200716
11990127149,cafe bar,Hermannstraße 57,,52.4766336,13.4263196,08100102
12001078369,Bata Bar & Billiards am Alex,,10178,52.5226556,13.4079224,01100310
12029122936,Star,,,52.4864214,13.4302877,08100311
12030585894,Café Allee,,,52.5135371,13.4743176,02500832
12030595509,Sky Bar,,,52.5141108,13.4686109,02500831
12049677722,Oya BarKneipe,Mariannenstraße 6,,52.5008915,13.4233212,02300314
12057810705,Torte,Brusendorfer Straße 12,12055,52.4730512,13.4546603,08100417
12073516362,Beavis Bar,Veteranenstraße 11,,52.5331583,13.4019413,01100416
12079538677,Gartn,Blockdammweg 1,10317,52.4838453,13.501479,11501238
12090841219,Lieschen Mueller,Panoramastraße 1A,10178,52.5207396,13.4085082,01100310
12094161963,Sunset Beach,,,52.5324797,13.1976693,05200629
12154752095,Stairs,,,52.4923252,13.3235916,04501149
12158279188,HausElf,,,52.4323933,13.5270733,09200715
12160360192,HAVANNA BAR,,,52.457651,13.5113304,09200613
12195186601,Phantom Bar,,,52.5270872,13.3879283,01100309
12247110072,Watt ‘n ditt?!,"Wattstraße, 12459 Berlin 17",,52.4674059,13.5091244,09200510
12258271301,Mauersegler,,,52.5406159,13.4032278,03601142
12260809701,Café Havanna Bar,,,52.5569777,13.4147264,03400827
12307261378,Weinbistro VesBar,,,52.3605541,13.410025,0
12320449440,Schloss Frizzante,Richardstraße 72,,52.4734885,13.4457229,08100416
12323796962,Chill mal! Bar,,,52.5495276,13.4473018,03500935
12323814033,Dennis Cafe&Bar,,,52.5490162,13.4496533,03500935
12361218842,,,,52.4906257,13.4008849,02200210
12363208411,Schnieke,,,52.5443428,13.4420678,03601245
12385108884,Treffpunk Schillerpark,Schöningstraße 15,13349,52.5575689,13.3443098,01400939
12400201480,Attenzione,Oderbruchstraße 9,,52.5302349,13.4610469,03601450
12402045594,The Beach Club,,,52.4696577,13.4423262,08100417
12423558490,Sky Sportsbar,,,52.4613313,13.5183617,09200511
12438529215,Torte,,,52.4730361,13.4546488,08100417
12453332532,Zu Hell Café & Bar,Wielandstraße 38,10629,52.5040021,13.3157093,04501041
12485213693,KROM,Winsstraße 9,10405,52.5321283,13.4239587,03701659
12536030264,CocktailBar,,,52.5347222,13.4951615,11200514
12537096292,Oder?Vino,Oderberger Straße 60,10435,52.5378543,13.4110461,03701554
12551258116,Da Da Da,Regattastraße 62,12527,52.422225,13.5764863,09301126
12558376959,Sky Sportsbar,,,52.5125199,13.4600777,02500830
12558418634,Schinkel Bar,,,52.5149553,13.3943706,01100206
12604740501,Honey Lou Bar,Anzengruberstraße 3,12043,52.4801394,13.4380633,08100415
12618415888,Moe Greene,,,52.5042326,13.3811591,02100101
12622731130,Mauritius,,,52.5132839,13.4566694,02500830
12627866431,Fuchs & Hase,Potsdamer Str. 3,,52.4357486,13.2577872,06300526
12672349433,Slapd,,,52.5073796,13.4569031,02500834
12734566501,The Gibson Bar,,,52.5056877,13.3803054,02100101
12770007392,The Knast Bar,Söhtstraße 7,,52.4377574,13.3086613,06300633
12784500387,Pluto,Kastanienallee 27,10435,52.5373707,13.4081676,03701554
12794214129,The Rad,,,52.4928043,13.4282817,08100310
12798082940,Majestic II,,,52.4647329,13.432595,08100105
12828014201,PANÙ,Karl-Marx-Straße 101,12043,52.4795713,13.437379,08100415
12884146098,Cafe Roj Bar,,,52.5697865,13.5670559,10100103
12884146290,Bar 7302,,,52.5694778,13.5680037,10100103
12888468756,Club Culture Houze,Görlitzer Straße 71,,52.4986939,13.4343375,02300419
12911621201,Donna Bar,,,52.4934891,13.4178988,02200213
12947768401,Truffle Pig Bar,Reuterstraße 47,12047,52.4900779,13.4287006,08100311
12978737709,Cheers XS,,,52.3576893,13.4096181,0
13008968256,patesô,,,52.5298044,13.3879091,01100415
13026729269,File Asto,Kollwitzstraße 26,10405,52.5331246,13.4148575,03701556
13038382201,U BAR,,,52.489353,13.4208183,02200212
13052395997,Queens 2,,,52.5137135,13.4724493,02500832
13095292601,Agatabar,,,52.485779,13.4346968,08100312
13159375322,Beach Bar,,,52.5436187,13.3287834,01400937
13165534605,rastlos,Eisenacher Straße 3a,,52.4996066,13.3491984,07100102
13185480701,WAU,Hallesches Ufer 34,10963,52.4991019,13.3859573,02100101
13186226466,Woof Berlin,Fuggerstraße 37,10777,52.4990971,13.3415291,07100101
13200087601,ILOsBAR,,,52.4977447,13.3475325,07100102
13205263635,Cafe-Bar,,,52.5284673,13.4696036,11300617
13235960142,Nomi,,,52.5012804,13.4283041,02300315
13250710102,Schreinerstraße 74,Schreinerstraße 47,10247,52.5171409,13.4673202,02500728
13261634612,Soot,Alte Potsdamer Straße 7,,52.5076551,13.3731995,01100102
13261754622,,,,52.509931,13.3730263,01100102
13271406209,Laterna,,,52.482597,13.441076,08100312
13271406210,Art and Soul,,,52.4823157,13.435996,08100314
