id,name,street,zip_code,lat,lon,geojson_feature_id
63253672,Späti Joe,Joachim-Friedrich-Straße 39,10711,52.4993218,13.2961178,04500937
141469102,,,,52.5408415,13.1474707,05200419
253616592,Mein Markt Pham,,,52.5110467,13.4626981,02500833
266629404,...nah und gut,Mädewalder Weg 45,12621,52.5092086,13.5874999,10400836
269475044,Milchladen,Dresdener Straße 20,10999,52.501786,13.4165373,02300314
277681454,Bagdad Lebensmittel,,,52.4990942,13.3931869,02100102
278124916,Drinks & more,Revaler Straße 9,10245,52.5083609,13.4530076,02500834
282406641,Drink Oase,Gärtnerstraße 14,10245,52.5108993,13.4611651,02500833
285079008,Drinkbox,Boxhagener Straße 102,10245,52.5125022,13.4602102,02500830
286210165,Spätverkauf,,,52.4992044,13.4635638,02500835
287297820,Midnight Shop,Schönhauser Allee 188,10119,52.5291171,13.4094976,03701554
297791929,Late Shop,,,52.3917023,13.0914517,0
304897065,Nhat Long,Waltersdorfer Straße 47,12526,52.3934584,13.5726195,09301025
307467535,Regioladen,Rudolf-Breitscheid-Straße 25,14482,52.3920291,13.0910777,0
310267641,E-Kiezmarkt,Dieffenbachstraße 55,10967,52.492463,13.4177005,02200213
310377176,Mein Markt,Innsbrucker Straße 37,10825,52.4808992,13.3430964,07200308
312820851,Spätkauf,Gerichtstraße 78,13347,52.5429183,13.376473,01300836
313874489,Asia Supermarket,,,52.5257591,13.4519646,02500726
313874493,Eren,Ebertystraße 52,10249,52.5262878,13.4516579,02500726
314401614,Asia Lebensmittel,Straßmannstraße 41,10249,52.5231705,13.4531781,02500726
314401618,Mini Markt 25,,,52.5227042,13.4513021,02500726
314401620,Ja Dilo,Petersburger Straße 45,10249,52.5223054,13.4509232,02500726
314401622,Asia Shop,,,52.5231896,13.4503447,02500726
322153511,Kiezmarkt,Große Hamburger Straße 39,10115,52.5270008,13.3983824,01100309
331347585,Nice 2 See U,Wühlischstraße 19,10245,52.5087187,13.4616129,02500833
364135228,Orange,,,52.4756969,13.4247724,08100103
411899540,All in One Shop,,,52.5282633,13.3430149,01200520
420512359,Spätkauf am Atillaplatz,Alarichstraße 1,12105,52.4550699,13.375534,07400826
427670051,Späti,,,52.5120271,13.4964222,11300725
427670057,Sheran Späti + Hermes Paketshop,Frankfurter Allee 243,10365,52.5120549,13.4970713,11300725
427670062,Kiez-Shop,Frankfurter Allee 246-248,,52.5117432,13.4974878,11300725
429729075,City-Kiosk,Hauptstraße 160,10827,52.4899925,13.3602113,07200411
430126697,Obst und Gemüse,,,52.5028638,13.4543186,02500835
431655696,LPG,Krossener Straße 29,10245,52.5098271,13.4622545,02500833
434492758,Supermarkt Rose,,,52.5374568,13.2033126,05100316
438150623,Mini Markt,,,52.503197,13.4914514,11400929
440971671,Mini Market Alper,,,52.5510932,13.3564031,01401048
441513730,Hakim Gida,,,52.4609503,13.4346275,08200624
442749323,Spät-Shop,Silbersteinstraße 9,12051,52.4673029,13.4403109,08100209
448594622,Späti am Schlesi,,,52.5010985,13.441111,02300316
452385593,Multi Spätkauf,,,52.5509168,13.5100245,11200410
454251024,Spätcampus,Weichselstraße 54,12045,52.4860909,13.4351467,08100312
458138650,Spätkauf Olive,,,52.5211339,13.4465218,02400522
458752207,Mariendorfer back & spätkauf,,,52.4405026,13.3878363,07501031
473066908,Gino´s Späti,,,52.4220522,13.2992739,06300631
473629401,Soldiner Späti,Soldiner Straße 14,13359,52.5578099,13.3900362,01300732
476259949,Heimgetränke,Innstraße 9,12045,52.4816447,13.4441313,08100418
491517107,Multishop Babelsberg,Karl-Liebknecht-Straße 3,14482,52.3909103,13.0909122,0
506197795,Lateshop Café Roj,Stargarder Straße 50,10437,52.544033,13.4242868,03601348
524769051,Minimarkt Tegel,Alt-Tegel 14,13507,52.5891787,13.2803819,12200515
530715886,,,,52.541734,13.3575427,01401047
530715910,Spätkauf & Backwaren,Sprengelstraße 2,,52.542862,13.3590534,01401047
539491913,Spätkauf,Baumschulenstraße 9,12437,52.4672572,13.4893514,09100304
560524658,Asia Markt Frischekorb,Stargarder Straße 6,10437,52.5472275,13.4157637,03601346
560525457,Verbrauchermarkt,Stargarder Straße 21,10437,52.5454075,13.4204087,03601347
567546833,Petersburger Getränke Shop,,,52.5227373,13.4496607,02400522
567546844,Eberty Point,Ebertystraße 15,10249,52.523981,13.4527734,02500726
573381061,Quang Loi,Scharnweberstraße 20,10247,52.5128191,13.4673128,02500831
576051172,Lebensmittel,,10247,52.5129377,13.4658832,02500831
576051178,Euro Spätkauf,Frankfurter Allee 60,10247,52.514379,13.4659476,02500831
577380846,Papki,,10437,52.5461354,13.4180767,03601346
586663202,Minimarkt,,,52.5132812,13.4713536,02500832
588552735,Insaf Supermarkt,Berliner Allee 77,13088,52.5494813,13.4555878,03500936
618021342,MiniMarkt,,,52.4682342,13.4672291,08100521
620704357,laube shop,,,52.4825323,13.4409421,08100312
620704359,,,,52.483436,13.4360938,08100314
620704361,Orient Rösterei,,,52.4826695,13.4376011,08100314
626304112,Corner,Greifswalder Straße 197,10405,52.5344555,13.4305661,03701658
639566330,Backshop & Kiosk,Joachim-Friedrich-Straße 1,10711,52.4933967,13.2958852,04500938
667858504,Kiezkauf,Oranienstraße 54,10969,52.5033965,13.4120065,02100104
678967934,Bonbonwasser,,,52.5514691,13.3578197,01401048
685354675,Oma Wenda,Irenenstraße 1,10317,52.5094753,13.4985107,11400929
697714204,La Bodega,Schwedter Straße 17,10119,52.5342305,13.4086992,03701554
697907411,Spätkauf -Late Shopping,Schönhauser Allee 72c,10437,52.5488264,13.4140802,03601346
699713742,Boysen Späti,Schulze-Boysen-Straße 35,10365,52.5082964,13.480045,11300826
700775293,Cleopatras Oriental Food,Weitlingstraße 54,10317,52.5064642,13.4959683,11400929
700775294,Trang Asia Supermarkt,Weitlingstraße 49,10317,52.5067828,13.4965201,11400929
703744109,,,,52.4031371,13.5072516,08401245
707353241,Spätkauf Öztep,Pankstraße 61,13357,52.5508319,13.3787053,01300836
707452472,Backwaren,Reinickendorfer Straße 26,13347,52.5463987,13.3696159,01401044
707490367,Kiosk,Badstraße 25,13357,52.552227,13.3821164,01300733
725621498,Spætkauf am Rüdi,Rüdesheimer Straße 8,14197,52.4727399,13.3140969,04400834
731948133,Bodega,,,52.500549,13.3637729,01100104
736620808,Kiezladen,,,52.4746512,13.4232443,08100103
736787803,Pi pa po,Rosa-Luxemburg-Straße 45,10178,52.5278335,13.4100874,01100310
745733025,small all,Weserstraße 205,12047,52.4879348,13.430489,08100311
746478626,Honigbienchen Späti & Bakery,Weichselstraße 30,12045,52.4875623,13.4375216,08100312
746853061,Babylon Café Bar,,,52.5802548,13.3988194,03200206
747845608,Café Kiez,Bahnhofstraße 49,12555,52.4553748,13.5765726,09501939
753361458,Flick Flack,Berliner Straße 1,13187,52.5704399,13.410203,03400723
769270131,Naturkost,Alt-Reinickendorf 6,13407,52.5745998,13.357608,12100205
769849999,Resis Spät Shop,,,52.566405,13.3632915,12100204
778710944,Spätkauf,Kastanienallee 26,10435,52.537337,13.4081356,03701554
778710967,Polats Minimarkt,Kastanienallee 5,10435,52.5401664,13.4111403,03701554
783442851,Späti,,,52.5409467,13.4136963,03601347
790502632,Dilek,Prenzlauer Allee 26,10405,52.532597,13.4207405,03701659
803582040,Brra Späti,Berliner Allee 83,13088,52.5496181,13.45622,03500936
838429741,Käptn Kiez,Sonntagstraße 28,10245,52.506133,13.4655484,02500834
838429759,Kiosk 24,,,52.5049744,13.4674633,02500834
838429794,Die Späti Brüder,Sonntagstraße 2,10245,52.5046457,13.4678618,02500834
846251052,Bio Grande,Wiesbadener Straße 82,12161,52.4713935,13.3231813,07300516
847907650,Spätkauf 63,Edisonstraße 29 A,12459,52.4669419,13.5133836,09200510
848169211,Kreuznacher Markt,Kreuznacher Straße 7,14197,52.4668756,13.3198096,06100103
861837755,Karam Al-Sham,Tempelhofer Damm 207,12099,52.4575426,13.3843486,07400927
863962594,Kiez Shop,,,52.5058829,13.4703076,02500834
863962795,Boxi Spätshop,,,52.5072131,13.4684572,02500832
863962912,Svennis Nachtshop,,,52.5055336,13.4699372,02500834
867497539,Back und Späti Zwang,Gotzkowskystraße 30,10555,52.5255327,13.3303661,01200521
886089002,Checkpoint Ali,Wiener Straße 14,10999,52.4982415,13.4288427,02300417
886154881,,,,52.4987698,13.4273223,02300417
939667458,Media Point,Föhrer Straße 12,,52.5416669,13.3494233,01401046
947301033,Lebensmittel und Getränke,,,52.5533409,13.4083302,03601141
947968184,HEIM Getränke2,Körtestraße 17,10967,52.4904132,13.4102485,02200212
947978148,C@ll Shop,Körtestraße 35,10967,52.4894565,13.4084449,02200212
959231215,Arslans Mix,Urbanstraße 133,10967,52.4916744,13.4143561,02200213
975312186,BisSpäter,Neue Promenade 7,10178,52.5227533,13.4012964,01100309
988401415,Mini-Markt,,,52.445943,13.500479,09100407
991750714,latenight shop,,,52.4938895,13.4218188,02200213
1003885734,Panorama Spätkauf,,,52.5272929,13.4500121,02500726
1028138858,Backshop Tabak&Presse,Reuterstraße 56,12047,52.4885157,13.4287783,08100311
1092250109,Kiezmarkt mediterrane Welt,Danckelmannstraße 52,14059,52.5154783,13.290879,04300413
1095435039,Asia Mini Shop,Danziger Straße 20,10435,52.5402467,13.4158448,03701555
1100350416,Danziger Express,Danziger Straße 71,10435,52.5394809,13.4238961,03601348
1109675825,Asien Supermarkt Hao Cai Lei,Karl-Marx-Straße 15,12043,52.4854176,13.4268834,08100314
1116716789,Lebensmittel,,,52.5348466,13.437918,03601451
1140906805,Ellîka Spätkauf,Neue Bahnhofstraße 69,10245,52.5065512,13.4698185,02500832
1140914372,City Kiosk,Seumestraße 20,10245,52.5100791,13.4620544,02500833
1140926746,K Mini Markt,Straße der Pariser Kommune 31,10243,52.5157165,13.4399122,02400623
1140927943,Spätkauf am Ostbahnhof,Erich-Steinfurth-Straße 6,10243,52.5110245,13.4356582,02400623
1140928753,Spätkauf Lebensmittel,,,52.5230609,13.4344701,02400521
1140930611,Spätshop 68,Petersburger Straße 68,10249,52.519883,13.4516496,02400522
1140935486,Para Spätkauf,,,52.5222261,13.449453,02400522
1147244150,dicker Hermann,Straßburger Straße 36,10405,52.5315376,13.4153398,03701556
1161375510,Jüli Späti,Jülicher Straße 24,13357,52.5534498,13.3921872,01300733
1165884653,I ♥️ Drinks Kiosk,Reuterstraße 29,,52.4870859,13.4291663,08100311
1172023257,Wohnung Werkstatt Garten Shop,,,52.6069342,13.4217062,03200310
1181625810,Esperanto,Simon-Dach-Straße 18,10245,52.5091058,13.4555933,02500834
1213234319,Gleim Shop,Gleimstraße 13A,10437,52.5469795,13.4071727,03601142
1221375859,Sipan Spätverkauf,,,52.5087859,13.4973357,11400929
1225127392,Mias Späti,Sandstraße 66,13593,52.5196117,13.1712485,05200527
1229435273,Borsa,Wilmersdorfer Straße 44,10627,52.5102675,13.3053735,04300623
1251129216,Spätkauf,,,52.5375585,13.4111971,03701554
1254238967,"Asia Lebensmittel, Tee & Geschenkartikel",,,52.5887885,13.2856406,12200515
1255588542,kinzi discount,,,52.4923613,13.4169147,02200213
1258615840,Spätshop,Landsberger Allee 38,10249,52.5236611,13.4391265,02400521
1259381388,Minimarkt Mura,Weitlingstraße 117,10317,52.5014008,13.4934074,11400929
1262166743,24 H Shop,,,52.4568134,13.384211,07400927
1269798909,Kiosk 21,Otawistraße 21,13351,52.5541616,13.3397118,01400937
1293209218,Minimarkt,Fanningerstraße 18,10365,52.5143319,13.4929949,11300724
1305230438,Sultan Shop,Guerickestraße 36,10587,52.518017,13.3168638,04300619
1305796906,Back & Späti,,,52.4290688,13.341326,06200314
1307115292,Sarikiz Spätkauf 44,,,52.4687842,13.4302906,08100104
1311121901,Iran Shop,Kantstraße 124,10625,52.5062656,13.3113681,04300623
1313284328,neon Spätkauf,,,52.5545943,13.4156184,03400827
1315201887,Spätkauf,,,52.489136,13.4509862,09100101
1320138052,Eis Mari,Reichenberger Straße 26,10999,52.4980049,13.4211603,02300417
1324860212,Späti Shop bei Baba,,12459,52.4591429,13.5253076,09200511
1327231904,Bioladen,Graefestraße 69,10967,52.4916836,13.4169394,02200213
1332197461,,Rubensstraße 28,12159,52.47496,13.3428619,07300618
1344436749,Spätkauf,Hähnelstraße 11A,12159,52.4757373,13.3398915,07300517
1345222866,The Shops,Lausitzer Platz 11,10997,52.5006355,13.4316495,02300315
1346939681,Mini Markt,,,52.5069169,13.4234636,01100313
1346939765,Spätkauf Olive,Adalbertstraße 80,10997,52.5029232,13.4202891,02300314
1346939892,Asia Markt,,,52.5117259,13.4167008,01100312
1348552225,Azzam Supermarkt,,,52.4682986,13.4302019,08100104
1350982088,Spätverkauf,,,52.5485711,13.500718,11200411
1356032933,Asia Super Shop,Lindenstraße 17,10969,52.5030129,13.3956038,02100103
1356471635,Kevser,Rubensstraße 53,12157,52.4708586,13.3439672,07300619
1365702019,Sera Market,,,52.5431839,13.2403164,05300737
1372320330,Spätkauf,Warthestraße 16,12051,52.4700074,13.4254726,08100104
1374234428,Chiosk,,,52.511525,13.4610655,02500833
1377854757,Ela Spätkauf,Stresemannstraße 72,10963,52.5035281,13.3842362,02100101
1389043771,City Spätkauf,Greifswalder Straße 9,10405,52.5295875,13.4258675,03701660
1389419270,M&J Nightshop,Torstraße 182,,52.5282926,13.3937035,01100309
1389926121,,Gartenfelder Straße 58,13599,52.5446717,13.2463188,05300737
1397070387,Staabi Back & Bistro Kiosk,,,52.5049434,13.3679278,01100104
1400842167,Asia Shop Blumen&Pflanzen-Getränke-Tabakwaren,,,52.5601156,13.0910543,0
1412188997,,,,52.547506,13.2597088,05300839
1419445740,AC Spätkauf,,,52.3825332,13.1216852,0
1420865586,Akman Feinkost,,,52.5395099,13.2723203,05300839
1424999184,Day & Night Shop,,,52.497054,13.4322378,02300418
1445299193,Biesm,,,52.5141024,13.5543949,10300731
1455764529,MultiMarkt3,,,52.5085725,13.4660361,02500833
1458646421,Back Späti,Schönhauser Allee 99,10439,52.5541857,13.4142353,03601139
1464069051,Regenbogen,Frankfurter Allee 42,10247,52.5147081,13.4629142,02500830
1471202665,Imbiss-Punjab;Punjab Spätkauf,Groninger Straße 28,13347,52.5531116,13.3620341,01401048
1472157627,Robinhood Store,Weserstraße 212,12047,52.4884033,13.4270259,08100311
1500108107,Junkys Point,Karl-Kunger-Straße 1,12435,52.4927794,13.4445307,09100101
1500156141,Pyza,,,52.4802885,13.4375394,08100415
1504564896,Minas Brasil,Warschauer Straße 61,10243,52.509825,13.4517982,02500834
1515489375,Bioladen Café,Tegeler Straße 30,13353,52.5426837,13.3562697,01401046
1531118797,Nazar Getränkeshop,,10317,52.5095164,13.4996572,11400929
1531118804,Kiezladen,Zachertstraße 14,10315,52.5065556,13.5034289,11400930
1531989580,My Späti,Alt-Köpenick 38,12555,52.4446573,13.5737799,09401534
1574753265,Niezuspäti,Potsdamer Straße 1,10785,52.5091184,13.3748093,01100102
1578269286,Der Obstmann,,,52.5714856,13.408441,03400722
1578857510,Gizem,,,52.4796484,13.4256815,08100102
1584563390,Prenzlwood Späti 68,Danziger Straße 68,,52.5391505,13.4229654,03701555
1597742298,Spätkauf,Birkenstraße 21,10559,52.5313486,13.3457172,01200623
1614361190,Lebensmittel Hillmann,Oranienstraße 20,10999,52.5006325,13.4220527,02300314
1614366959,Kiez Spirit,,,52.4904316,13.4232129,02200213
1614528079,Olive,,,52.517851,13.4618701,02500728
1625174234,Kiez-Kiosk,Baumschulenstraße 89,12437,52.4655009,13.4866751,09100304
1633204905,Hoa Mai Asia-Supermarkt,Frankfurter Allee 104,10247,52.513557,13.4740244,02500832
1637021706,lieber Späti als nie,Oppelner Straße 3,10997,52.5000597,13.4408296,02300419
1653339106,Latino Point,Dircksenstraße 45,10178,52.5235713,13.4053774,01100309
1657989689,,Brüsseler Straße 9,13353,52.5478164,13.3512729,01400942
1667160189,Baumschulen Späti,,,52.4630329,13.4836908,09100304
1668788004,We Love Späti,Hanauer Straße 80,14197,52.476671,13.3200611,04400835
1692613261,Alan Minimarket,,,52.4558558,13.5774293,09501939
1692613275,Obst Gemüse Getränke Lebensmittel,,,52.4556392,13.5772838,09501939
1713176030,Azzam,,,52.4901887,13.3612234,07100206
1713177124,நாகம்மா புடவையகம்,Willmanndamm 17,10827,52.4902201,13.3615476,07100206
1742948314,Bäckerei Ergün,,,52.5429314,13.4232484,03601348
1743741230,Spätkauf,,,52.5062656,13.2835133,04300415
1758891018,MEY,,,52.5122969,13.4697138,02500831
1766031942,späti,,,52.4973075,13.4452756,02300419
1769968053,,,,52.543873,13.4120203,03601142
1777152612,Alkassem,,,52.5710306,13.5636644,10100101
1806485474,TOTAL Station,Elly-Beinhorn-Ring 2,12529,52.3704679,13.5272015,0
1807541768,Bäckerei & Café 36,,,52.497357,13.4249683,02300417
1814105912,Central Coffee,Friedrichstraße 32;33,10969,52.5049337,13.3910364,02100102
1814543072,The 25 Hours Store,,10178,52.5218797,13.4149964,01100310
1820978713,Späti 4 You,,,52.4998238,13.3631301,01100104
1831972687,Vervielfältigungsservice Breitfeld,Rodenbergstraße 33,10439,52.550518,13.418591,03601243
1843136483,Spektrum Lebensfreude,Erich-Weinert-Straße 63,10439,52.5495578,13.4238982,03601244
1845262965,pir Getränke,Wollankstraße 102,13187,52.5647786,13.3942494,03400721
1847156092,Tausend Dinge,Wollankstraße 97,13359,52.5637284,13.3923484,01300732
1848909329,Eck Oase,,,52.4814436,13.4295163,08100206
1862169692,Kiezladen,,,52.5102529,13.459522,02500833
1866365545,Internet-Telecafe,Alt-Moabit 86,10555,52.5254005,13.3415781,01200522
1875070756,Späti Bros,Prenzlauer Allee 37,10405,52.5348742,13.4220914,03701556
1907577425,Spätkauf,,,52.4853925,13.43274,08100312
1909902419,Back&Caffee Eck,,,52.5177636,13.4688049,02500728
1912183755,GP GetränkeMarkt,Beusselstraße 43,10553,52.5324805,13.3287154,01200518
1915389772,Keno,,,52.5167713,13.3077057,04300621
1923316601,cebe Werksverkauf,Sonnenallee 227,12057,52.4724586,13.4592904,08100520
1923320817,Milchhof Mendler,Lettberger Straße 94,12355,52.4107485,13.5184591,08401246
1928634713,Presseshop & Spätkauf,,,52.533499,13.406941,01100416
1928636123,Spätkauf,Choriner Straße 11,10119,52.5328558,13.4070136,03701554
1947086939,Späti Alte Apotheke,Solmsstraße 35,10961,52.4906122,13.3925282,02200211
1948899764,Sidar Mini Market,,14059,52.518686,13.2877301,04300413
1964250493,Asia • Obst • Gemüse • Getränke • Tabak • Lebensmittel,,,52.5330094,13.4223583,03701659
1964705744,,,,52.6407033,13.2435244,0
1964964493,Kiosk bei Ela-Ma,,,52.4384165,13.3444056,06200313
1965270924,Kiosk 23,,,52.4848909,13.4279806,08100314
1965270960,CAN Getränke,,,52.4842379,13.4285263,08100206
1965863431,Spätverkauf und Internet,Wiener Straße 28,10999,52.4968006,13.4331118,02300418
1966836915,Michas Marktplatz,Guerickestraße 10,10587,52.5176047,13.3179411,04300622
1979735269,Weltladen A Janela,Emser Straße 45,10719,52.4965201,13.3198419,04501044
1979799014,Sibir,Dörpfeldstraße 62,,52.439069,13.5509485,09200717
1980987092,Kiez Shop,Frankfurter Allee 51,,52.5149112,13.4648549,02500728
1981140798,Mini Markt,Normannenstraße 6,10367,52.515992,13.4824955,11300722
1985536781,Automatico,Holsteinische Straße 19,10717,52.4909025,13.325004,04501149
1988000838,Jashims Tante-Emma-Laden,Otawistraße 23,13351,52.5537373,13.3391054,01400937
2018958606,Reformhaus Demski,Onkel-Tom-Straße 99,14169,52.4494832,13.2519251,06400840
2018959799,Reformhaus Demski,Fischerhüttenstraße 64,14163,52.4420764,13.2410664,06400839
2029768594,Kantshop,Kantstraße 46,10625,52.5065814,13.3119339,04300623
2072375894,Kaiser Kiosk,Hauptstraße 18,10827,52.4869402,13.35674,07200409
2072853940,Späti International,Weserstraße 190,12045,52.486351,13.4350101,08100312
2098290154,Reformhaus Demski,Kaiser-Wilhelm-Straße 77,12247,52.4355659,13.3449495,06200313
2126092520,Trinko Store,,,52.4883647,13.4265249,08100311
2127393893,Backshop,,,52.5504744,13.363221,01401048
2131565441,Feinkost Häusler,Albrechtstraße 120,12167,52.4554898,13.32583,06100207
2148260152,Flora Bäckerei & Spätkauf,Florastraße 4,13187,52.5657292,13.3969445,03400721
2181178527,Tobacco & Drinks,,,52.506863,13.394766,02100102
2183841807,E-36 Late Night,,,52.505174,13.3862351,02100101
2190106003,Intern@net Call-Center,,,52.4903911,13.3862445,02200209
2266759473,Aqua Getränke- und Weinhandlung,Gneisenaustraße 30,10961,52.4909141,13.3961061,02200211
2285962041,Kısmet Market,Manteuffelstraße 45,12103,52.4593252,13.3765862,07400823
2286884682,Weichardts Hofladen,Kladower Damm 221,14089,52.462517,13.1587273,05400942
2287699197,Asia Markt,Alte Jakobstraße 77,10179,52.51037,13.408449,01100312
2296927807,Doppelpack Handels GmbH,Heynstraße 9,13187,52.564078,13.4025395,03400721
2297383210,Ultra Kiosk,Antonstraße 42,13347,52.5465572,13.3624695,01401043
2300052118,First Class Telecafe,,,52.5498899,13.3642803,01401048
2300052127,Max-Multi Shop,,,52.5500164,13.3640322,01401049
2301610392,Sen Market,Schulstraße 117,13347,52.5500185,13.3644884,01401049
2301610395,Spätshop,,,52.5515966,13.3669496,01401049
2303114798,Abritus,,,52.5490483,13.3638703,01401043
2303114813,Afroshop Marula,,,52.5492312,13.3641607,01401043
2305236082,Backshop Spätverkauf,Prinz-Eugen-Straße 21,,52.5474713,13.3649186,01401043
2306426962,,,,52.5420164,13.3553233,01401046
2332757501,Antipasto,,12051,52.4638287,13.4337581,08100105
2335055081,Kiosk am Mariannen,,,52.5016238,13.4238345,02300314
2335083233,Day & Night Shop,Grünberger Straße 35,10245,52.5123328,13.4540704,02500833
2335091426,Mini Markt,Grünberger Straße 49,10245,52.5120577,13.4557455,02500833
2342347250,Spätkauf,Emser Straße 11;10,12051,52.469581,13.438672,08100208
2352412654,T.G.E.,Kantstraße 133,10625,52.5060444,13.3151924,04300624
2352673943,Kollektiv Bioase,Karl-Marx-Straße 162,12043,52.4754348,13.4395206,08100207
2361562308,Elas Spätkauf 35,Manfred-von-Richthofen-Straße 10,12101,52.4838713,13.3833386,07400720
2402339483,Cennet,Südstern 2,10961,52.4900644,13.405571,02200210
2402905128,Spätkauf,,,52.5042531,13.3435149,07100101
2403972911,Getränkeshop,,,52.5023513,13.4564495,02500835
2420799063,Clerks Späti,Paul-Robeson-Straße 43,10439,52.5521543,13.4119221,03601141
2420918363,Mini Markt Tieba,,,52.584,13.3023832,12500825
2423398551,"momentan geschlossen""",Flatowallee 16,14055,52.5104141,13.2440033,04200205
2429480918,Jung Shop,Jungstraße 19,10247,52.5112438,13.4654553,02500831
2429501927,Meet Kiosk Spätverkauf,Gabriel-Max-Straße 20,10245,52.5099712,13.4579456,02500833
2432876317,Kiosk Burhan Aykut,Wrangelstraße 24,10997,52.5022754,13.4326809,02300315
2438849736,Select Drinks & More,Wühlischstraße 38,10245,52.5090686,13.4591398,02500834
2445456646,Sweet Mini Markt,Brandenburgische Straße 1a,10713,52.4869618,13.3200768,04501147
2454290040,Spätkauf,,,52.4842094,13.3616064,07200413
2484347004,Heil Quelle,,,52.4868603,13.4307177,08100311
2484347012,Havin,,,52.4861775,13.4305783,08100312
2496651179,Café Tinto,,10961,52.4923797,13.3878394,02200211
2532870781,TAEO Thai Supermarkt,Krumme Straße 42,10627,52.5072938,13.3091842,04300623
2538714890,Duman Spätkauf - Lyca Mobile Partner,Greifswalder Straße 159,10409,52.5429975,13.4405078,03601449
2566382658,Back & Späti,,,52.5457718,13.3796045,01300836
2571168397,Samariter Tourist Shop,Samariterstraße 10,10247,52.5167129,13.4654773,02500728
2591225594,Alpha and Omega International Afro Shop,Weserstraße 3-4,12047,52.4881174,13.4263919,08100311
2618499940,ASIA Lebensmittel,Dörpfeldstraße 46,12489,52.4381824,13.5491157,09200717
2625393031,Bauerngarten,Admiralstraße 21,10999,52.4958735,13.4156315,02100106
2631445467,Spätkauf Stadt-Kiosk,Emser Straße 15,12051,52.4694557,13.4375405,08100208
2641521427,Drinkshop,,,52.4994276,13.4275171,02300315
2654574019,Moonshine Spätkauf,,,52.5243154,13.3300717,01200521
2663080756,Kiez Einkaufseck,Kaskelstraße 28,,52.5041947,13.4791072,11400927
2688507896,Azam Getränkeshop Spätkauf,Braunschweiger Straße 58,12055,52.4709529,13.4456029,08100417
2690026209,Best of Späti,,,52.506498,13.4703422,02500832
2690158006,Lillone,Bahnhofstraße 10,16552,52.6369941,13.371026,0
2707786978,Hartna,Am Moosfenn 1,14478,52.3651177,13.0934532,0
2729010572,Semsur,,,52.466622,13.4315906,08100105
2736043858,Spät & Backshop,,,52.5396596,13.3712046,01300836
2745722989,Asia - asiatische Lebensmittel Geschenkartikel,Bredowstraße 2,10551,52.5269513,13.3401211,01200520
2752211152,Akso Export,Prinzenallee 25-26,13359,52.5567265,13.3851562,01300732
2752211158,Balkan,Osloer Straße 7,13359,52.5559834,13.3875475,01300732
2752211176,Orientshop,Prinzenallee 30,13359,52.557266,13.3855919,01300732
2756495812,Spätkauf,,,52.5244792,13.39243,01100309
2756763461,Yiğido 58 Spätkauf,,,52.5564501,13.3843315,01300730
2756763474,Spätkauf,,,52.5638849,13.3916306,01300732
2769572946,T.I.C 2,,,52.5052313,13.379004,02100101
2796270178,See U Späti,Falckensteinstraße 5,10997,52.4995723,13.4431934,02300419
2796736339,Long Shop,Dircksenstraße 50,10178,52.5233158,13.4039862,01100309
2801187847,7 days Late Shop,,,52.4979731,13.3190554,04501044
2813482370,Drinks Shop Hermann Platz,,,52.4878189,13.4259311,08100311
2824979767,Camel,Frankfurter Allee 43,10247,52.5151001,13.4630917,02500728
2827585866,Ed & Fred Nussdepot,Huttenstraße 8,10553,52.5278526,13.3258011,01200518
2860326047,Tam Phuc Asia Shop Spätkauf,,,52.537134,13.3971706,01100416
2862295897,Djangos Place,Petersburger Straße 69,10249,52.5198802,13.4525636,02500726
2873890929,Esso,Heerstraße 285,13595,52.5149223,13.1850247,05200634
2874686038,Infinity,,,52.4957469,13.3634199,07100205
2874686040,Schland Night Shop,,,52.4951614,13.365856,07100205
2877252373,Spätverkauf,,,52.5264585,13.6123117,10400835
2881543413,Hofladen im Kiez (Bioladen),,,52.4768463,13.2902977,04400830
2886852045,Elan,Tino-Schwierzina-Straße 37,13089,52.5583444,13.4326989,03300516
2926167818,Späti47,Sonnenallee 12,12047,52.4872469,13.4264387,08100314
2935214601,Akasya Spätkauf,,,52.5014304,13.4236592,02300314
2935241502,Abschnitt 36,Audre-Lorde-Straße 73,10997,52.4998177,13.4270118,02300315
2935386822,Elbe Getränke,Weserstraße 171,12045,52.4840417,13.4400067,08100312
2935555501,MultiMarkt,,,52.5085877,13.4622046,02500833
2953781233,Spätkauf,Residenzstraße 48,,52.5645334,13.3635767,12100204
2953846658,Kaufshop Bafi,Reginhardstraße 34,13409,52.5608633,13.37182,12100101
2958353241,SpätiPate,Dietzgenstraße 57,13156,52.5859354,13.4022828,03200205
2962777900,Späti am Stutti,,,52.5060281,13.3021549,04300416
2973862795,#mein Spaetkauf,Hohenzollerndamm 156,10713,52.4881456,13.3019098,04501146
2987804839,Miss and Mister,Yorckstraße 51,10965,52.4927967,13.3695214,07100206
3004064464,Weltladen Köpenick,Bahnhofstraße 9,12555,52.455164,13.576912,09501939
3072013563,Botan Späti,Petersburger Straße 87,,52.5177493,13.453781,02500727
3073260197,Spätkauf Wrangelkiez,Wrangelstraße 44,10997,52.4994226,13.439601,02300419
3073291314,Spätverkauf,Wrangelstraße 87,10997,52.4992017,13.4407618,02300419
3074531911,Original Unverpackt,Wiener Straße 16,10999,52.4977813,13.4301896,02300417
3113099753,Spätkauf,,12555,52.4571231,13.5808138,09501940
3140301723,Müller Eck,Müllerstraße 163A,,52.5434051,13.3638855,01401047
3147455157,Spätkauf King,,,52.5416403,13.3535499,01401046
3149431447,Krokodil Späti,Samoastraße 23,,52.5423337,13.3538487,01401046
3157747970,Kiosk,Virchowweg 6,10117,52.524287,13.3764534,01100308
3194403750,Kiosk,Teltower Damm 213,14167,52.4144672,13.2667275,06300528
3209504900,Late Shop,,,52.5014884,13.4415781,02300316
3215985724,Uli’s Spätkauf,,,52.5026914,13.4222961,02300314
3221929062,Der kleine Laden Spätkauf,Wiesenstraße 62,13357,52.5450464,13.3777723,01300836
3239265254,"Stern Backshop, Stehcafe, Kiosk",,,52.5030542,13.4888767,11400929
3267343770,Kwik Markt,,,52.4239772,13.4576292,08300935
3284007561,Back & Spätshop,,,52.562069,13.359624,12100204
3286264361,Mauerkiosk,Bernauer Straße 32,10115,52.5385789,13.3980036,01100416
3306498748,Kiezmarkt,,,52.5528632,13.4062087,03601141
3312315281,Spätinn2,,,52.4791939,13.441365,08100415
3333071085,Kiosk,,,52.6078582,13.2349572,12400619
3348712211,Kiezkiosk,,,52.5008448,13.408786,02100105
3362345317,Familia Market,,,52.5657443,13.3203746,12200309
3373144216,JWANspäti,Wildenbruchstraße 83,12045,52.4835558,13.4423444,08100312
3383020379,Spätshop + Bäckerei,Neumannstraße 3a,13189,52.5540195,13.423999,03400828
3384540738,Spätkauf,,,52.5565726,13.4148027,03400827
3393706957,Spätkauf,Schönhauser Allee 90,10439,52.5533461,13.4148575,03601243
3393947819,Tabak Presse,,13347,52.5519495,13.3578031,01401048
3398525115,Eldenaer Spätkauf 28,Eldenaer Straße 28,10247,52.5202178,13.4691741,02500728
3409123517,Früchte & Asia-Lebensmittel,,,52.5163714,13.4789615,11300722
3439981677,Minigolf Shop,,,52.4581241,13.743614,0
3442711034,Mamas Spätkauf,,,52.4899211,13.4555955,09100101
3442719667,M&S Spätkauf,Karl-Kunger-Straße 10,12435,52.4917072,13.4462694,09100101
3442721070,Asia Lebensmittel,Elsenstraße 25,12435,52.4893607,13.4542337,09100101
3442739322,Ost-West Späti,Onckenstraße 16,12435,52.4887011,13.4421223,09100101
3452115332,Kasatschok Russische Spezialitäten,Schivelbeiner Straße 49,10439,52.5505164,13.4131676,03601141
3465014812,RK Markt,Bornholmer Straße 92,10439,52.5534973,13.4125696,03601141
3465014815,Almaraii,Bornholmer Straße 96,10439,52.5534542,13.4138249,03601141
3499262003,Spätkauf,,,52.4937138,13.4213641,02200213
3518024330,We Love Späti,Danziger Straße 44,10435,52.539707,13.4192635,03701555
3525872327,,Prenzlauer Allee 50,10405,52.5375121,13.4236475,03701555
3530849181,Spätkauf Astier,Kantstraße 145,10623,52.5057147,13.3209726,04300624
3570845450,Zora,Schloßstraße 22,12163,52.4601428,13.3235606,06100102
3578282893,Minimarkt,,,52.5401614,13.4047421,01100416
3578321975,Oker Markt,Okerstraße 12,12049,52.4740238,13.4240611,08100103
3590230294,Spätshop,,,52.5053915,13.3270228,04300622
3602855064,KompaktKauf,,,52.5039591,13.3314855,04501042
3615273496,,Auerstraße 12,,52.5187962,13.4439393,02400522
3632641125,Haupt Getränke,,,52.4872311,13.3577362,07200411
3644133594,Tobacco & Drinks,Simon-Dach-Straße 38,10245,52.5105338,13.4567401,02500833
3646164026,Späti 44,,,52.3917086,13.0937066,0
3670161824,Kiosk,,,52.4290924,13.3290394,06200422
3677450357,Spätie,,,52.5620681,13.2087876,05100103
3678881034,Spätkauf,,,52.5047344,13.3317291,04501042
3686251705,Sonnen Spätkauf,,,52.477875,13.4473738,08100415
3710407323,Mini Market,Bismarckstraße 76,10627,52.5110557,13.3021293,04300623
3712223331,Spätkauf,Potsdamer Straße 117/119,10783,52.4986146,13.3626548,07100205
3712391645,Kaiser Spätkauf,Kaiser-Friedrich-Straße 78,10585,52.5119663,13.3017081,04300621
3717599468,Yormas,,,52.5215326,13.4111495,01100310
3721863451,Späti Bull,Kantstraße 52,10627,52.5067185,13.3089922,04300623
3750154925,Spätkauf,,,52.5038328,13.4473675,02400625
3757302128,Prime Shop,Koloniestraße 143,13359,52.5567564,13.3774997,01300730
3789168245,Asia Supermarkt,Schillerpromenade 5,12459,52.4624408,13.5170444,09200511
3789200614,Spätkauf 30,Wilhelminenhofstraße 30,12459,52.4617007,13.517886,09200511
3792656709,Spätkauf 49,Wilhelminenhofstraße 16a,12459,52.4625301,13.5144455,09200511
3798391366,Späti Wood,Kurfürstenstraße 164,10785,52.4991411,13.3659567,07100205
3803590073,Multi Shop,,,52.5508943,13.3477348,01400938
3811248574,Mini-Markt,,,52.5870126,13.2853657,12200515
3826013967,Late Night Shop,Nollendorfplatz 7,10777,52.498849,13.3537781,07100102
3859012935,Ginza Berlin,Pfalzburger Straße 20,10719,52.4940159,13.3217867,04501044
3862836914,,Wilmersdorfer Straße 93,,52.5010418,13.3077052,04501040
3874366757,Späti Mustafa,Oranienstraße 105,10969,52.5064312,13.3999609,02100103
3884577676,Spätkauf 24/7,,,52.5242811,13.4176708,01100310
3886927364,Kiosk,Fischerinsel 6,,52.5125551,13.4067388,01100312
3888332839,Asia-Markt Lo,Nehringstraße 4 A,14059,52.5162234,13.2937195,04300413
3896292628,Day & Night Shop,Grünberger Straße 32,10245,52.5124095,13.4520316,02400624
3901340571,Späti,,,52.5388554,13.410288,03701554
3906183599,Edison 56,Edisonstraße 54,12459,52.4637641,13.5135992,09200510
3906890058,,Warschauer Straße 10,10243,52.5135166,13.4526419,02400624
3909159026,Spätkauf Watt-Eck 81,Siemensstraße 12,12459,52.4641989,13.510527,09200510
3909569394,Orient Lebensmittel,Brückenstraße 23,12439,52.4581304,13.5113696,09200613
3912873852,,,,52.4350743,13.5597093,09200717
3914046328,Albrecht,,12167,52.4524213,13.3333997,06100206
3933415411,B&P Spezialmarkt,,,52.5123866,13.4615435,02500830
3933417011,Späti Reisebedarf & Souvenirs,,,52.5126319,13.4617026,02500830
3937515257,The 25 Hours Store,,,52.5304925,13.4008212,01100415
3937876893,7. Himmel,Invalidenstraße 149,10115,52.5321673,13.3947646,01100415
3954780447,Perle Spätkauf,Soldiner Straße 65,13359,52.5601414,13.3802921,01300730
3968793066,Mini-Markt „Tante Emma Laden 2.0“,Stubnitzstraße 32,13189,52.5667036,13.4153573,03400830
3982921773,Spätkauf,,,52.5123086,13.4979315,11300725
3987047647,Schneller Back & Spätkauf,,,52.4539824,13.5189305,09200613
3987051080,Spätkauf,,,52.5313867,13.420016,03701659
3987051081,Mercan,,,52.5114739,13.4165742,01100312
3987051082,Berliner Späti e.V.,,,52.4672956,13.4401302,08100209
4004578362,Die Abfüller Lust auf Genuss,,,52.4284692,13.3274133,06200422
4031192648,Spätkauf Babelsberg,Rudolf-Breitscheid-Straße 44,14482,52.3916978,13.0937712,0
4041681101,Froyda,Warschauer Straße 12,10243,52.5132473,13.4525501,02400624
4066840139,Spätkauf OstX,,,52.5051104,13.4673053,02500834
4098463845,Pano Bakery,,,52.4881701,13.3676831,07200414
4100572573,Youssef - Orientalische Lebensmittel,Brunnenstraße 98,,52.5461198,13.3903162,01300834
4100572574,Townies,Brunnenstraße 95,,52.5457552,13.3905897,01300834
4102963961,Soda,Kastanienallee 60,10119,52.5340393,13.4054143,01100416
4109578506,Neon Späti,Wollankstraße 27,13359,52.5641319,13.3921666,01300731
4109584179,Späti,Wollankstraße 25,13359,52.5643397,13.3925917,01300731
4111804289,Spätkauf,,,52.4798299,13.4458594,08100418
4116116392,Big Café & Kiosk,Warschauer Straße 78,,52.513245,13.4533273,02500833
4131336489,Finesse,Helmholtzstraße 22,10587,52.5221331,13.3272761,04300620
4135097790,Spätkauf,Buschkrugallee 26,12359,52.461851,13.4452674,08200622
4138580438,Atti Asia Markt,Luxemburger Straße 31,13353,52.5454693,13.3581119,01401047
4139402061,Kiosk 45,Koloniestraße 20,13359,52.5577242,13.3786754,01300730
4139411321,Spätkauf,,,52.5574078,13.3778815,01300730
4139464889,Adanas Spätkauf,Bellermannstraße 83A,13357,52.5531673,13.3870306,01300733
4149934389,Kiosk Beycani,Schivelbeiner Straße 18,10439,52.5514807,13.4052058,03601140
4153062563,SoSo,,,52.517248,13.465326,02500728
4155950167,Orsa Discount,Brunnenstraße 117,13355,52.5414938,13.3931469,01300835
4157153871,Der Laden,,,52.5183818,13.4654159,02500728
4185555186,KGB - Koschys Gemüse Butze,Ebertystraße 51,10249,52.5261484,13.4517394,02500726
4188120734,Spätkauf,,,52.4924697,13.4581773,09100101
4188125646,Späti 4 you,,,52.5157239,13.4600425,02500727
4188213618,Späti 38,Lehrter Straße 38,10557,52.5346252,13.3588877,01200623
4200072390,Kiosk Area 44,,,52.4749729,13.4270512,08100103
4222272402,,,,52.5307498,13.3832747,01100415
4223491592,Loans Supermarkt,Grünberger Straße 22,10243,52.5126792,13.4504279,02400624
4223610975,Fairverpackt - Dein unverpackter Supermarkt in Babelsberg,Garnstraße 20,14482,52.3939152,13.0915895,0
4225752738,Der kleine Laden,Scharnhorststraße 8,,52.5337388,13.3712985,01100308
4244678196,Spätkauf,,,52.5354907,13.35759,01200623
4250113292,Kompaktkauf,,,52.5175346,13.3066551,04300619
4275918533,Markt am Schlaatz,,,52.3769579,13.0934635,0
4298702900,Drinks House,Burgsdorfstraße 3,13353,52.5426099,13.3620533,01401047
4304138890,Shop & Specialities,,,52.4896772,13.3612647,07200411
4304290491,Maxi Spätkauf,Gabriel-Max-Straße 15a,,52.5111832,13.458509,02500833
4304633635,Späti Vape City,Triftstraße 4,,52.5446146,13.3604421,01401047
4304633809,Triftpunkt,Triftstraße 5,,52.5445521,13.3602681,01401047
4311940492,Friese Tabakwaren,,,52.5198684,13.414405,01100311
4318605968,Spätkauf,,,52.5166872,13.197356,05200630
4320871292,Absolut Spätkauf,Karl-Marx-Allee 136,10243,52.5157879,13.4513879,02400624
4320997490,Kiosk / Tabakwaren,Straße der Pariser Kommune 41,10243,52.5164703,13.4401422,02400623
4321019535,Spätkauf,Goethestraße 6,10623,52.5089349,13.3218533,04300624
4329431021,Umuts Spätshop,,,52.4937139,13.3991837,02200210
4331556368,Aris Internet-Spätkauf & Presse,,,52.4812552,13.3201158,04501148
4336215193,Multi Shop II,Sonnenallee 136,12059,52.4794167,13.4442714,08100415
4339053529,Marhaba Supermarkt,,,52.5499582,13.3686152,01401044
4339053530,Mos Spätkauf,,,52.5505343,13.3683263,01401044
4340695690,Papeterie Biesdorf,Oberfeldstraße 178,12683,52.517252,13.5556141,10300731
4351511594,Contact Point,,,52.5535135,13.376283,01401044
4351511606,Somali Bile Market,,,52.5535366,13.3761088,01401044
4351511613,Kiosk Deika,Schulstraße 19,,52.5488148,13.3634973,01401043
4351511616,Spätkauf,,,52.5538644,13.3734706,01401044
4377515806,Nishi’s Späti & Asia World,,,52.4853106,13.3453313,07200308
4381394723,Afro Asia,,,52.5407447,13.3509937,01401046
4381394724,Afro Market,,,52.5412109,13.3503722,01401046
4381394733,Jamal Afro Shop,,,52.5410682,13.3505539,01401046
4381394738,Non Stop 24,,,52.5411515,13.3504451,01401046
4396230903,,,,52.5282692,13.3885394,01100415
4396230907,Spätkauf - Café - Backshop,Invalidenstraße 100,10115,52.5295852,13.3800959,01100308
4409599066,Spätkauf 178,Hermannstraße 178,12051,52.4717958,13.4292161,08100104
4411267178,All I Need,Goethestraße 31,10625,52.5090049,13.3089785,04300623
4412294194,Getränkemarkt Robin,Brüsseler Straße 12,13353,52.5472505,13.3503121,01400942
4427992984,Späti for you,,,52.4851931,13.3760499,02200209
4428728829,All In One Shop,Brückenstraße 10A,,52.5129671,13.4172783,01100312
4433827990,,Prenzlauer Allee 193,10405,52.5400156,13.4243108,03601348
4436482287,Alo Spätkauf,,,52.5530257,13.3797876,01401045
4436486384,Spätkauf,,,52.5528933,13.3804693,01401045
4436491041,,,,52.5528403,13.3806088,01401045
4437587810,Späti 030,,,52.5542674,13.384554,01300733
4439716023,,,,52.556411,13.3731336,01401045
4440326607,Candy Shop,,,52.5488787,13.2004694,05100312
4448386320,,,,52.567858,13.3130606,12200309
4502571354,Späti am Nolle,Maaßenstraße 10,,52.4977434,13.3540766,07100102
4520970753,Kiosk,Kochhannstraße 30,10249,52.5248046,13.4505297,02500726
4524897429,El-Fi,Karl-Marx-Straße 163,12043,52.4755953,13.4399372,08100207
4530197497,E-Kiosk 24,Gärtnerstraße 3,10245,52.5085786,13.4599688,02500834
4533857105,Spätkauf,Boxhagener Straße 105,10245,52.5127092,13.4588488,02500830
4534097102,Kiez Shop,,,52.5074247,13.4670986,02500833
4539206648,Al-Usra Markt,,,52.5526328,13.3799311,01401044
4542090687,Big Kiosk,Einbecker Straße 39,10315,52.5097257,13.5038489,11400931
4542090688,,,,52.5090188,13.5024592,11400929
4552123091,Multishop @ Schloss,Otto-Suhr-Allee 143,10585,52.51907,13.3005531,04300621
4554002046,Emmas Markt,,,52.5127062,13.3048422,04300621
4556060726,,,,52.4499777,13.3457222,06100205
4558385311,ESEN,Turmstraße 6,10559,52.5266687,13.3530311,01200625
4567083814,Spätkauf,,,52.4473862,13.3155664,06300633
4589778490,Lial,Sewanstraße 178,10319,52.4959997,13.5106044,11401135
4593021190,Wald Kiosk,Waldstraße 40,10551,52.5309959,13.3312013,01200519
4611035325,Kiosk,,,52.4765702,13.4263245,08100102
4639783993,Lebensmittel Markt,,,52.4449616,13.5757918,09401534
4641736546,Mini Markt,,,52.5889204,13.2888342,12200515
4641736547,Mini Markt,,,52.5899935,13.2877737,12200515
4642493362,Freundlicher Kiosk,Beusselstraße 44R,10553,52.5335506,13.3280416,01200517
4672691085,PrivatKoch.berlin,,,52.4981159,13.464862,02500835
4672835104,mini Getränkemarkt Tabakwaren,Corinthstraße 58,10245,52.4989464,13.4644209,02500835
4686702513,Spätkauf,,,52.5245585,13.3352403,01200522
4689341990,Kanki-Shop,Erkstraße 16,12043,52.4815726,13.4392257,08100314
4693388095,ALX,,,52.5203334,13.4131258,01100310
4698884701,Asia Mini Market,Rathenaustraße 3,12459,52.4588412,13.5269622,09200511
4709611465,Liebe Asia,Clayallee 333,14169,52.4374786,13.2615262,06400841
4712129081,1000 kleine Dinge,Baumschulenstraße 92,12437,52.4661971,13.4875061,09100304
4712129084,Q&T Sparland,Baumschulenstraße 93a,12437,52.4664014,13.4877569,09100304
4712129085,Kiosk,Baumschulenstraße 93a,12437,52.4664729,13.4878481,09100304
4773022895,Spätkauf,Johannes-Kepler-Platz 5,14480,52.3758338,13.1286633,0
4774716422,Getränkepoint,Lindower Straße 14,13347,52.5444905,13.368703,01300836
4775130216,Kant123,Kantstraße 123,10625,52.5063052,13.3107241,04300623
4783313906,Spätkauf,Müllerstraße 122B,13349,52.5538161,13.3456348,01400938
4789006622,Elfbar,Otto-Suhr-Allee 121,10585,52.5177569,13.3047312,04300621
4789968670,Späti,,,52.5293739,13.3361377,01200520
4799571388,Souvenir & more,Reinickendorfer Straße 8,,52.5414444,13.3702322,01300836
4809992561,Wollank Minimarket,,,52.5687489,13.3994855,03400721
4821450686,Kiosk,,,52.4337301,13.5380283,09200715
4839177786,Am Akazien Spätkauf,Akazienstraße 2,10823,52.4864674,13.355819,07200409
4846024710,Spät 63,,,52.5233456,13.4800036,11300620
4874345415,M99 - Gemischtwarenladen für Revolutionsbedarf,Falckensteinstraße 46,10997,52.500459,13.4445106,02300419
4879044506,Bundeskiosk,Bundesplatz 9,10715,52.4781727,13.3281608,04501151
4880219449,Sengels Eck Spätkauf,,,52.5074407,13.5113066,11400931
4881993956,Gula Sor,Wühlischstraße 49,10245,52.5081984,13.4627232,02500834
4887801413,Friedel Kiosk,,,52.4927076,13.4282604,08100310
4889196428,Spätkauf,,,52.5098726,13.4666474,02500831
4889866554,Spätkauf,,,52.5131957,13.4821132,11300722
4902369112,Spätkauf,Proskauer Straße 8a,10247,52.516676,13.4611824,02500727
4907995176,md Mein Markt,Grünberger Straße 55,10245,52.5119567,13.4563393,02500833
4908049915,Spätkauf 24h,Grünberger Straße 64,10245,52.5114605,13.4578312,02500833
4920773047,I Love Späti,Gärtnerstraße 33,10245,52.5084681,13.4595634,02500834
4938816056,Erdbär,Schönhauser Allee 148,10435,52.5392153,13.4116717,03701554
4965896087,u Zosi – Polnische Delikatessen,,,52.5264704,13.3506553,01200625
4970236429,Kiezladen,,,52.5002188,13.4442601,02300419
5008946464,Loki Regional Lokal,Breisgauer Straße 1a,14129,52.4393934,13.21517,06400838
5014542324,Kiosk 65,,,52.5373136,13.1878604,05100316
5016416505,REWE To Go,,,52.5306734,13.3280745,01200518
5032732330,BG MN Market Capris,Soldiner Straße 33,13359,52.5593926,13.3844073,01300731
5043097053,Spätkauf,,,52.5012709,13.4189159,02300314
5061136924,EFE Backshop,Rudower Straße 7,,52.4424452,13.4570782,08401138
5062318206,Lebensmittel,Rummelsburger Straße 57E,10315,52.5012096,13.5015582,11401136
5073653615,Lebensmittel - Getränke,Schalkauer Straße 27,13055,52.5371795,13.5090882,11200515
5089978455,Herr Buschmann - Alles in BIO,Smetanastraße 5,13088,52.5494487,13.4588849,03500936
5111954943,Schwälmer Stube,Langenscheidtstraße 5a,10827,52.4894421,13.3616577,07200411
5132524521,Naturkost Grünau,Regattastraße 133,12527,52.4170179,13.5811286,09301126
5142881719,Spätkauf 06,,,52.4801608,13.3525311,07200308
5154083340,H&E Spätkauf,Einbecker Straße 24,10317,52.5101013,13.5017875,11400929
5167689747,The Market,Akazienstraße 15,10823,52.4891132,13.353594,07200409
5191728946,Yasmin,,,52.5243458,13.1972842,05200630
5191729396,Zaman Al Khair,,,52.5226585,13.1974718,05200630
5193755040,Spätkauf 80,Turmstraße 80,10551,52.5264396,13.3369125,01200521
5204923624,Löwenzahn,,,52.3505315,13.6292323,0
5223291544,Konsum Kutte,,,52.5409488,13.4113238,03701554
5223291550,CITY KIOSK,,,52.5407918,13.4130886,03701555
5226545175,Bollywood Mini Market,,,52.5314714,13.3816775,01100308
5239619469,Potsdamer Getränke,,,52.497481,13.3615827,07100103
5248627028,Osteuropäische Spezialitäten,,,52.5573857,13.3733445,01300730
5248627030,Asiatische Lebensmittel,,,52.5573648,13.3733595,01300730
5250090818,Inn’s Eck,,,52.4788187,13.3448333,07200308
5299559824,All in One Shop,,,52.5004684,13.3374617,04501045
5329414776,Mitte Clock,,,52.5276017,13.3870132,01100415
5340487003,Night Shop Amir,Chausseestraße 9,,52.5282929,13.3861382,01100308
5346650984,Spätkauf Steglitz,Albrechtstraße 119,12167,52.4553968,13.3260388,06100207
5351286162,Tonys Kiosk,Schönhauser Allee 86,10439,52.5517974,13.414541,03601243
5352674977,Spätkauf 36,,,52.4998035,13.4243347,02300315
5363333353,Tabak & Getränke Shop,,,52.5212337,13.3221721,04300620
5403962648,Bornholmer Späti,,,52.5538583,13.4069074,03601141
5412067869,Zur Alm,Rudolf-Breitscheid-Straße 32,16341,52.6390348,13.5230317,0
5424941701,jungenspäti,Hauptstraße 102,10827,52.4797085,13.345952,07200308
5424941706,Spätkauf Zu Spät,Hauptstraße 134,10827,52.4847772,13.3541632,07200410
5429627821,Reoat,Markelstraße 7,12163,52.4639946,13.3252573,06100103
5471841985,REWE To Go,Rathenower Straße 8,,52.5255021,13.3570272,01200627
5486308621,,Schlesische Straße 17,10997,52.498851,13.4458608,02300419
5489585701,Wrangel Shop,,,52.4991696,13.4407955,02300419
5502001883,Späti Kreuzberg,,,52.4994017,13.426962,02300315
5503456919,Trinkbar Spätkauf,,10247,52.5167677,13.4623235,02500728
5528648737,AZ Minimarkt,Oranienburger Straße 90,10178,52.5235442,13.4008739,01100309
5548671621,Späti 030,,,52.5006832,13.4419836,02300419
5548816495,Late Night Spätkauf68,Reinickendorfer Straße 116,13347,52.5429689,13.3694793,01300836
5569263931,Minimarkt Grenzeshop,,,52.5642974,13.3933608,01300732
5571881938,Spätkauf Kopal,,,52.4862013,13.3649725,07200414
5582920980,Call&More,,,52.4913469,13.3939561,02200211
5582920981,Spätkauf 54,Gneisenaustraße 19,10961,52.491449,13.3934123,02200211
5587090931,Vitaminchen,,,52.4610411,13.3851452,07400824
5613723540,Viktoria Späti,Katzbachstraße 12,10965,52.4887967,13.376466,02200209
5627611219,,,,52.497781,13.3846856,02200208
5630437213,Eddis Späti,,,52.5255384,13.3073832,04300518
5632343912,Bürkner 7/24,Bürknerstraße 24A,12047,52.4931538,13.4253134,08100310
5641834846,Cocos Asiamarkt,,,52.4937638,13.3886798,02200208
5641834848,Daye Spätkauf,,,52.4938405,13.3887301,02200210
5648395321,Trinkstelle,Brüsseler Straße 49,13353,52.5480192,13.3520847,01400942
5716675886,Der Sache Wegen,Lychener Straße 47,10437,52.5443367,13.4180039,03601347
5754956329,Yellow Spätkauf,Königin-Elisabeth-Straße 10,14059,52.5114944,13.2819373,04200311
5782598629,Ro-Markt,,,52.5370324,13.1886819,05100316
5785203531,Kiez Eck,Streustraße 67,13086,52.5527368,13.4331207,03500934
5796921742,Demski,,,52.5103521,13.2702711,04200310
5806630454,Asia-Markt,Florastraße 37,13187,52.565574,13.4075727,03400723
5807513622,Mira Food Store,Sanderstraße 4,,52.4921402,13.4237892,08100310
5810887817,Aleppo Market,Dominicusstraße 50,,52.4802668,13.3513895,07200308
5813033922,Spätkauf / Postshop,Torstraße 98,10119,52.5294594,13.4043736,01100309
5820609154,Mini-Markt,,,52.5264256,13.3492921,01200625
5885018033,SpätShop,,,52.5039961,13.3072677,04501040
5889885346,Spätshop,,,52.5066135,13.3020308,04300416
5908587153,MK Spätshop,,,52.5301502,13.4006576,01100415
5908587155,M.K. Spätshop,,,52.5297391,13.4003442,01100309
5913018250,Heimgetränke,Alte Schönhauser Straße 4,10119,52.5278644,13.4085289,01100309
5913018255,24-Seven Market,Alte Schönhauser Straße 25,10119,52.5257894,13.4068812,01100309
5923190751,Bäckerei Spätkauf,Neue Hochstraße 30,,52.5428874,13.3757646,01300836
5957289546,Fresh Prince,,,52.4930292,13.3886402,02200210
5998109885,Asia-Markt,Kopenhagener Straße 2,10437,52.5488599,13.4127221,03601142
6005003081,Sirplus,Eisenbahnstraße 42-43,10997,52.5023268,13.4314936,02300315
6042233508,Bella Späti,,,52.4894131,13.390699,02200211
6073186260,Back Shop,,,52.5023641,13.4563875,02500835
6083287708,All in one Shop,Karl-Marx-Straße 278,12057,52.4640263,13.4436026,08100209
6124908036,Economat,,,52.5392229,13.40017,01100416
6135203776,,,,52.5598644,13.3814013,01300730
6135203779,Spätkauf,,,52.5599961,13.3809377,01300730
6157289423,Lotto,,,52.5677415,13.3786244,12100101
6157289433,Cafe All in one,,,52.5649852,13.3779262,12100101
6157289437,Spätkauf Duki,,,52.5639742,13.3776416,12100101
6221609397,25 h shop,,,52.505676,13.4470757,02400625
6223462329,Taha Minimarkt Spätkauf,,,52.4860681,13.4297716,08100314
6264712200,Bärlin Shop,Kaiserdamm 21,14057,52.5104007,13.2841928,04200311
6274765726,The Market,Leibnizstraße 48,10629,52.5017546,13.3129938,04501040
6279431121,Zora,Fehrbelliner Straße 3,10119,52.5308095,13.4108148,03701554
6284246624,25hours,,,52.5058318,13.3066662,04300623
6284510342,City Spätkauf,,,52.4475867,13.3414904,06100206
6289113659,Naz Spätkauf,Kottbusser Damm 70,10967,52.4895302,13.4245241,02200213
6289209485,Glückskäfer,,,52.4947058,13.3524772,07100204
6297137063,Max & Moritz,Bötzowstraße 51,10407,52.5337027,13.4365626,03701660
6316591591,Multicafe,Karl-Marx-Straße 190,12055,52.4731391,13.4407055,08100208
6316591610,Körner Spätkauf,,,52.47124,13.4407467,08100208
6331736857,Günes Spätkauf,Karl-Marx-Straße 156,12043,52.4759444,13.4392843,08100207
6353225400,Bundesmarkt,,,52.4774605,13.3301217,07300517
6418054532,Dream Shop,,,52.5211194,13.5883966,10200629
6430624973,Spätkauf &,Beusselstraße 44a,10553,52.5331986,13.3287084,01200517
6457639384,Baris-Ta,Wühlischstraße 22,10245,52.5090101,13.460391,02500833
6464021199,Hao Hao,Voigtstraße 40,10247,52.5154325,13.4677048,02500728
6464021202,Schnell Minimarkt,Voigtstraße 43,10247,52.5149973,13.4675259,02500728
6467627416,Getränke Shop Spätkauf,Lepsiusstraße 35,12163,52.4628634,13.3195658,06100102
6467834786,Seydos Back n Späti,Ollenhauerstraße 23,13403,52.5681787,13.3297439,12100205
6480348199,Bulgarische Lebensmittel,Schwedenstraße 5,13357,52.5556659,13.3753845,01401045
6501199795,,Schillerstraße 40,10627,52.510124,13.3062383,04300623
6503854377,Spätkauf M & A,Albrechtstraße 107,12167,52.4540898,13.3292883,06100207
6506856191,Afro International Markt,,,52.5517584,13.3708557,01401044
6518931687,Otto Korsukéwitz GmbH,Heinrich-Hertz-Straße 3D,14532,52.4049053,13.18888,0
6532305042,Juniors Spätkauf,,,52.5505054,13.346582,01400938
6532305047,Monsieur Ebeny Africa Market,,,52.5512504,13.3482236,01400938
6540660464,Sp@tkauf,,,52.5152782,13.2880061,04300413
6548214376,Bis Späti,Oderberger Straße 30,,52.5403563,13.40546,03701554
6569710892,Jiby,Perleberger Straße 54,10559,52.5318196,13.3495937,01200623
6570389927,Yusufs Späti,,,52.5041759,13.3753355,01100102
6571876492,Spätshop Perleberger Straße,Perleberger Straße 3,10559,52.5355659,13.3563111,01200623
6580040823,frugibus,Zwiestädter Straße 10,12055,52.4733369,13.4478243,08100416
6581421551,Champa Center,Boddinstraße 65,12053,52.4808969,13.4344097,08100206
6593074839,Minimarkt,,,52.4210154,13.1781712,06400735
6596706590,Von morgens bis Späti,,,52.5459278,13.3448983,01400942
6596977798,Spätkauf Gönül,,,52.5494561,13.3533154,01400942
6632057685,Posty,Lehrter Straße 24E,10557,52.531583,13.3616685,01200624
6638517570,Ce Ba Supermarket,,,52.5134282,13.4554422,02500833
6638539748,City Spätkauf Mini Markt,Boxhagener Straße 13,,52.51384,13.4541743,02500833
6695121386,Som Afro Shop,,,52.5523776,13.3792173,01401044
6700773085,Tante Emma Laden,Reinickendorfer Straße 59B,13347,52.5566572,13.3659415,01401049
6709895166,Lycamobil Day & Night,Berliner Allee 209,13088,52.5568894,13.4666418,03500933
6721752421,Basics Unverpackt,Schopfheimer Allee 4,14532,52.4013916,13.2221626,0
6739388160,Night Shop Richi,,,52.5177495,13.3067802,04300619
6744258498,REWE To Go,,,52.5136297,13.2659222,04200310
6757978245,Spar Express,,,52.5067873,13.3324825,04501042
6761500187,Kiosk & Backshop,,,52.5452457,13.3691604,01401043
6783961355,latenight shop,,,52.4835867,13.4308644,08100314
6795294506,Kiosk,Greifswalder Straße 206,,52.5329386,13.4287575,03701659
6825107608,Spätkauf,,,52.4934561,13.3650984,07100206
6846691466,REWE To Go,,,52.5137269,13.4217724,01100311
6868834335,24-Seven Market,Rosenthaler Straße 69,10119,52.5287282,13.4021977,01100309
6898983539,Ragazzos Wunderland,Krumme Straße 27,10627,52.5108631,13.3092812,04300623
6927919632,Kiosk 47,Weitlingstraße 55,10317,52.5062598,13.496215,11400929
6932885261,P71,,,52.5028036,13.3657508,01100104
6932885264,Berlin - Tag & Nacht Spätkauf,,,52.5031173,13.3662205,01100104
6938259809,Drink Shop,,,52.5014049,13.4419024,02300316
6949145452,Spice Village International Supermarkt,,,52.4578468,13.3838808,07400825
6985197578,Diedersdorfer Laden,,,52.3395659,13.3531486,0
7025879081,Central Food + Getränkemarkt,Danziger Straße 122,10407,52.5356481,13.4334779,03701660
7053084877,Späti by Sticky,Turmstraße 47,10551,52.5270468,13.3340028,01200519
7122918327,Latenight Shop Tor,Torstraße 37,10119,52.528482,13.4118467,01100310
7129308477,Kiosk Backshop Morgenstund Berlin,Werftstraße 21,10557,52.5228407,13.3595896,01200628
7132010678,REWE To Go,,,52.5063313,13.4503962,02500835
7143783086,Graefe Kiez Späti,Graefestraße 73,10967,52.4921123,13.4172698,02200213
7152122818,BACK & TABAK SHOP,,,52.5001116,13.3985682,02100105
7195094855,Tante Emma Laden,Dolgenseestraße 8A,10319,52.4937495,13.507647,11401135
7229104069,Spätkauf,,,52.4923657,13.4236297,08100310
7233815683,Duden Spätkauf,,,52.4851352,13.3846162,02200209
7237064969,Asia Mekong,,,52.5506605,13.4148913,03601243
7238456632,Back & Tabak,Ebersstraße 66,10827,52.4791962,13.3494407,07200308
7239671331,GOP Market,Schöneweider Straße 11,,52.47188,13.4455819,08100417
7244287151,Korkmazlar Shop (Day & Night Shop),,,52.4929078,13.3966572,02200210
7252363283,G-K Kiosk,Leinestraße 6,12049,52.4733372,13.426349,08100103
7252377714,,,,52.5048929,13.4688097,02500834
7253103663,Späti 70,,,52.4744434,13.4273338,08100103
7253123115,Yörem Baklava,,,52.473685,13.4277362,08100103
7260706585,Fair unverpackt,Düsseldorfer Straße 12,10719,52.4959,13.3215,04501044
7261229893,lieberspätiealsnie!,,,52.4769961,13.4242529,08100102
7273899887,JaDilo,,,52.5170947,13.4540216,02500727
7281046460,Spätkauf,Lychener Straße 6,10437,52.5414137,13.4152046,03601347
7289003922,La Bodega,Senefelderstraße 27,10437,52.5420621,13.4228421,03601348
7291373630,Grüne Meile,Stargarder Straße 63,10437,52.5456231,13.4206904,03601347
7292198182,Suti Asia Markt,Stargarder Straße 35,10437,52.5436032,13.4245381,03601348
7296525277,Spätkauf Olive,Frankfurter Allee 36B,10247,52.5147816,13.4619901,02500830
7296855673,Time to Shop,,,52.5635744,13.3640125,12100204
7308566114,Asialebensmittel,Raumerstraße 16,10437,52.5418025,13.4208702,03601348
7310117371,Dicke Schwester Späti,Prenzlauer Allee 185,,52.5423392,13.4256516,03601348
7310691228,Internet Cafe,Danziger Straße 41,10435,52.5401872,13.4193385,03601348
7331366121,Firat Spätkauf,,,52.4926153,13.4212113,02200213
7347092785,,,,52.4771625,13.4488006,08100415
7353865378,Grünschnabel,Manfred-von-Richthofen-Straße 9,12101,52.4837245,13.3839439,07400720
7399471666,Kiosk Shop,,,52.506611,13.2939666,04300416
7476846914,Kiosk,,,52.4479264,13.4842132,09100306
7526958135,Supermarkt Tabarak,,,52.5192928,13.1713645,05200527
7533520606,Beron Market,,,52.5267464,13.3514996,01200625
7541757198,Späti Bro,Warschauer Straße 80,,52.513565,13.4534698,02500833
7590570269,Hane,,,52.4933643,13.4178183,02200213
7598149826,Romania Markt,Bundesallee 134,12161,52.4746042,13.3287763,07300517
7598895276,dein Markt,Schmiljanstraße 18,12161,52.4693807,13.3321452,07300517
7605882339,Multi Shop,Müllerstraße 120,13349,52.5543561,13.3446507,01400937
7609092403,,Müllerstraße 122A,13349,52.553844,13.3455819,01400938
7612272366,Eko Market,Müllerstraße 66,13349,52.5564623,13.3418179,01400937
7619972077,Daily Shop,Kottbusser Damm 79,10967,52.4913924,13.4233919,02200213
7627025801,Multishop Eisenkralle,Swinemünder Straße 86,13355,52.5434887,13.3968566,01300834
7650143968,Back Shop,Schierker Straße 23,12051,52.4701257,13.4313706,08100208
7660503822,Späti 4 You,Krumme Straße 41,10627,52.5074724,13.30919,04300623
7682218085,(hub)convenience,,,52.5211636,13.411378,01100310
7709526506,Kiez Shop,Lückstraße 22,10317,52.5011467,13.491734,11400928
7710976602,Backshop,,,52.5603455,13.3808334,01300731
7728924601,Jülicher Minimarkt,Jülicher Straße 8,13357,52.5520885,13.3914105,01300733
7749865515,Berlinshop,Alexanderstraße 1,10178,52.5240803,13.4137336,01100310
7761726675,Arino Spätkauf,,,52.5474168,13.3469841,01400942
7764085885,Adriano & Rach,Hausvogteiplatz 13,10117,52.512938,13.3972399,01100207
7764085985,,,,52.5113005,13.4069519,01100312
7767847100,Spät Shop,Mecklenburgische Straße 24a,14197,52.4793893,13.3104642,04400834
7773607314,Afroshop Casa-Tropical,,,52.5464417,13.3488192,01400942
7775194172,Spätkauf 25,Friesenstraße 25,10965,52.4885166,13.3946276,02200211
7797154083,Spätkauf,,,52.4963105,13.4155983,02100106
7798400776,Berliner Kiosk,,,52.4862728,13.3229522,04501150
7804824563,Lädchen im sunpark,Mariendorfer Weg 24,12051,52.4639137,13.4256744,08100105
7867810046,Lebensmittel Getränke-Obst-Gemüse,Winsstraße 41,10405,52.5371026,13.4280725,03701658
7869333375,fast shop,Erkstraße 5,12043,52.4810374,13.4371154,08100415
7877976455,Weltladen Wedding,Seestraße 35,13353,52.5487969,13.3496502,01400942
7948555755,Asia-Shop,Mehrower Allee 36,12687,52.5557347,13.5639969,10100208
7951876010,Smoke Drink,,,52.5001024,13.4433022,02300419
8023092338,Grimm Shop,Grimmstraße 1A,,52.494521,13.4142313,02200213
8039726233,Spätshop,Wilmersdorfer Straße 134,,52.5109746,13.3055846,04300623
8075423310,Aimys Backshop,,,52.4774231,13.428831,08100207
8077217717,Black Rose Spätkauf & Backshop,,,52.4906149,13.3305072,04501149
8095094763,Afro Shop - Tropical Markt,Erkstraße 3,12043,52.4809682,13.4366464,08100415
8126649023,Backshop & Kiosk,Hermannstraße 28,12049,52.4819011,13.4245925,08100101
8165308848,Spätkauf 63,,,52.460471,13.5222507,09200511
8177206746,The 25 Hours Store,Schloßstraße 117,12163,52.4624278,13.3263509,06100103
8205928789,Damaschke Shop,,,52.499854,13.3021278,04500936
8222300375,Ährensache,Eisenacher Straße 56,10823,52.4856413,13.3515127,07200409
8223127022,city Market,Eisenacher Straße 59,10823,52.4851141,13.3521526,07200409
8245997132,REWE To Go,,,52.4843859,13.3206479,04501150
8255148508,Juvit Natur,Hauptstraße 9,13055,52.5479217,13.5041232,11200411
8257529782,Balkan Minimarkt EU 2,Berliner Straße 17,10715,52.4869544,13.3282094,04501150
8257529783,Balkan Minimarkt EU 2,Berliner Straße 17,10715,52.4869406,13.3281402,04501150
8261139069,Der Joachimstaler Bio-Feinschmecker,Amtshaus 2a,16341,52.6603565,13.5340919,0
8264923018,Spätkauf am Nachodeck,Nachodstraße 5,10779,52.4952316,13.3349458,04501045
8281283699,Aral,,,52.4190647,13.1588833,06400735
8285839578,Späti,,,52.5582845,13.3656044,12100101
8287585513,Der Joachimsthaler Bio,Am Amtshaus 2a,16341,52.6603758,13.534024,0
8290426019,Kreuzberger,,,52.5043185,13.4276101,02300315
8290426023,Büdchen,,,52.5021214,13.4290356,02300315
8290426028,Späti 36,,,52.5035506,13.4295046,02300315
8307364241,Sapphire Shisha Store,,,52.5568052,13.3412329,01400939
8320408698,Kiosk Backshop Tunc,Finowstraße 9,,52.4823129,13.4433259,08100418
8320782399,Huppiduppi Spätkauf,Pichelsdorfer Straße 29,13595,52.5161836,13.1972158,05200630
8323288146,Kiosk mit Lotto,Sonnenallee 105,,52.4819696,13.4399523,08100312
8389925453,Spätkauf,Bundesallee 199,10717,52.4925816,13.3312131,04501152
8398386453,Hem,,,52.6133651,13.4332586,03200309
8413213041,Spar Express,Michael-Brückner-Straße 25,12439,52.4529939,13.5141699,09100409
8432385311,Spätkauf,,,52.5685054,13.3622282,12100103
8437854118,Spätkauf Silbereck,,,52.4678126,13.4418287,08100209
8478519167,Total,,,52.5352982,13.5227802,10100311
8483279509,Total,,,52.4192256,13.3192762,06200422
8516433535,Spätkauf,Hansastraße 17,13409,52.5585895,13.3708729,01300730
8588995991,Shell,,,52.5199112,13.3550098,01200626
8622320265,Alan,,,52.5110521,13.2947579,04300414
8629566328,Eges Minimarkt,,,52.5087067,13.3181997,04300624
8686629766,"Obst, Gemüse, Getränke",,,52.5388135,13.4924356,11200514
8728828814,Spätkauf,,,52.5718244,13.3803503,12100102
8735608879,The Market,Leibnizstraße 56,10629,52.5017546,13.3129938,04501040
8735688397,Spätkauf 59,Schlüterstraße 59,10629,52.5050383,13.3176509,04501041
8759425992,Kivos Back & Kiezshop,Luxemburger Straße 1,13353,52.5463101,13.3586357,01400942
8766255537,Tommys Minilädchen,Regattastraße 120,12527,52.4179609,13.5798336,09301126
8766255543,Tuans Späti,Regattastraße 89,12527,52.4199942,13.5785091,09301126
8766295042,Vitaminkiste Zeuthen,Miersdorfer Chaussee 14,15738,52.3488484,13.6254819,0
8775512439,Oriental Shop,Karl-Marx-Straße 12,12043,52.485462,13.4258668,08100206
8775512441,Marx shop 12,Karl-Marx-Straße 12,12043,52.4854094,13.4259762,08100206
8783823473,Späti,Rigaer Straße 57,10247,52.5153286,13.4715926,02500729
8829476449,Asia 9,,,52.4934992,13.5066456,11401135
8833770016,Siriketha,Hindenburgdamm 92,12203,52.4434355,13.3154091,06300633
8833792861,Ayoob Market,Hindenburgdamm 88,12203,52.4441728,13.3153061,06300633
8857125302,Berlin Spätkauf,Wildenbruchstraße 5,,52.4824704,13.4414,08100418
8890286247,Nidos Späti,Brunnenstraße 113,,52.5421037,13.39272,01300835
8896048660,Back- und Getränkeshop Yasar,Krefelder Straße 18,10555,52.5246035,13.3396995,01200522
8911390134,REWE To Go,,,52.6362992,13.3071514,0
8918782091,L5 Späti,Lenaustraße 5,,52.4899624,13.425536,08100311
8952325667,Spätkauf,,,52.4606183,13.3769334,07400824
8989690899,Ronya Minimarkt Spätkauf,,12101,52.4826253,13.381665,07400720
9015007575,Le prunier,Sickingenstraße 1,10553,52.5329554,13.3275975,01200517
9051713158,Spätkauf & Back Shop,,,52.4722994,13.3775921,07400720
9073418329,Minimarkt,,,52.5487016,13.4499628,03500935
9073418330,Mini Markt,,,52.5499864,13.445876,03500935
9073418332,Späti to go,,,52.5487163,13.4520471,03500935
9073606224,Kany Getränke,Berliner Allee 95,13088,52.5499705,13.4578066,03500936
9073812247,Spätkauf,Berliner Straße 49,,52.5597554,13.4128012,03400826
9073823860,Bäckerei & Cafe - Leo,Berliner Allee 158,13088,52.5518023,13.4662136,03501038
9077238488,Baba Späti II,,,52.503322,13.4380163,02300316
9079425217,Nie Spät,Niemetzstraße 24,12055,52.4716196,13.451233,08100417
9091314041,Minimarket Bulgaria,Seestraße 105,,52.5487018,13.3478032,01400938
9097623441,Магазин Родина,,,52.4814301,13.4311722,08100206
9114794715,,,,52.4256948,13.4633031,08300935
9145188049,Schwedtiii Späti,,,52.5350039,13.4073241,01100416
9166121509,Spätkauf,,,52.55922,13.413635,03400826
9178061413,Ak Spätshop,Leibnizstraße 82,10625,52.509047,13.314067,04300623
9198286166,Spätkauf,,,52.5554203,13.3749103,01401045
9237900833,Dein Späti,Samariterstraße 3,,52.5153381,13.4648779,02500728
9262040839,Spätkauf Sunside,Seestraße 102,,52.5492766,13.3489436,01400942
9264363463,REWE To Go,,,52.4396254,13.3516159,06200313
9286853352,Britzer Spätkauf,,,52.4529551,13.4387484,08200623
9286872873,Telewelt,Grüntaler Straße 1,13357,52.5506603,13.3849502,01300733
9293399680,Weltladen Spandau,Reformationsplatz 7,13597,52.5382557,13.205759,05100316
9298567404,Kebe,Lorenzstraße 58,12209,52.4264522,13.3318003,06200422
9355733804,Alan Späti,,,52.5045995,13.4952382,11400929
9410449829,DMX Shop,Graefestraße 38,10967,52.4895086,13.4148135,02200212
9420708664,,,,52.5494778,13.4584145,03500936
9421237667,Spätkauf,,,52.4895548,13.3487739,07200409
9421237669,Späti Wunderlampe,Eisenacher Straße 42,10823,52.4890896,13.3488826,07200409
9423507588,Flink,Berliner Allee 70,13088,52.5490036,13.454938,03500936
9431768938,Helin Spätkauf,,,52.5501676,13.4600182,03500936
9442262038,REWE To Go,,,52.5207874,13.3336377,01200522
9458740130,Spätkauf,,,52.4802767,13.3525697,07200410
9461313721,Klemke Kiosk,,,52.5743856,13.3598899,12100103
9482041531,Sp*ti Kiezladen,,,52.4772428,13.4350519,08100207
9609536118,Chawla Store Kiosk,,,52.4871035,13.3233769,04501149
9651437284,u Zosi - Filialie Nr. 2,Breite Straße 63,13597,52.5360263,13.2039572,05100316
9655515803,Baba Späti,Feurigstraße 55,10827,52.4838581,13.3552811,07200410
9657884217,SpeedySpäti,Kolonnenstraße 14,10829,52.4853083,13.3629026,07200413
9668647516,Karls manufakturen MARKT,,,52.4545008,13.624856,09501737
9675677189,Unser Kaufmann,Reginhardstraße 98,13409,52.565593,13.3734825,12100101
9705441617,Take Away,,,52.363678,13.5080737,0
9710866805,Rewands Mini Market,Britzer Damm 121,12347,52.451746,13.4385183,08200726
9762108276,Night Shop,Breite Straße 22A,14199,52.4752777,13.2916571,04400832
9794512254,Herat Markt,Schildhornstraße 21,12163,52.4641573,13.3173925,06100103
9797339523,Syriana Halal Supermarket,Warnitzer Straße 6,13057,52.5663363,13.5198514,11100204
9815364428,Spätkauf Kaffee & Kuchen,Mariendorfer Damm 97,12109,52.4440097,13.3863579,07501031
9823829854,Flip Flop,Stettiner Straße 20,13357,52.5539769,13.3875942,01300733
9846839540,Cankat Späti,,,52.4994903,13.4164685,02100105
9851080877,Alamir,Huttenstraße 72,10553,52.527275,13.3281364,01200518
9917944555,Kiezladen Wilhelmsruh,Hauptstraße 24,13158,52.5865129,13.3673521,03400619
9929107284,Spätkauf 222 Tempelhof,Tempelhofer Damm 222,12099,52.4561705,13.3836036,07400825
9937044800,3 Brüder - Feinmarkt,Bärbel-Bohley-Ring 2,13355,52.5481224,13.3983783,01300834
9963977597,Botan Shop,Langhansstraße 94,,52.5533981,13.4350349,03500934
9982099019,Schätzchen,Marienburger Straße 5a,10405,52.5349049,13.4236558,03701659
10003644032,Day-n-night Späti,Bremer Straße 11,10551,52.5293355,13.3385369,01200520
10015418517,Späti am Leopold,Nazarethkirchstraße 53,13347,52.5472988,13.3583897,01401048
10015764560,The Winsy Späti,Winsstraße 14,10405,52.5332463,13.424969,03701659
10035647561,,Stargarder Straße 2,10437,52.5474668,13.4140894,03601346
10035799726,Mate Mate Spätshop,Schönhauser Allee 62,10437,52.5457547,13.4132813,03601142
10035842243,Multishop,Schönhauser Allee 57,10437,52.5439948,13.4128254,03601346
10035890556,meinspätkauf.de,Schönhauser Allee 49,10437,52.5424177,13.4126322,03601142
10045257317,Ari Mini Markt,Kanzowstraße 17,,52.5449548,13.4267595,03601244
10053826429,Yonkel Ork,Pappelallee 63,10437,52.5457019,13.417076,03601346
10061362362,MUCA Kiosk,Martin-Hoffmann-Straße 16,,52.4945129,13.4597253,09100101
10074966372,Erna,Knaackstraße 69,10435,52.5381175,13.415034,03701555
10075119373,Ali Baba Späti,Schönhauser Allee 127A,10437,52.5461139,13.4125811,03601142
10078364349,La Neamtu,,,52.5647813,13.3782758,01300731
10080410456,Kaya.P,,,52.5237454,13.3991498,01100309
10080485097,Ganesa Spätkauf,Liegnitzer Straße 27,,52.4932469,13.4346448,02300418
10098812512,REWE To Go,Hauptstraße 86,12159,52.4740166,13.3388093,07300618
10103240876,Hellersdorfer Minimarkt,Schneeberger Straße 3,12627,52.5319371,13.6028974,10200526
10106683990,BBK Backshop,Ritterstraße 41,10969,52.5037784,13.40279,02100103
10106683991,Berks Backshop,,,52.5039841,13.4021066,02100103
10111578842,Papa Arley,Lindenstraße 16,10969,52.5027416,13.3953945,02100103
10124884263,Kiez Kiosk Späti,Akazienstraße 18,10823,52.489661,13.3534564,07200409
10128949517,Nil,Karlsgartenstraße 20,12049,52.482043,13.4236478,08100101
10141301394,Spätkauf,,,52.5230044,13.1988745,05200631
10142874192,Furkan Market,,,52.4995933,13.4089126,02100105
10159421696,"Tabakwaren, Zeitungen, Lotto",Ritterstraße 4-5,10969,52.5008713,13.4126871,02100104
10169580366,Kiezstore 44,,,52.4633847,13.4341398,08100105
10171127868,Tegeler Späti,,,52.5881447,13.2848913,12200515
10228989617,Anas Multishop,,,52.5503754,13.3626743,01401048
10276611650,hutfabrik,Pappelallee 4,,52.5416613,13.4132583,03601347
10290515369,Afro-Shop,Boddinstraße 64,12053,52.4808295,13.4339179,08100206
10291361388,Yildiz market,,,52.4677974,13.3859994,07400824
10291960053,Masala Market,,,52.564819,13.3280379,12200309
10292188833,Ossi,Langhansstraße 122,13086,52.5509128,13.4428238,03500935
10311152256,Sweets & Paper,Albrechtstraße 114,12167,52.4548799,13.3273029,06100207
10540009034,Späti 61,Karl-Marx-Straße 60,12043,52.4826635,13.4320124,08100206
10559266027,Urban Mix Moabit,Alt-Moabit 107,,52.5244782,13.3490165,01200626
10595269898,Lotto Toto Kilic,Mariendorfer Damm 59,12109,52.4474487,13.3856534,07501030
10595706365,Minimarkt,Danziger Straße 60,10435,52.5392935,13.4219175,03701555
10603028959,Botan Shop,Gustav-Adolf-Straße 160,,52.5531315,13.4333835,03500934
10604555729,I. Café @ Kiosk,,,52.5405217,13.3909481,01300835
10656566373,Spati Shop,Mariendorfer Damm 60,12109,52.4474341,13.3851889,07501030
10674188131,Tele Center,Wilhelmshavener Straße 70,10551,52.5271444,13.3411645,01200520
10680707413,Vital Spätkauf,,,52.4976502,13.346378,07100102
10685954216,Snackpoint,Schwedter Straße 45-46,,52.5390713,13.4052698,01100416
10688182967,Minimarkt 39,,,52.5477226,13.4342272,03601245
10693140814,treffpunkt,,,52.5023103,13.4202202,02300314
10710895029,REWE To Go,,,52.5842312,13.2879251,12200515
10719447727,Bazarche Hafez,Alt-Moabit 45,,52.5242824,13.3317078,01200522
10743721439,"Tabak, Getränke und Souvenirs",,,52.5237001,13.387221,01100308
10748234853,Boximarkt,Boxhagener Straße 116,10245,52.5137055,13.4554472,02500830
10755840510,Barakat Supermarkt,Müllerstraße 160,,52.5440904,13.3627229,01401047
10761677079,Spar Dich Satt,,,52.5379404,13.2040852,05100316
10770738600,Spätimo,Siemensstraße 13,10551,52.5327276,13.3332264,01200519
10770790453,Kiez-Treff Späti,,,52.5534828,13.4131995,03601141
10791281758,,Käthe-Niederkirchner-Straße 11,,52.5307543,13.4308969,03701660
10804788435,Prinzen-Späti,,,52.4987028,13.4071056,02100105
10814372130,bangla bazar,Brunnenstraße 65,,52.5407536,13.3945494,01300834
10815812084,Kiez Shop,,,52.4606602,13.4323118,08200624
10903264008,Zimt & Vanille,,,52.6701375,13.2838152,0
10914516039,DAN Asia Markt,,,52.4560686,13.3209873,06100102
10931265400,Diyar Späti,,,52.538473,13.206815,05100316
10956460956,Louis Späti,,,52.5371348,13.6204289,10200524
11014773819,Yormas,,,52.5201193,13.3875247,01100206
11016426972,Aksaray Späti & Backshop,,,52.5352969,13.3557663,01200623
11025761916,Spätkauf Spree,Beusselstraße 3,,52.5251037,13.328004,01200521
11030379594,City Shop Kiosk,,,52.5171008,13.3043667,04300621
11050140305,Backshop,,,52.6408773,13.2065655,0
11057524271,REWE To Go,,,52.5112433,13.4934305,11300826
11084372226,Rosenback 23h Markt,,,52.5302703,13.401478,01100416
11091254505,MYCONBINI,Torstraße 18,10119,52.5276639,13.4133166,01100310
11108713287,Nubras Markt,Stubbenkammerstraße 3,10437,52.5420134,13.4245987,03601348
11112405543,REWE To Go,,,52.43391,13.3907948,07501134
11118514949,Lido Multishop,Spandauer Straße 2,10178,52.5208623,13.4041395,01100310
11123415219,Späti-Kiosk,,,52.4878763,13.4257545,08100311
11153203140,REWE To Go,Kronberger Straße 26,14193,52.4761353,13.2791162,04400729
11166253805,Bamberger Späti,Bamberger Straße 7,10777,52.4962719,13.3370967,04501045
11175372756,,Beusselstraße 21,,52.5286403,13.3288805,01200518
11182105036,Mellis Shop,,,52.5608674,13.5097725,11100309
11189704381,Asia station,,,52.5104053,13.4529311,02500834
11194689281,Nightshop Spätkauf Schlesi,,,52.4985508,13.4463553,02300419
11199678483,Zwischen Bier und Angel,Neue Hochstraße 31,,52.5421838,13.3752598,01300836
11219298525,Kiez-Späti,,,52.5098113,13.4570759,02500833
11225237887,Minimarkt Am Leo,,,52.5481811,13.3597551,01401048
11227904770,Yusuf´s Späti,,,52.5055052,13.3761926,01100102
11245474874,E4,Eberswalder Straße 4,,52.5406942,13.4058763,03701554
11283116057,Madara Market BG,,,52.5639022,13.3776578,12100101
11293017164,Madame Hobrecht,Hobrechtstraße 48,12047,52.4931555,13.4253595,08100310
11306617628,,,,52.5083856,13.4630905,02500833
11331558371,Kiez Kiosk,,,52.4680407,13.4306904,08100104
11341365196,Spätkauf Tegel,,,52.5905474,13.2833308,12200515
11373954350,Tojo-Spätkauf,Bochumer Straße 7,10555,52.5232762,13.3379329,01200522
11407518394,bambergerkiez,,,52.4903905,13.3365996,04501152
11429217966,Spätkauf,,,52.4553661,13.5117972,09200613
11433085574,Neon-Späti,,,52.5669142,13.4106369,03400723
11534658751,Cafe Sokratis,,,52.5606946,13.3882848,01300732
11540431552,Drinks Tobacco,,,52.4528172,13.4382695,08200624
11559866697,Obst & Gemüse • Lebensmittel • Feinkost • Getränke • Weine • Tabakwaren...,,,52.5349173,13.4212809,03701556
11607865269,AlQuds,,,52.5146092,13.4681653,02500729
11608052734,Japan Plaza,Rochstraße 14e,,52.5227899,13.4080716,01100310
11613447883,Airport Späti,,,52.4770876,13.4210588,08100102
11613447902,Internetcafé 63,,,52.4775558,13.4250257,08100102
11648549442,fastshop,Fuldastraße 59,,52.4825637,13.434064,08100314
11668419749,Bistro To Go,,,52.5112762,13.4524448,02500833
11693637697,Café & Internet,,,52.4352671,13.5470263,09200716
11717317819,City Shop am Friedrichstadtpalast,,,52.5236008,13.3874628,01100308
11738646685,Aral,Gerlachstraße 8,14480,52.3677495,13.1285892,0
11753805683,M.K Spätshop,,,52.5310633,13.3821899,01100308
11755121587,Boxi Stop,Boxhagener Straße 51,10245,52.5081103,13.4667129,02500833
11779106407,Späti am Bahnhof,Hohenzollerndamm 48,10713,52.4884331,13.3008858,04500939
11796133141,Spätshop 33,,,52.5483474,13.3487875,01400942
11840842162,Razzia,Hermannstraße 159a,12051,52.4681312,13.4311506,08100104
11924810849,Cult Späti,Veteranenstraße 14,,52.5333502,13.4026991,01100416
11948437821,Wilsnacker Shop,,,52.5275095,13.3513227,01200625
11957764246,Helin 2,,,52.5131936,13.4561527,02500833
11957776775,D&N Späti,,,52.512892,13.457017,02500833
11985971277,Bermani,,,52.5399339,13.3591854,01401047
11986351451,Time Out,Schönhauser Allee 140,,52.5422592,13.4117926,03601142
11990116897,90 Minutes,Hermannstraße 59,,52.4762498,13.4264684,08100102
12040633078,Mein Spätkauf,Adalbertstraße 6,,52.5002941,13.4187311,02300314
12043368755,Urban 176,Urbanstraße 176,,52.4942586,13.4021463,02200210
12087454362,Weltladen Teltow,Feldstraße 24,14513,52.396741,13.2864424,0
12118457728,etwas Spätkauf,Fehrbelliner Straße 83,10119,52.5323129,13.4058055,01100416
12118950897,Drinks & More,,,52.4863387,13.4236423,08100101
12119026501,Come to Späti,,,52.4864968,13.4229104,08100101
12129102970,Multi Kulti Shop,Lichtenrader Straße 13,12049,52.476415,13.4201892,08100102
12133394673,Späti,,,52.5241563,13.3295639,01200521
12151246275,,,,52.394444,13.4116607,07601545
12153104210,Backshop Pinky,,,52.5130797,13.44809,02400624
12160270078,Lebensmittel,Brunnenstraße 39,,52.5362082,13.3978132,01100416
12172611557,,,,52.4726962,13.737877,0
12176945401,Spätkauf,Köpenicker Straße 79,,52.5112073,13.4160764,01100312
12205080071,,,,52.493752,13.4149777,02200213
12205114191,REWE To Go,,,52.5680824,13.3613594,12100204
12208825201,Ha Bihn,,,52.6668943,13.2824756,0
12228035032,,,,52.5112749,13.3970759,01100207
12250316112,Spätkauf Aqua,,,52.3668892,13.136679,0
12259425156,Eurogida Lichtenrade,Lichtenrader Damm 98,12305,52.4047249,13.4057108,07601442
12269449425,Latenight Shop,,,52.4305852,13.2588719,06300526
12278420702,Drink Shop,,,52.4568415,13.5101498,09200613
12298833010,Shell Shop,Mariendorfer Damm 174,12107,52.4360457,13.3884045,07501133
12301084001,Jet,Köpenicker Straße 108,12683,52.4959113,13.562842,10300734
12307298106,Snack&Shop,,,52.5196725,13.3413747,01200629
12309529401,Spätkauf MiniMarkt,Gleimstraße 29,,52.5474804,13.4125645,03601142
12317630780,REWE To Go,Am Lückefeld 2,15831,52.3580806,13.4320787,0
12323846407,Neptun Späti,Langhansstraße 138,,52.5497198,13.4466577,03500935
12363196100,Spätshop 49,,,52.542024,13.4391866,03601245
12402075612,Spätkauf Zeit Raum Mensch,,,52.4696885,13.4426002,08100417
12475391575,Getränkeshop,Karl-Marx-Straße 216,12055,52.4706417,13.4412273,08100208
12484517625,The 25 Hours Store,Berliner Straße 1A,13507,52.589449,13.2834621,12200515
12496505659,,,,52.4711219,13.4295646,08100104
12496900323,Shell,,,52.3731738,13.1272456,0
12588387837,Total,Am Feuchten Winkel 11,13129,52.5821047,13.4324097,03400831
12622698684,Drink Station,,,52.5133958,13.4563557,02500830
12637232301,Kiosk & Späti,Rennbahnstraße 24,,52.5604576,13.4588015,03500933
12676233501,Bunter Laden,Blumenstraße 49,10243,52.5172414,13.432504,02400623
12691114993,Mian Market,Birkenstraße 22,10559,52.531741,13.3442708,01200623
12704124532,La Kasa,,,52.4994444,13.4587098,02500835
12710058330,Spätkauf,,,52.4689143,13.4350232,08100208
12725939903,Zainabs Multishop Späti,Kamenzer Damm 40,12249,52.4336907,13.3597406,06200316
12741877924,LEpicerie,,,52.5504954,13.4134875,03601141
12755367241,Späti 25,,,52.563983,13.4075595,03400826
12766284044,Inka Markt,,,52.5496071,13.4175632,03601243
12791985512,Spätshop 19,,,52.5471785,13.4091531,03601142
12793386255,Confetti MiniMarket Spätkauf Späti,Nöldnerstraße 17,10317,52.5019872,13.4792815,11400928
12816522513,Asia-Shop,,,52.548425,13.4523624,03500936
12817837925,Tays Spätkauf,,,52.5359059,13.3002805,04100102
12829967540,Späti Gate1,Danziger Straße 3,,52.5409924,13.4134536,03601347
12842753390,Rosen Kiosk,,,52.5253521,13.4036444,01100309
12843851508,City Shop,Frankfurter Allee 104,10247,52.5135742,13.4739177,02500832
12858786225,The Market,Tucholskystraße 35,,52.5266376,13.3932471,01100309
12899077001,,,,52.545244,13.4282746,03601245
12915931140,dies & das,Boddinstraße 48,12053,52.4801609,13.4291902,08100206
12917519453,,Hauptstraße 2,,52.5015195,13.4738566,11501238
12926298378,Asia Lebensmittel,Berliner Allee 56,13088,52.5486862,13.4535649,03500936
12994844935,,,,52.6072645,13.1211046,0
13041168046,Kiezladen Cihê Me,Prenzlauer Allee 174,,52.5464369,13.4276832,03601244
13049908236,Hanguk Markt,Uhlandstraße 87,10717,52.4885882,13.3224306,04501147
13052413348,Çinar Mini Market,,,52.5138533,13.4711816,02500832
13076479521,City Shop,,,52.4901664,13.3149309,04501147
13093923737,Samill-Sangsa,,,52.472606,13.295905,04400832
13098814442,Canaan Shop,,,52.5110003,13.5038581,11401032
13114861708,Bangla Bazar,Frankfurter Allee 266,10318,52.510751,13.5016798,11400931
13116192636,Mühlenbecker Hofladen,Bahnhofstraße 21,16567,52.6655377,13.3837644,0
13148808097,Späti,,,52.5063914,13.4707378,02500832
13180257027,Heinemann Duty Free & Travel Value,Melli-Beese-Ring 1,12529,52.3640962,13.5083433,0
13180257044,Heinemann Duty Free & Travel Value,,,52.3613301,13.511013,0
13198309601,B & B Spätkauf,Schönfließer Straße 11,,52.669906,13.2847368,0
13203605001,momoga,Prenzlauer Promenade 26,,52.5571405,13.4294522,03300516
13227706001,Zora,,,52.5404955,13.4173741,03601347
13227720301,Zora,,,52.5404955,13.4173741,03601347
13263865159,REWE To Go,,,52.5636389,13.407558,03400826
