id,name,street,zip_code,lat,lon,geojson_feature_id
237838613,Rückert-Gymnasium,Mettestraße 8,10825,52.4799688,13.3384592,07200308
256912446,Erwin von Witzleben Grundschule,Halemweg 34-42,13627,52.5394411,13.2880437,04100101
256913234,Sportschule im Olympiapark - Poelchau-Schule,Prinz-Friedrich-Karl-Weg 1,14053,52.521142,13.2416342,04200203
256913872,Anna Freud Schule,Halemweg 22,13627,52.5376587,13.2883255,04100101
263055655,Förderschule,,,52.437435,13.7484636,0
268915174,ABC-Kindergarten - Sabine Erdmann Vorschule,,,52.4978346,13.3019467,04500938
268915405,Freie Schule in Berlin,Viktoriastraße 13-18,12105,52.4545448,13.3814584,07400825
298750707,Evangelische Schule Spandau,Schönwalder Allee 26/27,13587,52.5721259,13.199678,05100101
340239440,Sternberg Grundschule,Mettestraße 8,10825,52.4803608,13.3390601,07200308
360713397,Peter-Petersen-Schule,Jonasstraße 15-16,12053,52.4717574,13.4357615,08100208
360713401,Konrad-Agahd-Grundschule,Thomasstraße 39,12053,52.4725928,13.4354917,08100208
495268803,Oberlin Berufliche Schulen,Steinstraße 80,14480,52.3874644,13.1379577,0
506133476,Berliner Rettungsdienstschule,,,52.445113,13.5170522,09100409
613697442,,,,52.5353066,13.3982097,01100416
727710608,bbw Akademie Betriebswirtschaftliche Weiterbildung,Allee der Kosmonauten 33 B,12681,52.5264226,13.5311243,10100311
867872391,Deutsch Praxis,,,52.503441,13.4120982,02100104
871633760,Yoga/Schiatsu-Zentrum,,,52.5023614,13.413924,02100104
876244328,Atelier für physisches Theater – Internationale Schule für Bewegungsschauspiel,,,52.501677,13.4213836,02300314
985919722,Jugendwerkstatt Buch Aktivierungshilfe,,,52.6256033,13.4929984,03100103
1015728668,Biesalski-Schule,Hüttenweg 40,14195,52.4545683,13.2706708,06400842
1057857273,Ernst-Habermann-Grundschule,Prinzregentenstraße 33-34,10715,52.4833728,13.3327206,04501153
1137671520,Kindermalschule,Lohmeyerstraße 26,10587,52.5185412,13.3007856,04300621
1140710553,CJD Berlin,Am Karlsbad 16,10785,52.5034349,13.3716254,01100104
1224801662,Alno Küchenstudio,,,52.4399472,13.4359177,08200730
1407207210,Abendgymnasium Prenzlauer Berg,Driesener Straße 22,10439,52.552085,13.4056269,03601140
1552045205,Deutsch-Institut Berlin,Novalisstraße 12,10115,52.5284845,13.3884213,01100415
1597894107,Islam Vakfi,,,52.4908343,13.4213252,02200213
1658284135,Charlotte-Wolff-Kolleg,Pestalozzistraße 40-41,10627,52.5083269,13.3036973,04300623
1827035552,SCHATZ Schulaufgabenzirkel,,10999,52.4992808,13.41986,02300314
1833519549,OSZ Wirtschaft Leopold-Ullstein-Schule - Abteilung II,Prinzregentenstraße 60,10715,52.4822428,13.3344676,04501153
1833591080,Kläre-Bloch-Schule,Prinzregentenstraße 60,10715,52.4821179,13.3344536,04501153
1855387994,Das Lernzentum (Helliwood media & education),,,52.5357196,13.6048951,10200526
1867142844,Institut für Phytotherapie,Paul-Lincke-Ufer 42-43,10999,52.4967726,13.4217523,02300417
2136734352,Fachschule für Sozialpädagogik,Am Bärensprung 58,13503,52.6108823,13.2479778,12400619
2180504961,Wangari Maathai International School,Babelsberger Straße 24-25,10715,52.4824554,13.3350661,04501153
2232813894,Hermann-Hesse-Gymnasium (Haus 3),,,52.4935666,13.4201501,02200213
2431140182,das kleine atelier,Oudenarder Straße 32,13347,52.5533306,13.3653305,01401049
2538629492,Freie Sekundarschule Peppermont,Greifswalder Straße 88,10409,52.5425347,13.4415246,03601449
2610154858,Berlin Bilingual School,Rudolf-Baschant-Straße 2,13086,52.557281,13.4417282,03500932
2629122240,Taxischule Metropolis,,,52.4961309,13.384161,02200208
2844490858,Internat der Margarethe-von-Witzleben-Schule,Diestelmeyerstraße 6,10249,52.5218471,13.4401725,02400521
2952353502,Quinoa Schule,Kühnemannstraße 26,13409,52.566071,13.3811302,01300731
3090369566,iek,Husemannstraße 32,10435,52.5396656,13.418127,03701555
3093478831,Schule bei der Botschaft der Russischen Föderation,Behrenstraße 64-65,10117,52.5155186,13.3845541,01100206
3347795761,Quentin-Blake-Europa-Schule,Hüttenweg 40,14195,52.4546353,13.2698957,06400842
3465132015,Svenska Skolan i Berlin,Landhausstraße 26-28,10717,52.4880673,13.3294623,04501149
3644290194,Be The - Therapie bei Lernschwierigkeiten,Am Comeniusplatz 2,10243,52.5122062,13.4475016,02400624
4097819340,Europaschule am Gutspark,,,52.5631129,13.0924905,0
4149486091,Liebmann-Schule,Friedrichstraße 13,10969,52.5019732,13.3919599,02100102
4298064770,Hort der ESS,,13587,52.5730595,13.1948238,05100101
4368419896,Internationale Lomonossow-Schule,Genthiner Straße 20,10785,52.5040253,13.35938,01100103
4514468855,Käthe-Kollwitz-Grundschule,,,52.6650157,13.3773956,0
4514472128,Hort,,,52.6643683,13.3779482,0
4850314524,Cumbancha,Möckernstraße 68,10965,52.4908034,13.3774542,02200209
4864189821,EIIE EURASIA Institute for International Education GmbH,,13627,52.5328938,13.2797555,05300840
4932662327,Piano Cano,Cotheniusstraße 3,10407,52.5279354,13.4477802,03601452
5477749794,Samuel-Hahnemann-Schule,Colditzstraße 34-36,12099,52.4544038,13.394612,07400927
5661514223,Schule am Hasenhegerweg,Hasenhegerweg 12,12353,52.4227343,13.4468273,08200833
5661514224,Lisa-Tetzner-Grundschule,Hasenhegerweg 12,12353,52.4224497,13.4468112,08200833
5695079683,OTA - Tanyildiz Schweißtechnik,Josef-Orlopp-Straße 45 - 49,10365,52.5236819,13.4885479,11300721
5790175872,Corrie-ten-Boom-Schule,Christburger Straße 14C,10405,52.5347819,13.4273152,03701658
5790175875,Elisabeth-Abegg-Grundschule,Christburger Straße 14C,10405,52.5346465,13.4278408,03701658
5892790086,Schule,,,52.3388315,13.2738447,0
5907019898,Privates Europa-Gymnasium Berlin,Hauptstraße 27,10827,52.4858093,13.3541252,07200409
5997094437,Moser Schule Schweizer Gymnasium gGmbH,,,52.5095435,13.2634016,04200310
6058583254,,Mulackstraße 8,10119,52.5273506,13.4062656,01100309
6153498939,Institut für Verhaltenstherapie Berlin,Hohenzollerndamm 125;126,14199,52.4811108,13.2887102,04400830
6215800460,Mal- und Zeichenschule Prib,Brunnenstraße 45,10115,52.5375362,13.3976982,01100416
6251995791,Produktionsschule Mitte,,,52.5505701,13.3704694,01401044
6410792688,Akademie der Gesundheit,Schwanebecker Chaussee 4 E-H,13125,52.6331664,13.5072943,03100102
6422859463,Freie Grundschule Pfefferwerk,Schönfließer Straße 7,10439,52.5533032,13.4097119,03601141
6422859464,Freie Sekundarschule PepperMont,,,52.552951,13.4096543,03601141
7014964448,Aktive Schule Potsdam,Liefelds Grund 23-25,14478,52.3593169,13.0935295,0
7282070071,Grundschule am Blumenhag,Zepernicker Chaussee 24,16321,52.6749199,13.570361,0
7282070072,Tobias-Seiler-Oberschule Bernau,Zepernicker Chaussee 20,16321,52.6749457,13.5720903,0
7685796317,Prestige Kosmetikakademie,Berliner Straße 53,10713,52.4866263,13.3164868,04501146
7774237459,Grund-Bildungs-Zentrum Berlin,Paretzer Straße 1,10713,52.481561,13.3196702,04501148
8050485559,Galilei Grundschule,Friedrichstraße 13,10969,52.5014874,13.3920468,02100102
8589000133,Kristall Grundschule,Tegeler Straße 13,13353,52.5402175,13.3589568,01401047
9215908289,Grundschule am Berg,,,52.4186282,13.5378599,09300920
9502964060,Berliner Schule für Zen Shiatsu,,,52.4953754,13.3099724,04501043
9674270517,SENECA INTENSIV Studios,Georg-Knorr-Straße 4 / Haus 10,12681,52.5427625,13.5365868,10100205
9953624692,Demokratische Schule X,Ruppiner Chaussee 211,13503,52.6127734,13.2474075,12400618
10273324300,Peter-Pan-Grundschule,,,52.546377,13.5508288,10100210
10788214205,Ironhack Berlin,,10407,52.5329551,13.453285,03601450
11060589005,Grundschule an der Wuhle,,,52.5220834,13.5798614,10200629
11191369537,Berlin Comics Schule,Stettiner Straße 30,13357,52.5549661,13.3893155,01300733
11197523749,Seminarschiff,,,52.5230665,13.3439077,01200626
11198242339,Surfpaddelschule,,,52.4450342,13.6308577,09501737
11267498757,Freie Schule Anne Sophie,Clayallee 328-334,14169,52.4374162,13.2629021,06400841
11287862770,b-trend-setting,Lahnstraße 19,12055,52.4685185,13.4533132,08100521
11357840631,Shiatsu Schule Kreuzberg,Lübbener Straße 26,10997,52.4988468,13.4363004,02300419
11425591669,Elinor-Ostrom-Schule (2. Schulstandort),Pappelallee 30-31,10437,52.5455422,13.4174416,03601347
11525305289,Evangelische Schule Neukölln Oberstufe,,,52.4744236,13.42251,08100103
11769563161,Volkshochschule Treptow-Köpenick,,,52.4618963,13.5232934,09200511
11863051770,Willy-Brandt-Schule,Saatwinkler Damm 42,,52.5464638,13.3181254,04100101
12068069133,Grundschule Fehrbelliner Tor,,,52.554801,13.1997122,05100313
12135294142,Freie Schule Schöneberg,"Hauptstraße 27, Eingang C",10827,52.4857428,13.3544535,07200409
12314506395,Jugendkunstschule Lichtenberg,Demminer Straße 4,,52.5694812,13.5116361,11100205
12321410631,Lazarus Schulen (Schwesternflügel),Bernauer Straße 115-118,13355,52.5351282,13.3885742,01300835
12441435608,Freie Schule Woltersdorf,,,52.4657239,13.7498643,0
12512361420,Felix-Mendelssohn-Bartholdy-Gymnasium (Temporäres Haus 3),,,52.5296881,13.4384541,03701660
12522418564,Volkshochschule Berlin-Pankow,,,52.5330592,13.4199077,03701556
12563980204,Evangelische Schule Wilmersdorf,Brandenburgische Straße 51,10707,52.4940199,13.3091033,04500939
12564011957,Katholische Schule Sankt Ludwig,Düsseldorfer Straße 13,10719,52.4962574,13.3213308,04501044
12677407057,Apego-Schule Berlin,Dianastraße 44-46,13469,52.6044768,13.3093087,12500928
12691468320,33. Schule (Grundschule),Heerstraße 580,13591,52.5254218,13.1387055,05200524
12766031273,Neubau Grundschule mit TSH,Bruno-Baum-Straße 68,12685,52.5361367,13.5422179,10100313
12766032980,Neubau Grundschule mit TSH,,,52.5312548,13.59873,10200526
12766064655,Neubau MEB 22 mit Mensa,Klingenthaler Straße 12,12627,52.5306448,13.6010912,10200526
12782008075,Richard-Keller-Schule,Frohnauer Straße 74-80,13467,52.6232049,13.2935618,12400722
12797375598,"15. Schule
ISS mit gymnasialer Oberstufe - 11K15",Allee der Kosmonauten 22,10315,52.5249629,13.5133643,11300721
12797375599,12. Gymnasium Lichtenberg 11Y12,Allee der Kosmonauten 22,10315,52.5248369,13.5139044,11300721
12992163102,"Schauspielschule ""Der Kreis"" Fritz-Kirchhoff-Schule","Teilestraße 11—13, Tor 3",12099,52.4591189,13.4079761,07400927
12992212501,die schauspielfabrik berlin,Urbanstraße 70A,10967,52.4881953,13.4230643,02200212
13050559747,Ostkreuzschule für Fotografie,Behaimstraße 32/34,13086,52.5504641,13.4472819,03500935
13357175108,bbw Akademie für betriebswirtschaftliche Weiterbildung,,,52.4976188,13.5204192,11401137
