id,name,street,zip_code,lat,lon,geojson_feature_id
60775323,Reichenberger Apotheke,Reichenberger Straße 3,13055,52.5407412,13.4866016,11200513
60848447,Castello-Apotheke,,,52.5318353,13.4696536,11300616
60852928,Rosen Apotheke,Rudolf-Seiffert-Straße 11,10369,52.5275552,13.4685134,11300618
68437791,Margareten-Apotheke,Karl-Kunger-Straße 46,12435,52.4893898,13.4505704,09100101
69226035,Leipziger Apotheke,Leipziger Straße 43,10117,52.5105561,13.3958628,01100207
76507297,Preußen-Apotheke,Paretzer Straße 2,10713,52.4815485,13.3190694,04501148
76519952,Bundes-Apotheke,Bundesallee 177,10715,52.4865543,13.3314064,04501153
76596388,Mühlenberg-Apotheke,Thomas-Mann-Straße 1,10409,52.5431994,13.4423197,03601449
78244254,Axels Apotheke,Rudi-Dutschke-Straße 8,,52.5071247,13.3947881,02100102
79603436,Diamant Apotheke,Kurt-Schumacher-Damm 1-15,13405,52.5633045,13.3287743,12200309
79606682,Apotheke am Markt Reinickendorf,,13405,52.5668918,13.3170343,12200309
79624638,Barlach Apotheke,Auguste-Viktoria-Allee 81,13403,52.5701291,13.3213944,12200309
79688159,Park-Apotheke,Bundesallee 55,10715,52.4815398,13.3289844,04501151
81362602,Kranich-Apotheke,Lindenallee 28,14050,52.5104923,13.2716035,04200310
87036261,Nordland Apotheke,Invalidenstraße 114,10115,52.5306975,13.3841248,01100415
87040402,Friedrichstadt Apotheke,Glinkastraße 4,10117,52.5117692,13.3868843,01100205
89274697,Panorama Apotheke,Panoramastraße 1,10178,52.521847,13.4098188,01100310
89274888,Bezirksapotheke am Roten Rathaus,Rathausstraße 5,10178,52.5197805,13.4108917,01100310
89275182,Fischerinsel-Apotheke,Gertraudenstraße 19,10178,52.5133809,13.4053524,01100312
203469194,Poseidon-Apotheke,Helene-Weigel-Platz 10,12681,52.5276071,13.5421939,10100312
203474469,Skarabäus-Apotheke,Oberfeldstraße 30,12683,52.5204665,13.5558118,10300731
250195921,Alte Roland-Apotheke,Turmstraße 15,10559,52.5264625,13.3501221,01200625
251737915,Virchow Apotheke,Seestraße 99,13353,52.54973,13.3498263,01400942
254307048,Wotan Apotheke,Grolmanstraße 51,10623,52.5069033,13.3218338,04300624
255103579,Apotheke Neu-Zittau,Berliner Straße 103,15537,52.3888415,13.7405815,0
255825174,Wildenbruch Apotheke,Sonnenallee 105,12045,52.4818892,13.440147,08100312
255825368,Frühlicht-Apotheke,Anzengruberstraße 7,12043,52.4803687,13.4394937,08100415
259081139,Nordring Apotheke,Schönhauser Allee 118,10437,52.549263,13.4133047,03601142
259081143,Vita Apotheke,Schivelbeiner Straße 33,10439,52.5509103,13.4079077,03601141
260865620,Taut-Apotheke,,,52.4124087,13.5725538,09301024
261963290,Grüne Apotheke,Elsenstraße 111,12435,52.4907054,13.4567328,09100101
262213475,Möllendorff-Apotheke,Möllendorffstraße 47,10367,52.5241575,13.4800051,11300620
263699380,Robinson Apotheke,Lion-Feuchtwanger-Straße 22,12619,52.517681,13.5829,10200629
266630604,Georginen-Apotheke,Treskowstraße 76,12623,52.5111499,13.6121832,10400939
266632232,Mahlsdorfer Apotheke,Hönower Straße 54,12623,52.509361,13.6138214,10400939
266674656,Neue Medikus Apotheke,Myslowitzer Straße 49,12621,52.5071368,13.592044,10400836
267366952,Wins-Apotheke,Winsstraße 45,10405,52.5360082,13.4270624,03701658
267860831,Seegefelder-Apotheke,Seegefelder Straße 63,13583,52.5372848,13.1879163,05100316
268636979,Brandenburg-Apotheke,Brandenburgische Straße 37,10707,52.4985391,13.3071113,04500939
268726812,Rosegger-Apotheke,Sonnenallee 144,12059,52.4789497,13.4451781,08100415
268844381,Storchen-Apotheke,Schulzendorfer Straße 70,13503,52.6128103,13.2315014,12400617
268844523,Apotheke am Markt,Bekassinenweg 18,13503,52.607565,13.2348292,12400619
268981834,Grimm-Apotheke,Grimmstraße 9,10967,52.4935361,13.4134932,02200213
269478054,Apotheke am Engelbecken,Heinrich-Heine-Straße 15,10179,52.507579,13.414104,01100313
270633381,Kastanien Apotheke,Rudolf-Breitscheid-Straße 26,15569,52.4504672,13.7536436,0
270814718,Kur-Apotheke,Spanische Allee 37,14129,52.4322803,13.219675,06400838
270814721,Die Dorotheen Apotheke,Potsdamer Chaussee 80,14129,52.4271388,13.216597,06400736
270880689,Punkt Apotheke,,,52.435907,13.754632,0
270906159,Rosen-Apotheke Berlin,Fürstenwalder Allee 266,12589,52.4327628,13.7098785,09501838
271282692,Kolberger Apotheke,Gerichtstraße 18,13347,52.543989,13.3735976,01300836
271405514,Hauptstadt Apotheke,Klosterstraße 34-35,13581,52.5320913,13.1981714,05200629
271708716,Altstadt Apotheke,,,52.5366282,13.2052104,05100316
271708914,Löwen-Apotheke,,,52.5376866,13.2060246,05100316
271710934,Adler-Apotheke,Carl-Schurz-Straße 39,13597,52.5376635,13.2036654,05100316
271713876,Spandauer Apotheke,Feldstraße 56,13585,52.542908,13.2059594,05100315
272385616,Jäger Apotheke,Adamstraße 3,13595,52.5211632,13.1970215,05200630
272385919,Adam Apotheke,Adamstraße 41,13595,52.5208942,13.1948184,05200630
272386317,Pichelsdorf Apotheke,Pichelsdorfer Straße 120,13595,52.5254705,13.1971411,05200631
272499930,Ringbahn-Apotheke,Karl-Marx-Straße 239,12055,52.4678648,13.4421953,08100209
272662737,Kaiser Apotheke,Bergmannstraße 23,10961,52.4889422,13.3939616,02200211
273743446,Apotheke Bahnhof Spandau,Seegefelder Straße 16,13597,52.5356492,13.1956671,05100316
274864546,Hansa Apotheke,,,52.5217984,13.198061,05200631
275623282,gesundleben Apotheke Mahlsdorf,Hönower Straße 95A,12623,52.5133802,13.6120014,10400938
275887592,Galenus-Apotheke,,,52.5236295,13.386715,01100308
276145617,Stern Apotheke,Baumschulenstraße 96,12437,52.4671189,13.4886389,09100304
276774391,Marien-Apotheke,Gatower Straße 85,13595,52.512828,13.1833779,05200634
279573268,Linden-Apotheke,Rudolf-Breitscheid-Straße 25,14482,52.3919732,13.0912902,0
280146240,Vita Apotheke,Schönfließer Straße 7,16540,52.6701885,13.2833546,0
280296894,Thalia Apotheke,,,52.4364093,13.3464079,06200313
281174775,Brunnen-Apotheke,Kopernikusstraße 32,14482,52.3892203,13.1007191,0
282718552,egerapotheke,,,52.6711841,13.2805809,0
282744493,Mirbach,,,52.517377,13.4686866,02500728
282762536,Frankfurter Apotheke,Frankfurter Allee 52,10247,52.5144752,13.4648596,02500831
282836294,Treskow-Apotheke,Ehrenfelsstraße 46,10318,52.4825451,13.526263,11501340
283346896,Uferpalais-Apotheke,,,52.5467539,13.2094458,05100313
287852225,Bärliner Apotheke,Havemannstraße 24,12689,52.5678242,13.5724583,10100103
287970707,Apotheke im Kaufland,Romain-Rolland-Straße 19,13089,52.5643537,13.4445534,03300516
291014069,Tulpen-Apotheke,Mariendorfer Damm 432,12107,52.4163173,13.3997542,07601442
291212713,Atlas-Apotheke,Falkenseer Chaussee 23,13583,52.5473903,13.1871238,05100210
291432407,Kreisel-Apotheke,Schloßstraße 82,12165,52.4564263,13.3209201,06100102
292699498,Birken-Apotheke,,,52.5953568,13.3351509,12500926
296422913,Apotheke Babelsberg,Großbeerenstraße 123-135,14482,52.3856458,13.1080117,0
296942741,Drei Eichen Apotheke,Paul-Neumann-Straße 5,14482,52.3915427,13.1041104,0
297410017,Pharmland-Apotheke,Sewanstraße 4,10319,52.4997043,13.4969744,11400928
297489806,Helgoland Apotheke,,,52.4125676,13.359647,07601340
297512115,Helianthus-Apotheke,Rheinstraße 27,12161,52.4675849,13.3308517,07300516
297512117,Burger Apotheke,Bundesallee 92,12161,52.4672318,13.3279955,07300516
302896345,Pegasus-Apotheke,,,52.5574811,13.0918006,0
304367397,Glückskind Apotheke,Heerstraße 560,13591,52.5249401,13.1424401,05200524
306162097,August-Bebel Apotheke,,,52.4041906,13.2146822,0
307983960,Leo Apotheke,Müllerstraße 152,13353,52.5463569,13.3586662,01400942
308019535,Apotheke 24,,,52.5054076,13.5142084,11401137
308719063,Hedwig-Apotheke,Oberhofer Weg 2,12209,52.4274299,13.3262036,06200422
309447196,Nowawes Apotheke,Alt Nowawes 61,14482,52.3958055,13.0902552,0
310377174,Ahorn Apotheke,Innsbrucker Straße 25,10825,52.4801897,13.3428141,07200308
310614558,Plantagen-Apotheke,Plantagenstraße 13,14482,52.3948464,13.1024673,0
310764887,Berliner Bär-Apotheke,,,52.5057922,13.5128096,11400930
311089081,M.C. Apotheke,Schlüterstraße 35,10629,52.5028212,13.3167347,04501041
312714262,Tauern-Apotheke,Albulaweg 29,12107,52.4236416,13.3978849,07501134
312956048,Alexandrinen-Apotheke,Warnemünder Straße 29,14199,52.4752159,13.2899562,04400831
313173921,Pankow-Apotheke,Stubnitzstraße 31,13189,52.5667802,13.4155075,03400830
313584459,Apotheke Dahlem-Dorf,Königin-Luise-Straße 38,14195,52.4578484,13.2924415,06400843
313933591,Arkona Apotheke,Kastanienallee 38,10119,52.5355836,13.4063535,01100416
314022672,Insel Apotheke,Giesebrechtstraße 13,10629,52.5015083,13.3110277,04501040
315234035,Preußenapotheke,Kurfürstenstraße 57,12105,52.4479601,13.3849712,07501030
315803527,Regina Apotheke,Martin-Luther-Straße 58,10779,52.4912774,13.3447676,07200307
315820338,Akazien-Apotheke,Hauptstraße 19,10827,52.4866004,13.3565305,07200409
316533474,Waage Apotheke,Kurfürstendamm 142,10709,52.497907,13.2973176,04500938
316704530,Aida Apotheke,Osnabrücker Straße 4,10589,52.5260065,13.3022696,04300517
317148496,Petersburger Apotheke,Petersburger Platz 3,10249,52.5214676,13.4496352,02400522
317175755,Albrecht-Apotheke Steglitz,Schloßstraße 40,12165,52.4565269,13.319862,06100101
317552407,Easy Apotheke,Rudower Chaussee 12,12489,52.4332816,13.5362695,09200715
317552408,Aesculap Apotheke,Albert-Einstein-Straße 2,12489,52.4317485,13.5373807,09200715
317614303,Fräulein Beckers Lieblingsapotheke,Karl-Marx-Allee 101,10243,52.5174584,13.4428803,02400522
319092509,Merlin-Apotheke,Linienstraße 13,,52.5267866,13.4149448,01100310
319494473,Apotheke im Kaufzentrum,Siemensdamm 43,13629,52.5361217,13.2754707,05300841
322151533,Apotheke am Koppenplatz,,,52.5274856,13.3978184,01100309
323597684,Gertruden-Apotheke,Lankwitzer Straße 1,12209,52.4285785,13.3284113,06200422
323883137,Sonnen Apotheke,Zum Springbruch 1c,14558,52.3494339,13.1032393,0
324023598,Cecilien-Apotheke,,12619,52.5207833,13.5917073,10200630
324363717,Apotheke am Strausberger Platz,Strausberger Platz 11-12,10243,52.5177829,13.4292246,02400623
324789478,Anker Apotheke,Alt-Marienfelde 55,12277,52.4130862,13.3638844,07601237
330966646,Hölderlin-Apotheke,Wilhelmstraße 20,10963,52.5031924,13.3883155,02100102
332555438,Seume-Apotheke,Wühlischstraße 20,10245,52.5088216,13.4612497,02500833
332555440,Apotheke am Ostkreuz,Sonntagstraße 12,10245,52.5062364,13.4658756,02500834
332961993,Apotheke am Nauener Platz,,,52.551654,13.3669194,01401049
332964520,Dr. Gropler´s Apotheke,,13347,52.5498675,13.3686632,01401044
333408605,Werbellin-Apotheke,Hermannstraße 52,12049,52.4776537,13.4258598,08100102
333410692,Apotheke am Herrfurthplatz,Herrfurthstraße 9,12049,52.4773102,13.4229686,08100102
333909847,Driesener Apotheke,Driesener Straße 19,10439,52.5528911,13.4058278,03601140
336117214,Grüne Apotheke 62,Wilmersdorfer Straße 62,10627,52.507096,13.3063256,04300623
339361190,Apotheke Großbeeren,Berliner Straße 30m,14979,52.359364,13.3098093,0
340129941,Apotheke Carmer-7,Carmerstraße 7,10623,52.5068886,13.3234474,04300624
347298415,Seydlitz-Apotheke,Kaiser-Wilhelm-Straße 30,12247,52.4316877,13.3373088,06200314
347422942,Eichen Apotheke,Drakestraße 29a,12205,52.4415204,13.2986338,06300633
348052909,Augusta-Apotheke am Mexikoplatz,Argentinische Allee 1,14163,52.4380311,13.233166,06400839
349301668,Leibniz Apotheke Berlin,Kantstraße 130b,10625,52.5060889,13.3140939,04300623
352983796,Kronen-Apotheke,Schützenstraße 7,12165,52.4544874,13.3238828,06100207
353744167,Apotheke am Flughafen,Manfred-von-Richthofen-Straße 2,12101,52.4845367,13.3847889,07400720
356807869,Arcaden Apotheke,Schönhauser Allee 79,10439,52.5495274,13.4153133,03601243
365346780,Schulzendorfer Apotheke,Karl-Liebknecht-Straße 2,15732,52.3666426,13.6084211,0
366186442,Hutten-Apotheke,Gotzkowskystraße 1,10555,52.5270388,13.3302792,01200521
366536622,Jagow-Apotheke,Jagowstraße 24,10555,52.5242051,13.3343198,01200522
371157962,Gethsemane-Apotheke,Stargarder Straße 79,10437,52.547683,13.4146196,03601346
380498298,Dorotheenstadt Apotheke,Friedrichstraße 151,10117,52.5185603,13.3879579,01100206
380498345,MediosApotheke,Luisenstraße 54/55,10117,52.5247199,13.3794578,01100308
386006597,Havel-Apotheke,Berliner Straße 25 c,16761,52.6424822,13.2057504,0
387491865,Wilhelminenhof Apotheke,Wilhelminenhofstraße 51,12459,52.4590312,13.5255932,09200511
391347934,Luisen Apotheke,Schönower Straße 98,16341,52.65794,13.5353935,0
393409421,easyApotheke,Kurfürstendamm 110,10711,52.4977192,13.2927797,04500937
393409422,Sky Apotheke am Kudamm,Kurfürstendamm 139,10711,52.4976209,13.2956562,04500938
399348493,Elsen-Apotheke,Weitlingstraße 73,10317,52.5047368,13.4953236,11400929
400912055,Apotheke am Hugenottenplatz,Hugenottenplatz 1,13127,52.6066817,13.4199092,03200310
409760015,Apotheke am Hochmeisterplatz,,10709,52.4957099,13.2976849,04500938
409775548,Engel Apotheke,Michelstadter Weg 50,13587,52.5618492,13.2069484,05100105
409925337,Polimedica-Apotheke,Elsterwerdaer Platz 1,12683,52.5053398,13.5582606,10300733
409925350,Phönix-Apotheke,Mahlsdorfer Straße 110,12555,52.4592786,13.5795409,09502043
410135921,Reichenberger Apotheke,Reichenberger Straße 110,10999,52.4941966,13.4356179,02300418
410499179,Blumberger Apotheke,Glambecker Ring 26,12679,52.5516421,13.5782485,10100207
411273144,Askanier Apotheke,Streitstraße 11-14,13587,52.5576682,13.2082963,05100104
411273455,Hakenfelder Apotheke,Streitstraße 31,13587,52.5621448,13.2088093,05100103
412408145,Kaiser Wilhelm Apotheke,Richard-von-Weizsäcker-Platz 1-2,10827,52.4860593,13.3566766,07200410
415318053,Apotheke am Helmholtzplatz,Raumerstraße 14a,10437,52.5420046,13.4200711,03601347
416660118,Apotheke an der Oper,Bismarckstraße 89,10627,52.5114912,13.3083188,04300623
416660134,Minerva-Apotheke,Wilmersdorfer Straße 135,10627,52.5111671,13.3055221,04300623
416660138,Bong-Apotheke,Wilmersdorfer Straße 46,10627,52.5096216,13.3054736,04300623
416660142,Goethe Apotheke,Goethestraße 40,10625,52.5090254,13.3067193,04300623
416858104,Heine Apotheke,Bahnhofstraße 83,16341,52.6497389,13.5164624,0
419545768,Herz Apotheke,Badstraße 57,13357,52.55144,13.3827993,01300836
427670055,Aponeo,Frankfurter Allee 241,10365,52.5120353,13.4967682,11300725
428114271,Central-Apotheke,Hindenburgdamm 94a,12203,52.4414214,13.3156473,06300633
428114289,Laurentius-Apotheke,Hindenburgdamm 76C,12203,52.4476658,13.3150432,06300633
428293745,Apotheke am Mierendorffplatz,Mierendorffplatz 12-14,10589,52.5255288,13.3050256,04300518
434561147,Sanimedius-Apotheke Eichwalde,Bahnhofstraße 4,15732,52.3727555,13.6171156,0
434786337,Apotheke in Drewitz,Konrad-Wolf-Allee 1-3,14480,52.3694367,13.1411656,0
438089365,Apotheke im Storchenhof,,,52.548636,13.5040553,11200411
438098504,Euro-Apotheke,Karl-Marx-Straße 214,12055,52.4706903,13.441201,08100208
439234903,Kristinen-Apotheke,,,52.4512997,13.624489,09501737
439234905,Anker-Apotheke,,,52.4503297,13.6249106,09501737
440322354,Mehringplatz Apotheke Berlin,Mehringplatz 12,10969,52.499708,13.3912545,02100102
440330654,Dafne Apotheke,,,52.480346,13.4363242,08100415
440332220,Neukölln-Apotheke,Karl-Marx-Straße 88,12043,52.4806677,13.435211,08100206
440333191,Forum Apotheke,Karl-Marx-Straße 80,12043,52.4814172,13.4341084,08100206
440335563,Libertas Apotheke,Karl-Marx-Straße 16,12043,52.4850824,13.4266376,08100206
440338666,Wilhelm Busch Apotheke,Karl-Marx-Straße 132,12043,52.4773129,13.4384935,08100207
440340785,Bären Apotheke,Karl-Marx-Straße 188,12043,52.4734058,13.4405484,08100208
441512663,Ulrich-Apotheke,,12049,52.4759595,13.4265886,08100103
441514950,Arminius Apotheke,,,52.4794042,13.4257606,08100102
441676532,St. Hubertus-Apotheke,,,52.6694593,13.2864786,0
441878984,Sonnenblumen Apotheke,,,52.4699293,13.4631867,08100520
441878991,Hindenburg-Apotheke,Schudomastraße 46,12055,52.4740953,13.4496732,08100417
442351144,Pelikan Apotheke,Tempelhofer Damm 139,12099,52.4669292,13.3859911,07400824
442390303,Hafen-Apotheke,Tempelhofer Damm 215,12099,52.4568204,13.3844542,07400927
442393071,Fortunatus Apotheke,Mariendorfer Damm 68,12109,52.4466168,13.3852622,07501030
442394335,Akazien Apotheke,Mariendorfer Damm 73,12109,52.4461252,13.385909,07501031
442394341,Markt Apotheke,Mariendorfer Damm 84,12109,52.4451968,13.3856432,07501030
442705525,Hermann Apotheke,Hermannstraße 116,12051,52.4665033,13.4316536,08100105
443464250,Glasow-Apotheke,Hermannstraße 144,12051,52.4639518,13.4336361,08100105
443604961,Apotheke zum Goldenen Einhorn,Gneisenaustraße 92,10961,52.4919031,13.3942991,02200210
445821371,Orchideen-Apotheke,,,52.4564405,13.4372988,08200623
445821378,Luisen-Apotheke,Britzer Damm 107,12347,52.4533259,13.438621,08200623
446759637,Brillant Apotheke,Kurfürstendamm 71,10709,52.5001376,13.3065427,04500936
448591443,Palmen-Apotheke,Schlesische Straße 37,10997,52.4997229,13.4448618,02300419
448811294,Pasteur-Apotheke,,10967,52.4901283,13.4235773,02200213
448913486,Cecilien-Apotheke,Gaudystraße 1,10437,52.546825,13.4126429,03601142
448915579,Arminius-Apotheke,Schönhauser Allee 172A,,52.5329218,13.4122894,03701554
452946886,Koala-Apotheke,Weißenseer Weg 36,13055,52.5359237,13.4743188,11200514
452951395,Krumme Lanke Apotheke,Fischerhüttenstraße 64,14163,52.4421581,13.2408947,06400839
453013649,Apotheke am Fennpfuhl,Franz-Jacob-Straße 10,10369,52.5280106,13.4679731,11300618
454167250,Bartels Apotheke,,,52.558703,13.413785,03400827
454216844,Koala Apotheke,Breite Straße 20,13187,52.569669,13.4033014,03400723
454234943,Rusche-Apotheke,Ruschestraße 103,10365,52.5152094,13.4853643,11300724
456388989,Sterndamm-Apotheke,Sterndamm 11,12487,52.452556,13.5094857,09100408
456389100,Apotheke Johannisthal,,,52.4458331,13.5060772,09100408
456414245,Pfauen-Apotheke,,,52.4412581,13.4588411,08401138
456421034,Fontane-Apotheke,,12351,52.4426146,13.4568396,08401138
458915641,Adler Apotheke,Breite Straße 41,13187,52.5707966,13.4103966,03400723
459166572,Zieten Apotheke,Gerichtstraße 31,13347,52.5449696,13.3686333,01300836
459650830,Easy Apotheke,Kottbusser Damm 78,10967,52.491228,13.4234937,02200213
459653935,Paul-Lincke-Apotheke,,,52.4966636,13.4199367,02100106
459673262,Lavendel Apotheke,Blankenburger Straße 1,13156,52.5816372,13.4045453,03200207
459785177,Steinbock-Apotheke,,,52.5595433,13.3354795,01400937
459799715,Müller-Apotheke,Müllerstraße 156C,,52.545171,13.3608309,01401047
460523245,Hohenzollern-Apotheke,Pichelsdorfer Straße 101,13595,52.5241148,13.1973279,05200630
461626277,Europa Apotheke,Karl-Marx-Allee 90a,10243,52.5164022,13.4406999,02400623
471136927,NEO Apozheke,Friedrich-Karl-Straße 23,12103,52.4559146,13.3796436,07400825
472371488,VivApotheke in Hellersdorf,Hellersdorfer Straße 237,12627,52.5365149,13.603422,10200421
472456390,Orca-Apotheke,,,52.4105431,13.4400245,0
475236781,Tasmania Apotheke,Emser Straße 105,12051,52.468338,13.4305501,08100104
476243460,Luna Apotheke,Am Treptower Park 40,12435,52.4857173,13.4660642,09100202
482797544,Sabelus XXL Apotheke,Buntzelstraße 117,12526,52.4010732,13.5617695,09301025
493715534,Löwen Apotheke,Rigaer Straße 30,16761,52.6557665,13.1956454,0
499046359,Kastanien-Apotheke Pankow,Kastanienallee 37-38,13158,52.5920493,13.3830878,03400618
499963012,Stolpe-Apotheke,Chausseestraße 13,14109,52.4157499,13.1456517,06400735
502409526,Baumschulen-Apotheke,Baumschulenstraße 29-31,12437,52.4642316,13.4857268,09100304
505990860,Rathaus Apotheke,Großbeerenstraße 26,10963,52.4943559,13.3835242,02200208
506275776,Sertürner-Apotheke,,,52.5186075,13.7079251,0
506275777,Kreuz-Apotheke,Fichtestraße 1,15366,52.5220629,13.7036811,0
506280150,Flora-Apotheke,Hauptstraße 1,15366,52.5212634,13.7031657,0
508423804,hagen apotheke,Hohenzollerndamm 94,14199,52.4773766,13.2811924,04400727
510624102,Albrecht-Apotheke,Tempelhofer Damm 179,12099,52.4609874,13.38514,07400927
516609077,Gorki-Apotheke,Gorkistraße 3,13507,52.5898484,13.2842663,12200515
518011179,Adler-Apotheke,Berliner Straße 91,13507,52.5876355,13.2860212,12200515
520518100,Opernviertel-Apotheke,Bismarckstraße 30,10625,52.5120981,13.3105177,04300621
527503229,Sankt Rochus Apotheke,Schlangenbader Straße 25,14197,52.4728776,13.3071455,04400833
527503232,Rheinland Apotheke,Spessartstraße 13,14197,52.4745972,13.3146337,04400835
527873296,Normannen-Apotheke,"Grünauer Straße 7,8",12524,52.4195999,13.5403651,09300920
528643412,Elefanten Apotheke,,,52.4247473,13.5276421,09300920
529805424,Europa-Apotheke,Schnellerstraße 21,12439,52.4565863,13.5089986,09200613
530687969,Sano Apotheke,,,52.4473124,13.5758981,09401534
534879643,Hohenzollerndamm Apotheke,Hohenzollerndamm 56,14199,52.4866689,13.2975626,04400727
538057637,Apotheke im Forum Köpenick,Bahnhofstraße 33-38,12555,52.4581201,13.5786266,09501939
538257565,Apotheke am Fuchsbau,Karl-Marx-Straße 58-60,14532,52.4133634,13.2242146,0
564123162,Nibelungen-Apotheke,Gotlindestraße 49,10365,52.5181103,13.496335,11300725
565034853,Columbia Apotheke,Kaiserdamm 13,14057,52.5106646,13.288557,04300414
571800623,St. Hubertus,Marienfelder Allee 47,12277,52.4215579,13.3702571,07601237
571956985,Apotheke am Pankemarkt,,,52.6601658,13.5337921,0
573452398,Apotheke in der Volkradstraße,,,52.499528,13.5073798,11401136
576608994,Apotheke im Gesundbrunnen-Center,Badstraße 4,13357,52.5499687,13.3891501,01300733
581322478,Brunnen Apotheke,Badstraße 11,13357,52.5503414,13.3855631,01300733
582854286,Ursus-Apotheke,Marienfelder Allee 75,12277,52.4193408,13.3684082,07601237
585143218,Schwarze Adler Apotheke,Prinzessinnenstraße 2,12307,52.386944,13.3954661,07601546
585144206,Bahnhof-Apotheke,Bahnhofstraße 26,12305,52.3868901,13.3997371,07601544
585473264,Lessing Apotheke,Reinickendorfer Straße 12,13347,52.5420876,13.3701655,01300836
588141093,Linden Apotheke,Bahnhofstraße 52,12305,52.3865399,13.404185,07601544
588552725,Katharinen Apotheke,,,52.5494413,13.4553976,03500936
588552733,Medicus Apotheke,Berliner Allee 82,13088,52.5492679,13.4562626,03500936
588557536,Sky Apotheke am Antonplatz,Langhansstraße 1,13086,52.5487495,13.4506766,03500935
593781884,Lankwitz-Apotheke,Kaiser-Wilhelm-Straße 68,12247,52.4352813,13.3437222,06200313
595536654,MediosApotheke Hackescher Markt,Rosenthaler Straße 46-47,10178,52.5245938,13.4032424,01100309
602531459,Pluspunkt Apotheke Wedding,Müllerstraße 139,13353,52.5492948,13.353572,01400942
604938266,Apotheke im Karstadt,,,52.4874834,13.4238942,02200212
608524481,Prenz’l-Apotheke,Schönhauser Allee 81,10439,52.550241,13.4142615,03601141
609142032,Elch Apotheke,Johannisthaler Chaussee 321,,52.4292565,13.4536256,08300934
609146610,Gropius-Apotheke,Imbuschweg 40,12353,52.42958,13.4570794,08300934
610199208,Tempelritter-Apotheke,Bahnhofstraße 60,12305,52.3865161,13.4066989,07601544
616284712,Apotheke am Rathaus,Möllendorffstraße 111,10367,52.5161624,13.4787925,11300722
621584928,Gerhart-Hauptmann-Apotheke,Fritz-Reuter-Allee 181,12359,52.4373715,13.4477689,08200727
627415668,Gesundbrunnen- Apotheke,Badstraße 64,13357,52.55057,13.3842488,01300836
630214264,Apotheke an der Rhinstraße,,,52.5136166,13.5179566,11401032
630214267,Bahnhof-Apotheke,,,52.5137587,13.5198414,11401033
631755396,Elch-Apotheke,Ludolfingerplatz 2,13465,52.6331147,13.2887685,12400720
635821864,Pantherapotheke,Scheelestraße 140,12209,52.412393,13.3208889,06200423
636005023,Rathaus-Apotheke Schmargendorf,Berkaer Straße 6,14199,52.4767049,13.288994,04400830
638953355,Weitling-Apotheke,Weitlingstraße 58,10317,52.5060983,13.4957547,11400929
644658975,Jülicher Apotheke,Jülicher Straße 27,13357,52.5539606,13.3923404,01300733
645677466,die Neue Apotheke,Turmstraße 77,10551,52.5265328,13.3357313,01200521
645677469,Arminius Apotheke,Turmstraße 38,10551,52.5268142,13.3365504,01200520
646579859,Ansbacher Apotheke,Ansbacher Straße 13,10787,52.5034922,13.3429298,07100101
647943536,Hubertus Apotheke am Salzufer,Salzufer 13/14,10587,52.5183557,13.3228681,04300620
650633578,Ludwigs-Apotheke,Essener Straße 16,10555,52.523569,13.3363347,01200522
653256888,Apotheke am Asternplatz,Asternplatz 3,12203,52.4488384,13.3038018,06300629
653289588,easyApotheke,Storkower Straße 5,10409,52.5410448,13.4403303,03601449
656006001,Düppel Apotheke,Ludwigsfelder Straße 53,14165,52.4234139,13.2419523,06300524
656210648,Mariannen-Apotheke,Brunsbütteler Damm 271,13591,52.5325457,13.1556432,05200423
658444284,Apotheke am Augustenburger Platz,Triftstraße 37,13353,52.541849,13.3503744,01401046
658612646,Schildhorn Apotheke,Schloßstraße 19,12163,52.4607968,13.3241522,06100102
661092195,Atlantis-Apotheke,Wilmersdorfer Straße 31,10585,52.5130881,13.3048087,04300621
661126965,Flora-Apotheke,,,52.5172034,13.3043479,04300621
663008203,Karlsbader Apotheke,Karlsbader Straße 18,14193,52.4780536,13.2821088,04400727
664028710,Apotheke am Schlaatz,Erlenhof 34,14478,52.3771318,13.0941325,0
665535053,Pestalozzi Apotheke,Kaiser-Friedrich-Straße 45a,10627,52.5080757,13.3018276,04300416
666388871,Erasmus-Apotheke,Hohenzollerndamm 47a,10713,52.4886003,13.3013735,04500939
666961028,Siemensstadt Apotheke,Toeplerstraße 35,13627,52.5379148,13.2799585,04100101
667211329,Fürstenplatz-Apotheke,,,52.5123167,13.2653691,04200310
667211352,Quant Apotheke,Reichsstraße 105,14052,52.510638,13.2698479,04200310
667211375,Raphael-Apotheke,Reichsstraße 36,14052,52.5191931,13.2572734,04200309
667211386,Reichs-Apotheke,,,52.5158753,13.2609904,04200310
667211398,Apotheke am Steubenplatz,Reichsstraße 22,14052,52.5160655,13.2616014,04200310
668246090,Barbara-Apotheke,Ladenstraße 9-10,14169,52.4497045,13.2530168,06400840
668899440,Apotheke am Tierpark,Rummelsburger Straße 13,10315,52.504119,13.5124502,11401136
670658040,Königin-Luise-Apotheke,Bülowstraße 23,10783,52.4977903,13.3609228,07100103
671210857,Annen-Apotheke,Ernststraße 62,13509,52.58365,13.301616,12500825
671390314,VitaCura-Apotheke,Marchwitzastraße 29 b,12681,52.5235741,13.5438535,10100312
671488820,Apotheke am S-Bahnhof Storkower Straße,Hermann-Blankenstein-Straße 38,10249,52.5239265,13.4623091,03601453
671696780,Westend - Apotheke,Spandauer Damm 130,14050,52.5185444,13.2787702,04200308
674086086,Kronen-Apotheke,Schönwalder Straße 29,13585,52.5480636,13.2013519,05100314
674316062,Gervinus-Apotheke,Wilmersdorfer Straße 106,10629,52.5044892,13.3075551,04501040
678295768,Waldsee-Apotheke,Berliner Straße 41,13467,52.6208593,13.3136912,12400723
689563385,Christophorus-Apotheke,Schloßstraße 88,12163,52.4576143,13.3217071,06100102
691484619,Althoff-Apotheke,Bergstraße 9,12169,52.4580136,13.3299507,06100208
691484670,Dr. Krachts Apotheke,Rheinstraße 52a,12161,52.4681185,13.3320209,07300618
699533239,Gartenstadt Apotheke,Lieselotte-Berger-Platz 9,12355,52.4041242,13.5072138,08401245
699538009,Apotheke Alt-Rudow,Alt-Rudow 26,12357,52.4201063,13.4920406,08401243
703042593,Paracelsus Apotheke,Neuköllner Straße 208,12357,52.4292698,13.4779131,08401241
703802174,Meraner Apotheke,Meraner Straße 16,10825,52.4866223,13.3386726,07200307
715203766,Möwen-Apotheke,Helgolandstraße 1,14199,52.4729719,13.2991581,04400832
715203882,Fortuna-Apotheke,Uhlandstraße 86,10717,52.4888204,13.3224732,04501147
715203887,Josephinen Apotheke,Uhlandstraße 79a,,52.4901513,13.3227162,04501147
715911607,Suarez-Apotheke,Suarezstraße 64,14057,52.5103771,13.2975749,04300416
718143915,Apotheke am Funkturm,Neue Kantstraße 18,14057,52.5063159,13.2842068,04300415
730172940,Goeben-Apotheke,Goebenstraße 15a,10783,52.4931996,13.3667198,07100206
733902771,Centrum Apotheke,Lipschitzallee 68,12353,52.4254275,13.4630198,08300935
737199963,gesundLeben,,,52.5268005,13.478518,11300617
738996191,Kurmark Apotheke,Kurfürstenstraße 154,10785,52.4994495,13.3637956,07100205
747517159,Nordend-Apotheke,,,52.5894147,13.4014334,03200205
753467604,Mendel Apotheke,Breite Straße 6,13187,52.5714517,13.4108555,03400723
762002923,Heide-Apotheke,Chemnitzer Straße 203,12621,52.4870402,13.5749614,10400837
765341424,Eulen Apotheke,Florastraße 4,13187,52.5657093,13.397257,03400721
765566778,Adler-Apotheke,Teltower Damm 31,14169,52.4321449,13.2591411,06300526
766742178,Sternlicht Apotheke,Körtestraße 22,10967,52.4904307,13.4094009,02200212
766875155,Elefanten-Apotheke,Dörpfeldstraße 46,12489,52.4382284,13.5480046,09200717
766875188,Adler Apotheke,Dörpfeldstraße 7,12489,52.4360165,13.543222,09200716
769069918,Bergfelder Apotheke,Birkenwerderstraße 4,16562,52.67357,13.3168096,0
769270129,Kopenhagener Apotheke,Kopenhagener Straße 2,13407,52.5743966,13.3595153,12100103
769318454,Lindauer-Apotheke,Residenzstraße 154,13409,52.573665,13.3594452,12100103
769365479,Apotheke am Moritzplatz,Oranienstraße 158,10969,52.5028987,13.4129908,02100104
769847926,Urban-Apotheke,Urbanstraße 39,10967,52.4908644,13.4158532,02200212
769847931,Körte-Apotheke,Grimmstraße 17,10967,52.4919934,13.4137912,02200213
770651959,Sonnen Apotheke,Langhansstraße 82,13086,52.5544002,13.4317943,03500934
771332595,Bavaria-Apotheke,Ansbacher Straße 53,10777,52.4979101,13.340083,07100101
771769255,Apotheke,Am Grünzug 12,15366,52.5394863,13.6428877,0
775342929,Germania Apotheke,Schloßstraße 29,12163,52.4589046,13.3223417,06100102
775578347,Prenzlauer Apotheke,Prenzlauer Allee 214,10405,52.5359441,13.4218153,03701555
779215542,Dorf-Apotheke,,,52.5745824,13.574102,0
795255878,Brigitten-Apotheke,Steglitzer Damm 29,12169,52.4509538,13.3409295,06100205
808390982,Brunnen-Apotheke,Falkenberger Chaussee 134,13057,52.5678366,13.5256044,11100203
808390994,Auxilia-Apotheke,Prerower Platz 4,13051,52.5648301,13.5075743,11100307
808391031,Pluspunkt Apotheke im Warnitzer Bogen,Warnitzer Straße 20,13057,52.5673914,13.5180117,11100204
813811847,Curtius-Apotheke,Curtiusstraße 4,12205,52.4429005,13.2960084,06300634
816598789,Apotheke am Hansaplatz,Bartningallee 5,10557,52.5187747,13.3429225,01200629
833390882,easyApotheke,Schloßstraße 1,12163,52.4646654,13.3261851,06100103
848509143,Apotheke Berg,Skalitzer Straße 133,10999,52.4992782,13.4196742,02300314
849520185,Wilhelm-Voigt-Apotheke,Pablo-Neruda-Straße 2-4,12559,52.4414305,13.5873859,09401431
853806321,Grüne Apotheke Lichtenrade,Lichtenrader Damm 24,12305,52.4119945,13.4022416,07601442
854996274,Utrechter Apotheke,Maxstraße 13,13347,52.5506076,13.3630015,01401049
858380325,Apotheke Charlottenburg-Nord,,,52.5353861,13.2863661,04100101
858382391,Sanimedius-Apotheke im Plaza Marzahn,Mehrower Allee 20,12687,52.5555383,13.5592685,10100208
876479038,Grünberger Apotheke,Grünberger Straße 43-45,10245,52.5121401,13.4551452,02500833
882491958,Storchen Apotheke,,,52.4739437,13.7142151,0
928338769,Zieten Apotheke,Großbeerenstraße 11,10963,52.4981158,13.384792,02200208
931658983,Lucia-Apotheke am Wildenbruchplatz,,,52.484367,13.4434517,08100312
933513518,Neue Apotheke am See,Breisgauer Straße 1A,14129,52.439091,13.2153341,06400838
946947756,Adler Apotheke,Am Bahnhof 3b,15831,52.3602988,13.410233,0
946948184,Neue Apotheke,Trebbiner Straße 19,15831,52.3609961,13.411332,0
950786260,Phönix Apotheke,Sonnenallee 4,16321,52.6724351,13.6025426,0
956306643,Apotheke Q205,Friedrichstraße 68,10117,52.5122639,13.3903812,01100206
977657079,Achilles Apotheke,Achillesstraße 69,13125,52.6171891,13.4903858,03300411
983454566,Friedrich-Apotheke,Frankfurter Allee 100,10247,52.5136594,13.4731765,02500832
992805862,Flora-Apotheke,Leonorenstraße 91,12247,52.4372593,13.3451962,06200313
998713196,Wannsee Apotheke,Königstraße 18,14109,52.4196142,13.1575816,06400735
1008402120,Punkt Apotheke,,,52.4180116,13.436734,08200832
1018833559,Mozart Apotheke,Wiener Straße 18,10999,52.4976442,13.4306508,02300417
1020532583,Schmargendorfer Apotheke,Breite Straße 13,14199,52.4743541,13.2944008,04400832
1025343870,Apotheke im Sonnengarten,Märkische Allee 76,16548,52.6311445,13.323361,0
1032978552,Stern-Apotheke,Landsberger Allee 277,13055,52.535795,13.4961485,11200514
1037241970,Damian Apotheke,Falkenseer Chaussee 196,13589,52.5511687,13.163271,05100208
1038217551,Falken-Apotheke,Siegener Straße 59,13583,52.5475503,13.1771981,05100211
1042258380,Berolina Apotheke,Clayallee 345,14169,52.4363152,13.2608479,06400841
1050025508,Apotheke Schönwalde,,,52.6004217,13.1356924,0
1051174903,Süd-Apotheke,Ladiusstraße 31,14165,52.4107881,13.2617669,06300525
1075295993,Stadt Apotheke,Teltower Damm 5,14169,52.4344191,13.2604293,06300526
1082724258,Christophorus Apotheke,,,52.3986066,13.2463955,0
1082750111,Staufen-Apotheke,Clayallee 331,14169,52.4375339,13.2615692,06400841
1083676123,Prinzen Apotheke,Prinzenstraße 96,10969,52.5010849,13.4083406,02100105
1094105653,Baba Jaga,,,52.5277137,13.5386173,10100312
1110626664,Apotheke zum goldenen Anker,,,52.4903456,13.4277648,08100311
1124601226,Park-Apotheke,Zeltinger Platz 7,13465,52.6339256,13.2896726,12400721
1124612201,Ludolfinger-Apotheke,,,52.6325774,13.2869838,12400720
1143798306,pro-samed Apotheke,Greifswalder Straße 155,10409,52.5440277,13.4416805,03601245
1145597661,Apotheke am Tegeler See,Namslaustraße 83,13507,52.5774369,13.2791669,12200413
1163265616,Borussia-Apotheke,Knobelsdorffstraße 4,14059,52.5136253,13.2956492,04300414
1169920988,easyApotheke,Großbeerenstraße 2,12107,52.4388221,13.380108,07501029
1183753005,Rosen-Apotheke Nord,Krummer Luchweg 18,14612,52.5735417,13.0917206,0
1200549656,Bäke-Apotheke,Potsdamer Allee 3,14532,52.3931294,13.2134523,0
1200964445,WitzlebenApotheke24,Kaiserdamm 24,14057,52.5103117,13.2827609,04200311
1200964491,WitzlebenApotheke26,Kaiserdamm 26,14057,52.5102306,13.2814283,04200311
1207853561,Alte Stahl Apotheke,Havelpassage 3,16761,52.6369722,13.2034484,0
1207853576,Storchen Apotheke,Havelpassage 2,16761,52.6371129,13.2009632,0
1212618057,Sonnenschein-Apotheke,,,52.4787595,13.5243036,11501341
1226991552,Akazien Apotheke,Waldstraße 56,16761,52.6471122,13.1991186,0
1234501223,Paul Gerhardt Apotheke,,,52.5543245,13.3456342,01400939
1235266856,Sonnen-Apotheke,,12623,52.4805013,13.6013424,10400941
1236581643,Pluspunkt Apotheke Müllerstraße,Müllerstraße 40,13353,52.5501219,13.3530389,01400942
1246879588,Apotheke am Ravensberg,Saarmunder Straße 48,14478,52.3634355,13.0934185,0
1246989790,Apotheke zum Schwan,Oranienstraße 64,10969,52.5043488,13.4092742,02100104
1252777062,Schloss-Apotheke Tegel,Berliner Straße 6,13507,52.5885653,13.2843949,12200515
1252944782,Alte Spree Apotheke,,,52.5895474,13.2826806,12200515
1257075697,Apotheke am Friedrichshain,,,52.5237553,13.4398917,02400521
1298246171,Vineta Apotheke,Brunnenstraße 121,13355,52.5405418,13.3938688,01300835
1298511709,Apotheke am Gartenplatz,,,52.5380192,13.3854708,01300835
1315650095,Kur-Apotheke,Mehringdamm 50,10961,52.4920432,13.3869021,02200209
1336599080,Dr. Rothes Apotheke,Bahnhofstraße 10,12555,52.4553026,13.5770429,09501939
1336725194,Stadt-Apotheke,Grünstraße 24,12555,52.444918,13.5747201,09401534
1336788980,Süd-Apotheke,Wendenschloßstraße 324a,12557,52.427899,13.5848235,09401329
1338226878,Jumbo Apotheke,Otto-Schmirgal-Straße 3,10319,52.4973391,13.5217595,11401137
1365702036,Haselhorster Apotheke,Gartenfelder Straße 109,13599,52.5424964,13.2388868,05300737
1374215630,Immanuel Apotheke,Immanuelkirchstraße 2,10405,52.533075,13.4221508,03701659
1375170411,Kiwi Apotheke,Hugo-Cassirer-Straße 26,13587,52.557697,13.2189479,05100104
1375297865,Apotheke im Markt,,,52.3963552,13.2411967,0
1397070332,Dominicus Apotheke,Hauptstraße 117,10827,52.4824434,13.3497166,07200410
1398576503,Königswald Apotheke,Potsdamer Chaussee 106,14476,52.4699392,13.1008456,0
1400224784,Fritz Apotheke,Mariendorfer Damm 165,12107,52.4370757,13.388732,07501134
1413247085,Apotheke 97,Nonnendammallee 97,13629,52.5369189,13.2672695,05300841
1419134521,Central Apotheke,Nonnendammallee 94,13629,52.5369057,13.2684032,05300841
1434256844,Apotheke am Bayerischen Platz,Bayerischer Platz 6,10779,52.4885983,13.3390663,07200307
1478057356,Fortuna-Apotheke,Hauptstraße 14,16567,52.6632453,13.3787719,0
1492336686,Esmarch Apotheke,Hufelandstraße 15,10407,52.532136,13.431803,03701660
1498608858,Apotheke Biesdorf-Süd,Weißenhöher Straße 88,12683,52.5060706,13.5582187,10300733
1504564883,Warschauer Apotheke,Warschauer Straße 56,10243,52.5090106,13.451441,02500834
1527942471,Apotheke Impuls,Karl-Marx-Straße 29,12043,52.4846388,13.4285441,08100314
1547845870,Apotheke Altes Kino,,,52.4648526,13.6984937,0
1552051348,MediosApotheke,Friedrichstraße 113A,10117,52.5260899,13.3875545,01100308
1554257377,St.Hildegard Apotheke,Gersdorfstraße 50,12105,52.4460352,13.372337,07501029
1557276120,Adler-Apotheke,,,52.476692,13.7001192,0
1575512027,Tannenberg Apotheke,Birkbuschstraße 59,12167,52.4460263,13.329341,06100206
1577132742,Oskar Helene Apotheke,Clayallee 177,14195,52.4513152,13.269836,06400842
1585171546,Fleming Apotheke,Zabel-Krüger-Damm 31,13469,52.6097315,13.3294059,12500928
1597559553,Apotheke am Schlosspark,Hermann-Hesse-Straße 4a,13156,52.581118,13.4024597,03200206
1617416107,aktiv Apotheke,Ostpreußendamm 139,12207,52.4231693,13.3137602,06200421
1617419904,Apotheke im Schweizer Viertel,Lausanner Straße 83,12205,52.4268932,13.3036661,06300632
1624585364,Vital-Apotheke,Skalitzer Straße 15,10999,52.4988803,13.4203076,02300417
1624946236,,,,52.39714,13.244771,0
1628927163,Apotheke im Pankeviertel,Blankenburger Straße 153,13127,52.5881829,13.4282736,03200207
1632227368,Linden Apotheke,Lindenstraße 1a,12207,52.4174336,13.3059616,06200420
1636830086,Blaue Apotheke,,,52.4939436,13.4601281,09100101
1636845053,Kirchsteig-Apotheke,,,52.3620256,13.1344991,0
1640616159,Bären-Apotheke,Oranienburger Straße 85-86,13437,52.595082,13.3333432,12500926
1654832841,Hausapotheke - Vivantes Klinikum Neukölln,Kormoranweg 45,12351,52.4367426,13.4564982,08401139
1655132802,Sundgauer Apotheke,Berliner Straße 43b,,52.4385108,13.2707693,06400841
1659884034,Märkische Apotheke,Müllerstraße 33,13353,52.5483468,13.3562137,01401048
1663350357,BEZIRKSapotheke,Warschauer Straße 27,10243,52.5101873,13.4511485,02400624
1678448395,Forst Apotheke,Forststraße 31,12163,52.4652856,13.3104944,06100101
1703401473,Apotheke am Schillerplatz,Stubenrauchstraße 58,12161,52.471767,13.3235696,07300515
1704256871,Lichtenrader Apotheke,Barnetstraße 41-42,12305,52.3981287,13.3914745,07601544
1704342455,Wendorff-Apotheke,Am Lückefeld 97,15831,52.357738,13.4322873,0
1719664188,Apotheke am Anton-Saefkow-Platz,Anton-Saefkow-Platz 8,10369,52.5286228,13.4714754,11300617
1721061596,Apotheke in Nikolassee,Prinz-Friedrich-Leopold-Straße 3,14129,52.4300081,13.1949978,06400737
1777151508,Apotheke am Stadtrand,Ahrensfelder Chaussee 141,12689,52.5708343,13.5635073,10100101
1782386007,Zieten Apotheke Rudow,Köpenicker Straße 184,12355,52.4184421,13.496804,08401243
1812702381,Gartenstadt Apotheke,,,52.5218163,13.6978506,0
1828707071,Rennbahn Apotheke,Rennbahnstraße 22-23,13086,52.5603111,13.4591942,03501037
1833509167,Apotheke am Bahnhof Grunewald,Fontanestraße 4,14193,52.4870726,13.2640301,04400728
1833899878,Apotheke am Rathausmarkt,,,52.4044943,13.21996,0
1845158730,Wollank Apotheke,Wollankstraße 30,13359,52.5636023,13.3910866,01300731
1863567226,Schwanen Apotheke,Hans-Otto-Straße 42,10407,52.532715,13.43824,03701660
1866461768,Ostsee-Apotheke,Greifswalder Straße 137,10409,52.5461931,13.4455087,03601449
1905963630,Fasanen-Apotheke,Uhlandstraße 158,10719,52.4987789,13.3248652,04501045
1906515104,Emser Apotheke,Emser Straße 44,10719,52.4967633,13.3198452,04501044
1914403852,Ranke-Apotheke,Joachimsthaler Straße 24,10719,52.5000244,13.3305311,04501045
1914552632,Apotheke am Ludwigkirchplatz,Pariser Straße 47,10719,52.4970403,13.3234022,04501044
1933362462,Viereck Apotheke,Wiltbergstraße 25,13125,52.6360319,13.4934176,03100103
1944887346,Orion Apotheke,Johannes-Kepler-Platz 5,14480,52.3760346,13.1298668,0
1948961324,Charlotten-Apotheke,,,52.518856,13.2898547,04300413
1948961329,Falken-Apotheke,Danckelmannstraße 51,14059,52.5152489,13.290931,04300413
1963129662,Atoll-Apotheke,Hermannstraße 158A,12051,52.4674061,13.4318149,08100209
2013009698,Cottbusserdamm Apotheke,,,52.4951332,13.4204287,02200213
2018710520,Ibis Apotheke,Neuköllner Straße 261,12357,52.4257157,13.4838189,08401241
2026247343,Adler Apotheke,,,52.5247222,13.5580924,10300731
2026466974,Abacus Apotheke,,,52.5345031,13.5521929,10100314
2038240175,Sanimedius-Apotheke im Spreecenter,Hellersdorfer Straße 77,12619,52.5211516,13.5874121,10200629
2039162001,Apotheke Wutzky-Center,,,52.4227979,13.4754642,08301037
2046807703,Wartenberger Apotheke,Egon-Erwin-Kisch-Straße 32,13059,52.5730689,13.5049041,11100206
2098147261,Doc Maier,Siemensstraße 2,12247,52.4467545,13.3418127,06100206
2098221272,Markus Apotheke,Albrechtstraße 51,12167,52.4481027,13.3397351,06100206
2110613369,Oldenburger Apotheke,Oldenburger Straße 37,10551,52.5302571,13.3359327,01200519
2139861333,Meine Apotheke,Olivaer Platz 17,10707,52.4996926,13.3125891,04501043
2139861379,Cornelia-Apotheke,Konstanzer Straße 4,10707,52.4983773,13.311957,04501043
2150847605,Maulbeer-Apotheke,,,52.4220597,13.7535364,0
2169170618,Preussen Apotheke Spandau,Carl-Schurz-Straße 29,13597,52.5368301,13.2024674,05100316
2181178545,Linden Apotheke,,,52.506761,13.398262,02100102
2222747269,Apotheke am Rathaus,Richard-Israel-Straße 3,15732,52.3645856,13.594145,0
2251295178,Masuren-Apotheke OHG,Angerburger Allee 45,14055,52.5094033,13.2223693,04200204
2273462199,easyApotheke,Egon-Erwin-Kisch-Straße 80,13059,52.56849,13.5108472,11100206
2274239284,Vitalis Apotheke,,,52.5688682,13.5162437,11100205
2284912435,Heinrich-Mann-Apotheke,Johannes-R.-Becher-Straße 65b,14478,52.3663888,13.0940105,0
2288127751,Moabiter Apotheke,Alt-Moabit 18,10559,52.5243574,13.3522408,01200626
2320532525,Havelland-Apotheke,Sakrower Landstraße 6,14089,52.4531286,13.1422529,05400943
2320629344,Apotheke am Wittenbergplatz,Bayreuther Straße 44,10787,52.5035594,13.3444884,07100101
2325407968,Dafne-Apotheke,Karl-Marx-Straße 231-235,12055,52.4684978,13.4427459,08100209
2423122288,Octopus Apotheke,Waidmannsluster Damm 176,13469,52.6065358,13.3192004,12500928
2424327600,Süd-Apotheke,Hultschiner Damm 24,12623,52.4766287,13.6007627,10400941
2429162139,Löwen Apotheke,Ollenhauerstraße 110a,13403,52.5696336,13.3297842,12200307
2439759182,Pluspunkt Apotheke Charlottenburg,Theodor-Heuss-Platz 6,14052,52.5101677,13.2724807,04200310
2445456645,Sylter Apotheke,Berliner Straße 37,10715,52.4866571,13.3215081,04501150
2476268050,Blitz Apotheke,Wexstraße 30,10715,52.478841,13.3299374,04501153
2484338009,Sonnenapotheke,Sonnenallee 76,12045,52.4835661,13.4358446,08100314
2496651331,Kreuzberg Apotheke,Mehringdamm 69,10961,52.4902187,13.3870554,02200211
2516120286,Flora-Apotheke seit 1880,Berliner Allee 109,13088,52.5504319,13.4597629,03500933
2541179150,Apotheke Zum Elefanten,Karl-Marx-Straße 150,12043,52.4762082,13.4391375,08100207
2557710789,Spree-Apotheke,Alt-Moabit 86b,10555,52.5253262,13.342,01200522
2638963983,Richthofen-Apotheke,Manfred-von-Richthofen-Straße 15,12101,52.4831066,13.3826359,07400720
2660101541,Adlerapotheke,Poststraße 15,15345,52.564408,13.726336,0
2713665583,Apotheke im Bismarck-Karree,Bismarckstraße 45-47,10627,52.5117094,13.3046182,04300621
2717366804,Stadtpark-Apotheke,Albrechtstraße 94,12167,52.4523689,13.3335365,06100206
2719924788,Kastanien-Apotheke,Ernst-Thälmann-Straße 16,15370,52.516695,13.7485378,0
2779341569,Saint Charles Apotheke,Pariser Straße 20,10707,52.4985147,13.317788,04501043
2782835460,Sanitas Apotheke,Oraniendamm 6-10,13469,52.6078978,13.3255639,12601032
2796710201,Apotheke Hackesches Quartier,Henriette-Herz-Platz 3,10178,52.5221812,13.4024813,01100310
2820029176,Apotheke an der Alten Schule,Dörpfeldstraße 55,12489,52.4387416,13.5506904,09200717
2829271312,Regenbogen Apotheke,Seestraße 64,13347,52.5537925,13.3593721,01401048
2857712871,Achat Apotheke,Brunnenstraße 160,10115,52.5347618,13.3977794,01100415
2864467602,Post-Apotheke Buckow,,,52.4245859,13.4360037,08200730
2864491450,Apotheke Alt-Buckow,,,52.4231003,13.4356893,08200832
2867498526,Gertrauden Apotheke,,,52.4205157,13.4273954,08200832
2872185601,Kloster-Apotheke,Klosterstraße 6/7,13581,52.5323465,13.1975304,05200629
2917786907,Apotheke am Steubenplatz,Reichsstraße 22,14052,52.5160627,13.2616016,04200310
2952546845,Neue Apotheke,Residenzstraße 137,,52.5703596,13.3612245,12100103
2952573359,Residenz Apotheke,,,52.5667626,13.3630766,12100204
2969309057,Märkische Apotheke Kladow,Kladower Damm 366,14089,52.4549833,13.1446817,05400944
2998135448,Amtsfeld-Apotheke,Salvador-Allende-Straße 2–8,12559,52.4405588,13.5939645,09401433
3012143573,Falken-Apotheke,Edisonstraße 18,12459,52.464407,13.5138972,09200510
3041745938,Manteuffel-Apotheke,Manteuffelstraße 19,12103,52.4604721,13.3763073,07400823
3045761935,Amsel-Apotheke,Rostocker Straße 15,13059,52.5745184,13.5094017,11100206
3072343433,Apotheke am Viktoria-Luise-Platz,Viktoria-Luise-Platz 9,10777,52.4952479,13.3410681,07100101
3080747241,Ginkko-Apotheke,Walter-Friedrich-Straße 6,13125,52.6343256,13.4943853,03100103
3089158088,Leuchtturm Apotheke,Heinsestraße 32-34,13467,52.6169159,13.3070697,12400722
3112851447,Schlosspark-Apotheke,Walter-Friedrich-Straße 4A,13125,52.6348377,13.4955488,03100103
3118107216,Apotheke am ukb,,,52.5191748,13.5645435,10300732
3157838594,Apotheke zum Zirkel,Beckerstraße 4,12157,52.4672036,13.342445,07300619
3157917186,Lauter Apotheke,Rheinstraße 2,12159,52.4713396,13.3347336,07300517
3167654650,Apotheke am Hermannplatz,,,52.4875333,13.4256151,08100314
3206454429,Karolinen Apotheke,Schloßstraße 5,13507,52.5912527,13.28343,12200515
3216711374,Eick Apotheke,Oranienstraße 7,10997,52.4998605,13.4247979,02300315
3229138232,Diana Apotheke,Schloßstraße 116,12163,52.4622982,13.3262168,06100103
3300157792,Karow Apotheke,Bucher Chaussee 1-3,13125,52.616322,13.4855923,03300411
3307700070,Elisabeth Apotheke,Prenzlauer Allee 184,10405,52.5426874,13.4258787,03601348
3310052861,Apotheke Rosenthaler Platz,Weinbergsweg 1,10119,52.5299308,13.4017313,01100309
3310698935,Apotheke an der Galenusstraße,Galenusstraße 59,13187,52.5806283,13.4237469,03400725
3314954403,Regenbogen Apotheke,Spandauer Straße 144,14612,52.5592002,13.1327753,0
3324061526,Stadtapotheke Falkensee,,,52.5612404,13.093181,0
3328147366,Waldstadt-Apotheke,Am Moosfenn 1,14478,52.3647786,13.0928101,0
3328465002,Margeriten-Apotheke,Neuendorfer Straße 15,14480,52.3772852,13.1295703,0
3328474346,Birken-Apotheke Karow,Bahnhofstraße 17A,13125,52.6119717,13.4742827,03300412
3331787468,Aschenbachs Apotheke,Georgenstraße 25,10117,52.5196854,13.3874475,01100206
3334327193,Apotheke 4.0,Turmstraße 29,10551,52.526505,13.3417528,01200520
3337674441,Kristall Apotheke,Tegeler Weg 3,10589,52.5233862,13.299693,04300517
3337738729,Apotheke am Heckerdamm,Heckerdamm 225,13627,52.5390832,13.2994523,04100102
3337776414,Eva-Apotheke,Schönwalder Straße 78-79,13585,52.5492831,13.2003621,05100312
3338623569,Apotheke Wilhelmstraße,Wilhelmstraße 24B,13593,52.5212776,13.1854103,05200527
3338651114,Gesundheits-Apotheke,Schönefelder Chaussee 233,12524,52.4029704,13.5240121,09300922
3339491292,Titisee Apotheke,Titiseestraße 5,13469,52.6092923,13.335399,12601032
3340079413,Oran-Apotheke,Oranienburger Straße 60,13437,52.5894338,13.3346308,12500926
3341588831,Kolonie-Apotheke,Koloniestraße 22,13359,52.5578575,13.3787231,01300730
3350477701,Nordkreuz Apotheke,,13357,52.548374,13.3887526,01300834
3353191483,Berlinda Apotheke,Schloßstraße 34,12163,52.4576052,13.3197716,06100102
3353229504,MediosApotheke,,13187,52.567326,13.4108465,03400723
3353236089,Arcaden-Apotheke,,,52.5334895,13.1975602,05200629
3353252595,Arcaden-Apotheke,Tempelhofer Damm 227,12099,52.456063,13.3862617,07400927
3353551041,Sky Apotheke Kreuzberg,Bergmannstraße 5-7,10961,52.4895389,13.3888023,02200211
3354050334,Friedrich-Wilhelm Apotheke,Friedrich-Wilhelm-Platz 6,12161,52.4721004,13.3275938,07300515
3357535140,Kollwitz-Apotheke,,,52.5361903,13.4182329,03701556
3374665796,Krankenhaus-Apotheke,,,52.5438614,13.3446673,01400938
3393462395,Rennbahn-Apotheke,Lindenallee 7,15366,52.5150129,13.667861,0
3411987196,Wittekind-Apotheke am Attilaplatz,Manteuffelstraße 32,12103,52.4565876,13.3754259,07400823
3446123445,Sophien-Apotheke,Invalidenstraße 157,10115,52.5323503,13.3968456,01100415
3472167668,Apotheke Goltzstraße,Goltzstraße 35,10781,52.4939199,13.3536059,07100204
3556800140,Fontane-Apotheke,Uhlandstraße 28,10719,52.5015768,13.3249245,04501041
3625376503,Titania Apotheke,Markelstraße 3,12163,52.463688,13.3261596,06100103
3632641123,Feurig-Apotheke,Hauptstraße 131,10827,52.4843624,13.3533655,07200410
3632641432,Pommern Apotheke,Hauptstraße 152,10827,52.4885088,13.3588471,07200411
3644288801,Schloss Apotheke,Rudower Straße 13,12557,52.4440241,13.5671809,09200819
3652905896,Rheinstein-Apotheke,Rheinsteinstraße 4-10,10318,52.48275,13.5270224,11501340
3662929427,Cranach Apotheke,Cranachstraße 6,12157,52.4682275,13.3418488,07300619
3666540067,Roland Apotheke,Motzstraße 68,10777,52.4947915,13.3384366,07100101
3675973919,Apotheke in der Metropole,Joachimsthaler Straße 21,10719,52.5006408,13.3306491,04501042
3678881033,Apotheke am Zoo,Joachimsthaler Straße 38,10623,52.5045271,13.3317185,04501042
3686215389,Mörike Apotheke,Baumschulenstraße 90-91,12437,52.4659153,13.4870512,09100304
3714096733,Sorella-Apotheke,Albertstraße 6,16540,52.6686334,13.2819882,0
3727826475,Greifswalder Apotheke,Greifswalder Straße 207A,,52.5328339,13.4286374,03701659
3738119413,Stadt Apotheke,,,52.4226223,13.7522418,0
3770254015,Apotheke am Bärenschaufenster,Erich-Kurz-Straße 11,10319,52.4974009,13.5197847,11401137
3772676294,Pluspunkt Apotheke im Linden-Center,Prerower Platz 1,13051,52.5648805,13.5063233,11100307
3772699254,Kaufpark Apotheke,,,52.548811,13.6011442,0
3775184617,Pannier-Apotheke,,,52.4864104,13.4299259,08100311
3803786798,Apotheke im Gesundheitsforum Köpenick,,,52.4598672,13.5798681,09502043
3826013963,Magnus Apotheke,Motzstraße 11,10777,52.4984847,13.3508484,07100102
3826455882,Quartier Apotheke Nolleturm,Nollendorfplatz 3-4,10777,52.4993503,13.3522231,07100102
3826455892,ViaPharm,Kleiststraße 34,10787,52.500298,13.3489734,07100102
3834271596,Humboldt-Apotheke,Lützowstraße 93,10785,52.5027647,13.3665376,01100104
3844572789,St. Annen Apotheke,Eisenacher Straße 46,10823,52.4883801,13.3490721,07200409
3859397154,Quartier Apotheke Maaßenstraße,Maaßenstraße 3,10777,52.498601,13.3544313,07100103
3861762721,Hermes-Apotheke,Bleibtreustraße 40,10623,52.5027976,13.3197952,04501041
3883143867,Sonnen-Apotheke,Wilhelminenhofstraße 27,12459,52.4618568,13.5171942,09200511
3883215153,Kant - Apotheke,Griechische Allee 24,12459,52.4638103,13.5184661,09200511
3914041314,Sedan Apotheke,Albrechtstraße 41,12167,52.4510523,13.3356849,06100206
3928176957,Avitario-Apotheke,Neuendorfstraße 22 a,16761,52.6341477,13.2080763,0
3941585864,Jasmin Apotheke,Lortzingstraße 42,13355,52.5427547,13.3929225,01300834
3967123706,Kreuz-Apotheke,Am Müggelpark 10-12,15537,52.396622,13.7180644,0
3978727083,Pharmland,,,52.4522616,13.5867921,09501941
3987051088,Casana-Apotheke,Oberweißbacher Straße 7-9,12687,52.5574272,13.5705133,10100206
4010310541,Sonnenhut Apotheke,Riesaer Straße 102,12627,52.5302632,13.6207446,10200525
4015545332,Kranich Apotheke,,,52.5370795,13.6335543,0
4116109275,easyApotheke Marzahn,,,52.5441347,13.5484221,10100210
4119531056,Bären-Apotheke,Elsenstraße 99,12435,52.4885571,13.4538009,09100101
4179445962,Neue Roland Apotheke,,,52.6332706,13.3096229,0
4197401453,Die Herz Apotheke 12,Badstraße 12,,52.5506141,13.385108,01300733
4221018789,Apotheke Helle Mitte,Fritz-Lang-Platz 6,12627,52.5376932,13.6022698,10200421
4234162689,Sky Apotheke,Müllerstraße 142,13353,52.5487229,13.3544811,01400942
4235016190,Grüne Apotheke,Fritz-Lang-Straße 5,12627,52.536915,13.6028472,10200421
4318602145,Melanchthon Apotheke,,,52.5191421,13.197578,05200630
4347330563,Apotheke am Adenauerplatz,,,52.50064,13.3075874,04501040
4365384392,Löwenburg-Apotheke,Alt-Blankenburg 67a,13129,52.5937649,13.4607566,03300514
4381928183,Apotheke am Bundesplatz,Bundesplatz 3,10715,52.4796809,13.3276877,04501151
4396193589,Müggel-Apotheke,,,52.4125675,13.660795,09401635
4396385781,Apotheke am T-Damm,Tempelhofer Damm 198-200,12099,52.4586221,13.3840737,07400825
4413004968,Rosen-Apotheke,,,52.5651319,13.324363,12200309
4415351535,Humboldt-Apotheke,Chausseestraße 7,10115,52.5281171,13.3863624,01100308
4436482370,Dafne Apotheke,Badstraße 32,13357,52.5529761,13.3801354,01401045
4439765092,Drive In,,,52.6343857,13.4943757,03100103
4485201590,Apotheke Alt-Lichtenrade,Groß-Ziethener Straße 35,12309,52.3943701,13.410495,07601545
4508100704,Südend-Apotheke,,,52.4497048,13.3478529,06100205
4514495946,Falken-Apotheke,,,52.553737,13.4751797,03501037
4537781089,Steinbock Apotheke,Bahnhofstraße 5b,16552,52.6361966,13.3737015,0
4580235141,easyApotheke Residenzstraße,Residenzstraße 33,13409,52.56738,13.3621478,12100204
4590302593,Bärenapotheke,Clayallee 225,14195,52.4495841,13.2694016,06400842
4590578897,Schneemanns Apotheke Rahnsdorf,Fürstenwalder Allee 318,12589,52.4315546,13.715511,09501838
4630466562,Wilhelm-Tell-Apotheke,,,52.5662533,13.3456239,12100204
4630466565,Primus-Apotheke,,,52.5678274,13.3514899,12100205
4656560689,Zwilling Apotheke,,,52.467232,13.3082149,06400844
4682866291,Haus Apotheke,Landsberger Allee 117,10407,52.5290131,13.4566633,03601450
4715153492,Rathaus-Apotheke,Bölschestraße 59,12587,52.4544602,13.6254184,09501737
4737978945,Kleo Apotheke,Müllerstraße 130,13349,52.5520193,13.3487888,01400938
4767441824,Sanimedius-Apotheke im Corso,Neue Grottkauer Straße 3,12619,52.5292971,13.5926423,10200628
4837190268,Jagdhaus-Apotheke,Wildeberstraße 30,14480,52.3795535,13.1412748,0
4936116186,Alte Hellersdorfer,,,52.5463275,13.5924702,10200417
4936408725,puls Apotheke,Goltzstraße 39,12307,52.3870475,13.4092711,07601547
4957605786,Kastanienaphotheke,Kastanienallee 37-38,13158,52.5919888,13.3829714,03400618
4995631265,Fliesstal Apotheke,Hauptstraße 32,16552,52.6372084,13.3758191,0
5099191724,Apotheke des Westens,Rankestraße 34,10789,52.5035548,13.3351723,04501042
5136059327,Apotheke am Kurfürstendamm,Kurfürstendamm 200,10719,52.5014929,13.320417,04501041
5168728119,Edelweiss Apotheke,Hauptstraße 29A,13158,52.5869484,13.3682051,03400619
5181703340,Königliche Hof-Apotheke,Otto-Suhr-Allee 89,10585,52.516328,13.3091043,04300621
5244950366,Tilia Apotheke,,,52.5608476,13.3688276,12100101
5266816861,Apotheke am Weißen See,Berliner Allee 168,13088,52.5531267,13.4674421,03501038
5381166353,Kiez-Apotheke,Schnellerstraße 127,12439,52.4564723,13.5107243,09200613
5471345775,Center Apotheke,,,52.5609831,13.422458,03400829
5505144605,Thüringer Apotheke,Mainzer Straße 13,10715,52.4797463,13.3265646,04501151
5539552743,Apotheke an der Dorfkirche,Potsdamer Straße 53,14163,52.4350381,13.2594338,06300526
5558763418,Kloster-Apotheke,,,52.4167392,13.4961631,08401243
5570687529,Linden-Apotheke,Mark-Twain-Straße 1,12627,52.5336443,13.6093932,10200524
5617991157,Zedern-Apotheke,Gustav-Müller-Straße 48,10829,52.4852031,13.3627094,07200413
5625098623,Hermsdorfer Apotheke,,,52.6178582,13.3083377,12400723
5777420980,Schönhauser Apotheke,Danziger Straße 5,10435,52.5409918,13.4135467,03601347
5838129619,Apotheke im Polikum Friedenau,,12157,52.4638126,13.3449085,07300619
5971003197,Die Herz Apotheke,Seeburger Straße 8,13581,52.5286371,13.1918731,05200629
6006371223,Lorbeer-Apotheke,Danziger Straße 133,10407,52.5353496,13.4355276,03601451
6143046477,Pluspunkt Apotheke Potsdamer Platz,,,52.5068477,13.3736216,01100102
6200110157,Adler-Apotheke,Konrad-Wolf-Straße 132,13055,52.5464133,13.4974134,11200411
6254464585,Apotheke im KaDeWe,,,52.5011294,13.340043,07100101
6308903438,Bio 7.0 Apotheke,Kurfürstendamm 203-205,10719,52.5017853,13.3223333,04501041
6316429002,Stier-Apotheke,Hauptstraße 76,12159,52.4740181,13.3379088,07300517
6501792388,Am Schäfersee,,,52.5622445,13.3567494,12100204
6510008627,Feuerland-Apotheke,Chausseestraße 42,10115,52.5339592,13.3791115,01100308
6518240976,OLMS-Apotheke,Rixdorfer Straße 117,12109,52.4444414,13.3999635,07501032
6939573755,Apotheke an der Dahme,Regattastraße 79,12527,52.4209973,13.5780562,09301126
7038292870,Lilienthal Apotheke,,15732,52.3698968,13.6082675,0
7039246613,Apotheke im Regierungsviertel,Wilhelmstraße 93,10117,52.512012,13.3825855,01100205
7039503416,Die City Apotheke,Hermannstraße 51,12049,52.4779916,13.4257337,08100102
7072465637,Neumann Apotheke,Hönower Straße 16,12623,52.5062602,13.6130564,10400939
7090489961,Dolgensee-Apotheke,Dolgenseestraße 8a,10319,52.4938077,13.5073306,11401135
7093679841,Reseda-Apotheke,,,52.5533211,13.4343492,03500934
7223008667,Burg-Apotheke,,,52.4146728,13.3473596,07601339
7235438319,Schneemanns Apotheke,Hansastraße 236,13051,52.5609423,13.4995745,11200410
7627061713,Fontane Apotheke,,,52.5371206,13.2042266,05100316
7723893754,Unsere Apotheke,Bayerischer Platz 9,10779,52.4881753,13.3405964,07200307
7822423712,Herzpunkt Apotheke,,,52.5459056,13.4285582,03601245
7829177030,Zentrum Apotheke,Obstallee 28-30,13593,52.5218384,13.1632186,05200527
7843356143,Apotheke am Leipziger Platz,Leipziger Platz 12,,52.5099924,13.3813001,01100205
7858528547,Falken-Apotheke,Turmfalkenstraße 25,13505,52.5846771,13.2289448,12400616
7887845846,Apotheke im Ring-Center II,Frankfurter Allee 113-117,10365,52.5145499,13.4757696,02500729
7924001320,Cäcilien Apotheke,Holtzendorffstraße 16,14057,52.505317,13.295222,04300416
7951875987,Fürst Bismarck Apotheke,Wrangelstraße 47,10997,52.4990942,13.4404067,02300419
8073935495,Apotheke am Mädchenviertel,Schönfließer Straße 25G,16540,52.6660189,13.2963746,0
8139335201,Löwenzahn Apotheke,Louis-Lewin-Straße 99,12627,52.536995,13.6204854,10200524
8463977955,Löwenzahn-Apotheke,Ribnitzer Straße 24,13051,52.5702396,13.4954864,11100308
8464152653,Känguruh-Apotheke,Wittenberger Straße 72,12689,52.5646969,13.5711546,10100103
8464152657,Atrium-Apotheke,,,52.5684906,13.5686949,10100103
8668129617,Rialto,Prenzlauer Allee 146,,52.5487826,13.4286319,03601244
8761696565,Zehlendorf Apotheke,Teltower Damm 19,14169,52.4330755,13.2597431,06300526
8766295040,Löwen-Apotheke,Miersdorfer Chaussee 13A,15738,52.3489865,13.625658,0
8836934513,Bären-Apotheke,Zepernicker Chaussee 9,16321,52.6746826,13.5735977,0
9048798363,easyApotheke,Karl-Marx-Straße 66,12043,52.4818918,13.4318468,08100206
9270238929,Löwen Apotheke Falkensee,Bahnhofstraße 48,14612,52.5626437,13.0954993,0
9426545172,Teltow Apotheke,,,52.4036797,13.2489551,0
9665677325,Pelikan Discount Apotheke,Tempelhofer Damm 126,12099,52.4682465,13.3852028,07400824
9705828231,Grüne Apotheke Schmargendorf,"Berkaer Straße 41,42",14199,52.4764885,13.2887772,04400830
9799003817,Bromelia Apotheke,Märkische Allee 172,12681,52.5340933,13.5380235,10100312
9818005937,Apotheke Heerstraße-Nord,,,52.521879,13.1620771,05200526
9861117952,Panda-Apotheke,Marienfelder Chaussee 160,12349,52.4153134,13.4030883,08200831
9901787917,Apotheke am Kutschi,Ollenhauerstraße 3-5,13403,52.5642372,13.3284535,12200309
10018043153,City Apotheke,Pauline-Staegemann-Straße 2-4,10249,52.525689,13.4222821,02400520
10033057617,Buchholzer Apotheke,Hauptstraße 14,13127,52.6052569,13.4323738,03200310
10109657661,Prager Apotheke,,10779,52.4938498,13.3326554,04501152
10658455542,+1 Apotheke,Brunnenstraße 64,13355,52.540412,13.3948502,01300834
10717290064,Weissenseer Apotheke,Schönstraße 7,,52.5536278,13.4507454,03500933
10804876421,,,,52.4411922,13.6889974,09501838
10982679274,easy Apotheke,,,52.5992401,13.3549158,12601134
10983944860,Großkreuz-Apotheke,,,52.597978,13.3557529,12601134
10983962574,Äskulap-Apotheke,,,52.597539,13.3557984,12601134
11078666918,Friedrichsberg-Apotheke,Schulze-Boysen-Straße 35,10365,52.5082273,13.4798799,11300826
11260371583,Alt Marzahner Apotheke,Allee der Kosmonauten 198,,52.5416626,13.5641461,10100315
11302270331,Sonnen Apotheke,Potsdamer Straße 48,14513,52.4021935,13.2569977,0
11418681907,Brücken Apotheke,Allee der Kosmonauten 47,12681,52.5261333,13.5341455,10100311
11589912368,Kienberg-Apotheke,Suhler Straße 35-37,12629,52.5372498,13.5885574,10200420
11778497232,Oskar Ziethen Apotheke,Frankfurter Allee 231 A,10365,52.5127599,13.4962174,11300725
11811875867,Wuhletal Apotheke,,,52.5281227,13.5699477,10300732
12141688889,Apotheke in den Hallen am Borsigturm,Am Borsigturm 2,13507,52.583964,13.2865008,12200515
12172572000,,,,52.4740414,13.7141987,0
12277590806,Apotheke am Lichtenrader Damm,,,52.4096484,13.4042874,07601442
12591160368,metropolitan pharmacy,,,52.3639587,13.5093789,0
12872855271,Apotheke zum Stift,Mariendorfer Damm 189A,,52.4349255,13.3899504,07501133
13180257032,Metropolitan Pharmacy,Melli-Beese-Ring 1,12529,52.3643802,13.5080256,0
13362230689,Flieder-Apotheke,Wendenschloßstraße 254,12557,52.4315461,13.5830413,09401329
13483929851,,,,52.5499544,13.3902549,01300733
13504120897,,,,52.6311444,13.5115575,03100102
