{"version": 0.6, "generator": "Overpass API 0.7.62.8 e802775f", "osm3s": {"timestamp_osm_base": "2025-08-20T14:19:30Z", "copyright": "The data included in this document is from www.openstreetmap.org. The data is made available under ODbL."}, "elements": [{"type": "node", "id": 21538161, "lat": 52.6116707, "lon": 13.3174434, "tags": {"bench": "no", "bin": "yes", "bus": "yes", "highway": "bus_stop", "lit": "yes", "name": "Zehntwerderweg", "public_transport": "stop_position", "ref:BVG": "100425", "shelter": "no", "tactile_paving": "no", "website": "https://qr.bvg.de/h100425"}}, {"type": "node", "id": 26984675, "lat": 52.5933339, "lon": 13.2811035, "tags": {"bench": "yes", "bin": "yes", "bus": "yes", "highway": "bus_stop", "lit": "yes", "name": "An der Mühle", "network": "Verkehrsverbund Berlin-Brandenburg", "network:short": "VBB", "network:wikidata": "Q315451", "operator": "Berliner Verkehrsbetriebe", "operator:short": "BVG", "operator:wikidata": "Q99633", "public_transport": "stop_position", "ref:BVG": "103386", "shelter": "yes", "tactile_paving": "no", "website": "https://qr.bvg.de/h103386"}}, {"type": "node", "id": 27239370, "lat": 52.5238455, "lon": 13.1449355, "tags": {"bench": "no", "bin": "no", "bus": "yes", "highway": "bus_stop", "lit": "yes", "name": "Hahneberg", "public_transport": "stop_position", "ref:BVG": "100548", "shelter": "no", "tactile_paving": "no", "website": "https://qr.bvg.de/h100548", "wheelchair": "yes"}}, {"type": "node", "id": 27245242, "lat": 52.5185656, "lon": 13.1114228, "tags": {"bench": "no", "bin": "no", "bus": "yes", "highway": "bus_stop", "lit": "no", "name": "Seeburger Chaussee", "public_transport": "stop_position", "ref_name": "Seeburg Seeburger Chaussee, Dallgow-Döberitz", "shelter": "no", "tactile_paving": "no"}}, {"type": "node", "id": 27245246, "lat": 52.5190776, "lon": 13.1109487, "tags": {"bench": "no", "bin": "no", "bus": "yes", "highway": "bus_stop", "lit": "no", "name": "Seeburger Chaussee", "public_transport": "stop_position", "ref_name": "Seeburg Seeburger Chaussee, Dallgow-Döberitz", "shelter": "no", "tactile_paving": "no"}}, {"type": "node", "id": 27586338, "lat": 52.5277896, "lon": 13.2319169, "tags": {"bench": "yes", "bin": "yes", "bus": "yes", "highway": "bus_stop", "lit": "yes", "name": "Krematorium Ruhleben", "public_transport": "stop_position", "ref:BVG": "101590", "shelter": "yes", "tactile_paving": "no", "website": "https://qr.bvg.de/h101590"}}, {"type": "node", "id": 27586412, "lat": 52.5283572, "lon": 13.2203842, "tags": {"bench": "yes", "bin": "yes", "bus": "yes", "highway": "bus_stop", "lit": "yes", "name": "Güterbahnhof Ruhleben", "public_transport": "stop_position", "ref:BVG": "101592", "shelter": "yes", "tactile_paving": "no", "website": "https://qr.bvg.de/h101592", "wheelchair": "yes"}}, {"type": "node", "id": 27586437, "lat": 52.5269165, "lon": 13.2151478, "tags": {"bench": "yes", "bin": "yes", "bus": "yes", "highway": "bus_stop", "lit": "no", "name": "Teltower Straße", "public_transport": "stop_position", "ref:BVG": "101593", "shelter": "yes", "tactile_paving": "yes", "website": "https://qr.bvg.de/h101593", "wheelchair": "yes"}}, {"type": "node", "id": 27587012, "lat": 52.5165172, "lon": 13.2491345, "tags": {"bench": "no", "bin": "no", "bus": "yes", "highway": "bus_stop", "lit": "yes", "name": "U Olympia-Stadion", "public_transport": "stop_position", "shelter": "no", "tactile_paving": "no"}}, {"type": "node", "id": 27587988, "lat": 52.528768, "lon": 13.2386931, "tags": {"bus": "yes", "highway": "bus_stop", "name": "Werkring", "public_transport": "stop_position", "ref:BVG": "102937", "website": "https://qr.bvg.de/h102937"}}, {"type": "node", "id": 28472308, "lat": 52.5211506, "lon": 13.1893617, "tags": {"bench": "yes", "bin": "yes", "bus": "yes", "highway": "bus_stop", "lit": "yes", "name": "Melanchthonplatz", "public_transport": "stop_position", "ref:BVG": "102997", "shelter": "yes", "tactile_paving": "no", "website": "https://qr.bvg.de/h102997"}}, {"type": "node", "id": 29421304, "lat": 52.5795436, "lon": 13.4827218, "tags": {"bench": "yes", "bin": "yes", "bus": "yes", "highway": "bus_stop", "lit": "yes", "name": "Malchow/Dorfstraße", "public_transport": "stop_position", "ref:BVG": "105533", "shelter": "yes", "tactile_paving": "no", "website": "https://qr.bvg.de/h105533"}}, {"type": "node", "id": 29846059, "lat": 52.5087409, "lon": 13.1681286, "tags": {"bench": "no", "bin": "yes", "bus": "yes", "highway": "bus_stop", "name": "Karolinenhöhe", "passenger_information_display": "no", "public_transport": "stop_position", "ref:BVG": "102918", "shelter": "no", "website": "https://qr.bvg.de/h102918"}}, {"type": "node", "id": 29885038, "lat": 52.5448949, "lon": 13.5580183, "tags": {"bench": "yes", "bin": "yes", "bus": "yes", "highway": "bus_stop", "lit": "yes", "name": "Rebhuhnweg", "public_transport": "stop_position", "ref:BVG": "105295", "shelter": "yes", "source": "local knowledge", "tactile_paving": "no", "website": "https://qr.bvg.de/h105295"}}, {"type": "node", "id": 29885043, "lat": 52.5447064, "lon": 13.5619091, "tags": {"bench": "yes", "bin": "yes", "bus": "yes", "highway": "bus_stop", "lit": "yes", "name": "Hinter der Mühle", "public_transport": "stop_position", "ref:BVG": "105296", "shelter": "yes", "source": "local knowledge", "tactile_paving": "no", "website": "https://qr.bvg.de/h105296"}}, {"type": "node", "id": 29885055, "lat": 52.5450337, "lon": 13.5577336, "tags": {"bench": "yes", "bin": "yes", "bus": "yes", "highway": "bus_stop", "lit": "yes", "name": "Rebhuhnweg", "public_transport": "stop_position", "ref:BVG": "105337", "shelter": "yes", "source": "local knowledge", "tactile_paving": "no", "website": "https://qr.bvg.de/h105337"}}, {"type": "node", "id": 29885059, "lat": 52.5448737, "lon": 13.5618724, "tags": {"bench": "yes", "bin": "yes", "bus": "yes", "highway": "bus_stop", "lit": "yes", "name": "Hinter der Mühle", "public_transport": "stop_position", "ref:BVG": "105336", "shelter": "yes", "source": "local knowledge", "tactile_paving": "no", "website": "https://qr.bvg.de/h105336"}}, {"type": "node", "id": 29885367, "lat": 52.5504208, "lon": 13.5492748, "tags": {"bench": "yes", "bin": "yes", "bus": "yes", "highway": "bus_stop", "lit": "yes", "name": "S Raoul-Wallenberg-Straße", "public_transport": "stop_position", "ref:BVG": "106332", "shelter": "yes", "tactile_paving": "yes", "website": "https://qr.bvg.de/h106332", "wheelchair": "yes"}}, {"type": "node", "id": 29916131, "lat": 52.560464, "lon": 13.5742267, "tags": {"bench": "yes", "bin": "yes", "bus": "yes", "highway": "bus_stop", "lit": "yes", "name": "Schwarzburger Straße", "public_transport": "stop_position", "ref:BVG": "106145", "shelter": "yes", "source": "local knowledge", "tactile_paving": "yes", "website": "https://qr.bvg.de/h106145"}}, {"type": "node", "id": 29918552, "lat": 52.5337469, "lon": 13.6075752, "tags": {"bench": "yes", "bin": "yes", "bus": "yes", "highway": "bus_stop", "lit": "yes", "name": "Nossener Straße", "public_transport": "stop_position", "ref:BVG": "107579", "shelter": "yes", "tactile_paving": "yes", "website": "https://qr.bvg.de/h107579"}}, {"type": "node", "id": 30010588, "lat": 52.6551938, "lon": 13.2847679, "tags": {"bench": "yes", "bin": "yes", "bus": "yes", "highway": "bus_stop", "name": "Invalidensiedlung", "public_transport": "stop_position", "ref:BVG": "103092", "shelter": "yes", "tactile_paving": "no", "website": "https://qr.bvg.de/h103092"}}, {"type": "node", "id": 30134871, "lat": 52.4188459, "lon": 13.2501119, "tags": {"bench": "yes", "bin": "yes", "check_date:shelter": "2024-05-16", "highway": "bus_stop", "lit": "yes", "name": "Ludwigsfelder Straße/Sachtlebenstraße", "shelter": "yes", "tactile_paving": "no", "wheelchair": "yes"}}, {"type": "node", "id": 30558144, "lat": 52.5921414, "lon": 13.4358007, "tags": {"bench": "no", "bin": "yes", "bus": "yes", "check_date": "2016-02-08", "highway": "bus_stop", "lit": "yes", "name": "Blankenburger Weg", "public_transport": "stop_position", "ref:BVG": "105328", "shelter": "no", "tactile_paving": "yes", "website": "https://qr.bvg.de/h105328"}}, {"type": "node", "id": 30624434, "lat": 52.5600396, "lon": 13.4665158, "tags": {"bench": "yes", "bin": "yes", "bus": "yes", "highway": "bus_stop", "lit": "yes", "name": "Rathaus Weißensee", "public_transport": "stop_position", "ref:BVG": "105397", "shelter": "yes", "tactile_paving": "no", "website": "https://qr.bvg.de/h105397"}}, {"type": "node", "id": 30625117, "lat": 52.5603643, "lon": 13.4762139, "tags": {"bench": "yes", "bin": "yes", "bus": "yes", "highway": "bus_stop", "lit": "yes", "name": "Piesporter Straße", "public_transport": "stop_position", "ref:BVG": "106423", "shelter": "yes", "tactile_paving": "no", "website": "https://qr.bvg.de/h106423"}}, {"type": "node", "id": 30625140, "lat": 52.559827, "lon": 13.4723633, "tags": {"bench": "yes", "bin": "yes", "bus": "yes", "highway": "bus_stop", "lit": "yes", "name": "Neumagener Straße", "public_transport": "stop_position", "ref:BVG": "105398", "shelter": "yes", "tactile_paving": "no", "website": "https://qr.bvg.de/h105398"}}, {"type": "node", "id": 30625200, "lat": 52.5599246, "lon": 13.4733376, "tags": {"bench": "yes", "bin": "no", "bus": "yes", "highway": "bus_stop", "lit": "yes", "name": "Neumagener Straße", "public_transport": "stop_position", "ref:BVG": "105348", "shelter": "yes", "tactile_paving": "no", "website": "https://qr.bvg.de/h105348"}}, {"type": "node", "id": 30690013, "lat": 52.5685897, "lon": 13.5195063, "tags": {"bench": "yes", "bin": "yes", "bus": "yes", "highway": "bus_stop", "lit": "yes", "name": "Prendener Straße", "public_transport": "stop_position", "ref:BVG": "105577", "shelter": "yes", "tactile_paving": "no", "website": "https://qr.bvg.de/h105577"}}, {"type": "node", "id": 30731740, "lat": 52.5320235, "lon": 13.399477, "tags": {"bench": "yes", "bin": "yes", "bus": "yes", "highway": "bus_stop", "lit": "yes", "name": "Brunnenstraße/Invalidenstraße", "public_transport": "platform", "shelter": "yes", "tactile_paving": "yes"}}, {"type": "node", "id": 30770321, "lat": 52.6194252, "lon": 13.2390957, "tags": {"bench": "yes", "bin": "no", "bus": "yes", "highway": "bus_stop", "lit": "yes", "name": "Kiefheider Weg", "public_transport": "stop_position", "ref:BVG": "101298", "shelter": "yes", "tactile_paving": "yes", "website": "https://qr.bvg.de/h101298"}}, {"type": "node", "id": 30775772, "lat": 52.5776966, "lon": 13.2775716, "tags": {"bench": "no", "bin": "yes", "bus": "yes", "highway": "bus_stop", "lit": "yes", "name": "Liesborner Weg", "public_transport": "stop_position", "ref:BVG": "100504", "shelter": "no", "tactile_paving": "no", "website": "https://qr.bvg.de/h100504"}}, {"type": "node", "id": 31367880, "lat": 52.5559625, "lon": 13.1427927, "tags": {"bench": "yes", "bin": "yes", "bus": "yes", "highway": "bus_stop", "lit": "yes", "name": "Siedlereck", "name:BVG": "Falkensee, Siedlereck", "passenger_information_display": "no", "public_transport": "stop_position", "ref:BVG": "107171", "ref_name": "Siedlereck, Falkensee", "route_ref": "337;652", "shelter": "yes", "tactile_paving": "yes", "website": "https://qr.bvg.de/h107171"}}, {"type": "node", "id": 31492302, "lat": 52.4239669, "lon": 13.6293626, "tags": {"bench": "yes", "bin": "yes", "highway": "bus_stop", "lit": "yes", "name": "Rübezahl", "shelter": "yes", "tactile_paving": "no"}}, {"type": "node", "id": 31532403, "lat": 52.4738933, "lon": 13.5702537, "tags": {"bench": "yes", "bin": "yes", "highway": "bus_stop", "lit": "yes", "name": "Hoppendorfer Straße", "shelter": "no", "tactile_paving": "no"}}, {"type": "node", "id": 31921330, "lat": 52.4619157, "lon": 13.1064329, "tags": {"bench": "yes", "bin": "yes", "bus": "yes", "highway": "bus_stop", "name": "Friedrich-Günther-Park", "public_transport": "stop_position", "shelter": "yes", "tactile_paving": "yes", "wheelchair": "yes"}}, {"type": "node", "id": 33210078, "lat": 52.5383587, "lon": 13.2006647, "tags": {"bench": "yes", "bin": "yes", "bus": "yes", "highway": "bus_stop", "lit": "yes", "name": "Moritzstraße", "public_transport": "stop_position", "ref:BVG": "101602", "shelter": "yes", "tactile_paving": "yes", "website": "https://qr.bvg.de/h101602", "wheelchair": "yes"}}, {"type": "node", "id": 33223341, "lat": 52.5442235, "lon": 13.1510277, "tags": {"bench": "yes", "bin": "yes", "bus": "yes", "highway": "bus_stop", "lit": "yes", "name": "Hackbuschstraße/Straße 603", "public_transport": "stop_position", "ref:BVG": "103257", "shelter": "yes", "tactile_paving": "yes", "website": "https://qr.bvg.de/h103257"}}, {"type": "node", "id": 33236598, "lat": 52.5353487, "lon": 13.1371995, "tags": {"bench": "no", "bin": "yes", "bus": "yes", "check_date:shelter": "2022-09-11", "highway": "bus_stop", "lit": "yes", "name": "Staakener Feldstraße", "passenger_information_display": "no", "public_transport": "stop_position", "ref:BVG": "105755", "ref_name": "Staakener Feldstr., Berlin", "shelter": "no", "tactile_paving": "no", "website": "https://qr.bvg.de/h105755"}}, {"type": "node", "id": 33484097, "lat": 52.5443395, "lon": 13.2461609, "tags": {"bench": "yes", "bin": "yes", "bus": "yes", "highway": "bus_stop", "lit": "yes", "name": "Paulsternstraße/Gartenfelder Straße", "public_transport": "stop_position", "ref:BVG": "103723", "shelter": "yes", "tactile_paving": "no", "website": "https://qr.bvg.de/h103723"}}, {"type": "node", "id": 33553106, "lat": 52.5405285, "lon": 13.1325344, "tags": {"bench": "yes", "bin": "yes", "bus": "yes", "highway": "bus_stop", "lit": "yes", "name": "Fachinger Straße", "passenger_information_display": "no", "public_transport": "stop_position", "ref:BVG": "106408", "shelter": "yes", "tactile_paving": "no", "website": "https://qr.bvg.de/h106408"}}, {"type": "node", "id": 33787111, "lat": 52.6026216, "lon": 13.2099542, "tags": {"bus": "yes", "highway": "bus_stop", "name": "Sandhauser Brücke", "public_transport": "stop_position", "ref:BVG": "102982", "website": "https://qr.bvg.de/h102982"}}, {"type": "node", "id": 34781673, "lat": 52.533961, "lon": 13.2066873, "tags": {"bench": "yes", "bin": "yes", "bus": "yes", "highway": "bus_stop", "lit": "yes", "name": "Stresowplatz", "public_transport": "stop_position", "ref:BVG": "103754", "shelter": "yes", "tactile_paving": "no", "website": "https://qr.bvg.de/h103754"}}, {"type": "node", "id": 34781734, "lat": 52.5326209, "lon": 13.2091126, "tags": {"bench": "yes", "bin": "yes", "bus": "yes", "highway": "bus_stop", "lit": "yes", "name": "S Stresow", "public_transport": "stop_position", "ref:BVG": "103752", "shelter": "yes", "tactile_paving": "no", "website": "https://qr.bvg.de/h103752"}}, {"type": "node", "id": 34782032, "lat": 52.5323793, "lon": 13.2089448, "tags": {"bench": "no", "bin": "yes", "bus": "yes", "highway": "bus_stop", "lit": "yes", "name": "S Stresow", "name:BVG": "S Stresow [Vorplatz]", "public_transport": "stop_position", "ref:BVG": "103771", "shelter": "no", "tactile_paving": "no", "website": "https://qr.bvg.de/h103771"}}, {"type": "node", "id": 34782033, "lat": 52.532486, "lon": 13.2087301, "tags": {"bench": "no", "bin": "no", "bus": "yes", "highway": "bus_stop", "lit": "yes", "name": "S Stresow", "name:BVG": "S Stresow [Vorplatz]", "public_transport": "stop_position", "ref:BVG": "103751", "shelter": "no", "tactile_paving": "no", "website": "https://qr.bvg.de/h103751"}}, {"type": "node", "id": 35249556, "lat": 52.6310434, "lon": 13.2074237, "tags": {"bus": "yes", "highway": "bus_stop", "name": "Am Rathenaupark", "public_transport": "stop_position", "route_ref": "651", "shelter": "no"}}, {"type": "node", "id": 35249557, "lat": 52.6313072, "lon": 13.2073036, "tags": {"bus": "yes", "highway": "bus_stop", "name": "Am Rathenaupark", "public_transport": "stop_position", "route_ref": "651", "shelter": "no"}}, {"type": "node", "id": 35250221, "lat": 52.597081, "lon": 13.2015899, "tags": {"bench": "yes", "bin": "yes", "bus": "yes", "highway": "bus_stop", "name": "Spandauer Landstraße", "name:BVG": "Papenberge, Spandauer Landstraße", "passenger_information_display": "no", "public_transport": "stop_position", "ref:BVG": "107401", "shelter": "yes", "tactile_paving": "yes", "website": "https://qr.bvg.de/h107401"}}, {"type": "node", "id": 38063823, "lat": 52.3605456, "lon": 13.1124716, "tags": {"highway": "bus_stop", "name": "Drewitzer Straße/Am Buchhorst"}}, {"type": "node", "id": 48911444, "lat": 52.6306803, "lon": 13.3061657, "tags": {"bench": "no", "bin": "yes", "bus": "yes", "highway": "bus_stop", "name": "Fürstendamm", "public_transport": "stop_position", "ref:BVG": "none", "shelter": "no", "tactile_paving": "yes", "website": "https://fahrinfo.vbb.de/bin/stboard.exe/dn?start=yes&input=900092252"}}, {"type": "node", "id": 49829204, "lat": 52.6014049, "lon": 13.5191246, "tags": {"bench": "yes", "bin": "yes", "bus": "yes", "highway": "bus_stop", "lit": "no", "name": "Lindenberg (BAR), Dorf", "public_transport": "stop_position", "ref:BVG": "107469", "shelter": "yes", "source": "local knowledge", "tactile_paving": "no", "website": "https://qr.bvg.de/h107469"}}, {"type": "node", "id": 51595499, "lat": 52.5659497, "lon": 13.5791042, "tags": {"bench": "yes", "bin": "yes", "bus": "yes", "highway": "bus_stop", "lit": "yes", "name": "Rabensteiner Straße", "public_transport": "stop_position", "ref:BVG": "106143", "shelter": "yes", "source": "local knowledge", "tactile_paving": "no", "website": "https://qr.bvg.de/h106143", "wheelchair": "yes"}}, {"type": "node", "id": 51994959, "lat": 52.5145532, "lon": 13.5076501, "tags": {"bench": "yes", "bin": "yes", "highway": "bus_stop", "lit": "yes", "name": "Zentralfriedhof", "shelter": "yes", "tactile_paving": "no"}}, {"type": "node", "id": 73698849, "lat": 52.6417304, "lon": 13.5162949, "tags": {"bench": "no", "bus": "yes", "highway": "bus_stop", "lit": "no", "name": "Zepernicker Straße", "public_transport": "stop_position", "shelter": "no", "tactile_paving": "no"}}, {"type": "node", "id": 79593591, "lat": 52.5753443, "lon": 13.3056817, "tags": {"bench": "no", "bin": "yes", "highway": "bus_stop", "lit": "yes", "name": "Otisstraße/Quäkerstraße", "shelter": "no", "tactile_paving": "no"}}, {"type": "node", "id": 79594504, "lat": 52.5769229, "lon": 13.3073332, "tags": {"bench": "yes", "bin": "yes", "highway": "bus_stop", "lit": "yes", "name": "Otisstraße/Wittestraße", "shelter": "yes", "tactile_paving": "no"}}, {"type": "node", "id": 79595616, "lat": 52.5720694, "lon": 13.308858, "tags": {"bench": "yes", "bin": "yes", "highway": "bus_stop", "lit": "yes", "name": "Auguste-Viktoria-Allee/Quäkerstraße", "shelter": "yes", "tactile_paving": "no"}}, {"type": "node", "id": 79597771, "lat": 52.5666141, "lon": 13.3170693, "tags": {"bench": "yes", "bin": "yes", "highway": "bus_stop", "lit": "yes", "name": "Uranusweg", "shelter": "yes", "tactile_paving": "no"}}, {"type": "node", "id": 79599789, "lat": 52.5715952, "lon": 13.3115873, "tags": {"bench": "yes", "bin": "yes", "highway": "bus_stop", "lit": "yes", "name": "Eichborndamm/Antonienstraße", "shelter": "yes", "tactile_paving": "no"}}, {"type": "node", "id": 92332110, "lat": 52.5750263, "lon": 13.313109, "tags": {"bench": "yes", "bin": "yes", "highway": "bus_stop", "lit": "yes", "name": "Kienhorststraße", "shelter": "no", "tactile_paving": "no"}}, {"type": "node", "id": 92333037, "lat": 52.5744835, "lon": 13.3144357, "tags": {"bench": "no", "bin": "yes", "check_date:shelter": "2022-06-01", "highway": "bus_stop", "lit": "no", "name": "Kienhorststraße", "shelter": "no", "tactile_paving": "no"}}, {"type": "node", "id": 132092492, "lat": 52.4353784, "lon": 13.2894251, "tags": {"bench": "yes", "bin": "yes", "bus": "yes", "highway": "bus_stop", "lit": "yes", "name": "Köhlerstraße", "operator": "Berliner Verkehrsbetriebe", "shelter": "yes", "tactile_paving": "yes"}}, {"type": "node", "id": 132095890, "lat": 52.4369525, "lon": 13.293536, "tags": {"bench": "yes", "bin": "yes", "bus": "yes", "highway": "bus_stop", "lit": "yes", "name": "Johanneskirchplatz", "operator": "Berliner Verkehrsbetriebe", "shelter": "yes", "tactile_paving": "yes"}}, {"type": "node", "id": 132096981, "lat": 52.4376344, "lon": 13.2951877, "tags": {"bench": "yes", "bin": "yes", "bus": "yes", "highway": "bus_stop", "lit": "yes", "name": "Baseler Straße", "operator": "Berliner Verkehrsbetriebe", "shelter": "yes", "tactile_paving": "no"}}, {"type": "node", "id": 140083405, "lat": 52.5370958, "lon": 13.1421302, "tags": {"bench": "yes", "bin": "yes", "bus": "yes", "highway": "bus_stop", "lit": "yes", "name": "Bahnhof Staaken", "public_transport": "stop_position", "ref:BVG": "103037", "shelter": "yes", "tactile_paving": "no", "website": "https://qr.bvg.de/h103037"}}, {"type": "node", "id": 165736690, "lat": 52.5847049, "lon": 13.4611864, "tags": {"bench": "yes", "bin": "yes", "bus": "yes", "highway": "bus_stop", "lit": "yes", "name": "Mörderberg", "public_transport": "stop_position", "ref:BVG": "107020", "shelter": "yes", "tactile_paving": "no", "website": "https://qr.bvg.de/h107020"}}, {"type": "node", "id": 174857525, "lat": 52.630681, "lon": 13.2836604, "tags": {"bench": "yes", "bin": "yes", "bus": "yes", "highway": "bus_stop", "lit": "yes", "name": "An der Buche", "public_transport": "stop_position", "ref:BVG": "100439", "shelter": "yes", "tactile_paving": "no", "website": "https://qr.bvg.de/h100439", "wheelchair": "yes"}}, {"type": "node", "id": 175149811, "lat": 52.6340456, "lon": 13.2740846, "tags": {"bench": "yes", "bus": "yes", "highway": "bus_stop", "lit": "yes", "name": "Hainbuchenstraße", "public_transport": "stop_position", "ref:BVG": "103671", "website": "https://qr.bvg.de/h103671"}}, {"type": "node", "id": 194497030, "lat": 52.5842422, "lon": 13.2073708, "tags": {"bench": "no", "bin": "no", "bus": "yes", "highway": "bus_stop", "lit": "no", "name": "Bürgerablage", "passenger_information_display": "no", "public_transport": "stop_position", "ref:BVG": "100979", "shelter": "no", "tactile_paving": "no", "website": "https://qr.bvg.de/h100979", "wheelchair": "yes"}}, {"type": "node", "id": 203590026, "lat": 52.5390169, "lon": 13.231516, "tags": {"bench": "yes", "bin": "yes", "bus": "yes", "check_date:shelter": "2023-09-29", "highway": "bus_stop", "lit": "yes", "name": "U Haselhorst", "public_transport": "stop_position", "ref:BVG": "103727", "shelter": "yes", "tactile_paving": "yes", "website": "https://qr.bvg.de/h103727"}}, {"type": "node", "id": 205064297, "lat": 52.4273398, "lon": 13.364523, "tags": {"bench": "no", "bin": "yes", "highway": "bus_stop", "lit": "yes", "name": "Preysingstraße", "shelter": "no", "tactile_paving": "no"}}, {"type": "node", "id": 213209586, "lat": 52.562968, "lon": 13.5040518, "tags": {"bench": "yes", "bin": "yes", "bus": "yes", "highway": "bus_stop", "lit": "yes", "name": "Prerower Platz", "public_transport": "stop_position", "ref:BVG": "105578", "shelter": "yes", "tactile_paving": "yes", "website": "https://qr.bvg.de/h105578", "wheelchair": "yes"}}, {"type": "node", "id": 213209907, "lat": 52.5635667, "lon": 13.5063415, "tags": {"bench": "yes", "bin": "yes", "bus": "yes", "highway": "bus_stop", "lit": "yes", "name": "Prerower Platz", "public_transport": "stop_position", "ref:BVG": "105284", "shelter": "yes", "tactile_paving": "no", "website": "https://qr.bvg.de/h105284"}}, {"type": "node", "id": 213227866, "lat": 52.5067239, "lon": 13.2280504, "tags": {"bench": "yes", "bin": "yes", "bus": "yes", "highway": "bus_stop", "lit": "yes", "name": "Scholzplatz", "public_transport": "stop_position", "ref:BVG": "103317", "shelter": "yes", "tactile_paving": "no", "website": "https://qr.bvg.de/h103317"}}, {"type": "node", "id": 213227885, "lat": 52.5068763, "lon": 13.2278306, "tags": {"bench": "yes", "bin": "yes", "bus": "yes", "highway": "bus_stop", "lit": "yes", "name": "Scholzplatz", "public_transport": "stop_position", "ref:BVG": "103305", "shelter": "yes", "tactile_paving": "no", "website": "https://qr.bvg.de/h103305"}}, {"type": "node", "id": 241456896, "lat": 52.5760974, "lon": 13.3324803, "tags": {"bench": "no", "bin": "yes", "check_date:shelter": "2022-12-26", "highway": "bus_stop", "lit": "no", "name": "Ollenhauerstraße/Lindauer Allee", "shelter": "no", "tactile_paving": "no"}}, {"type": "node", "id": 241457063, "lat": 52.5834056, "lon": 13.3204803, "tags": {"bench": "yes", "bin": "yes", "check_date:shelter": "2024-03-09", "highway": "bus_stop", "lit": "yes", "name": "Rotbuchenweg", "shelter": "yes", "tactile_paving": "no"}}, {"type": "node", "id": 243828433, "lat": 52.4724288, "lon": 13.4287713, "tags": {"bench": "yes", "bin": "yes", "bus": "yes", "check_date:shelter": "2024-09-08", "highway": "bus_stop", "lit": "yes", "name": "U Leinestraße", "shelter": "yes", "tactile_paving": "no"}}, {"type": "node", "id": 245235823, "lat": 52.5888328, "lon": 13.3249965, "tags": {"bench": "yes", "bin": "yes", "check_date:shelter": "2023-08-12", "highway": "bus_stop", "lit": "yes", "name": "U Rathaus Reinickendorf", "shelter": "yes", "tactile_paving": "yes"}}, {"type": "node", "id": 245266225, "lat": 52.5752855, "lon": 13.3476073, "tags": {"bench": "yes", "bin": "yes", "highway": "bus_stop", "lit": "yes", "name": "U Paracelsus-Bad", "shelter": "yes", "tactile_paving": "no"}}, {"type": "node", "id": 245266719, "lat": 52.5745686, "lon": 13.3470724, "tags": {"bench": "yes", "bin": "yes", "check_date:shelter": "2023-08-14", "highway": "bus_stop", "lit": "yes", "name": "U Paracelsus-Bad", "shelter": "yes", "tactile_paving": "no"}}, {"type": "node", "id": 247078379, "lat": 52.4943917, "lon": 13.199403, "tags": {"bench": "yes", "bin": "no", "bus": "yes", "highway": "bus_stop", "lit": "yes", "name": "Schildhorn", "public_transport": "stop_position", "ref:BVG": "101654", "shelter": "yes", "tactile_paving": "no", "website": "https://qr.bvg.de/h101654"}}, {"type": "node", "id": 247078386, "lat": 52.4947304, "lon": 13.1995008, "tags": {"bench": "yes", "bin": "no", "bus": "yes", "highway": "bus_stop", "lit": "yes", "name": "Schildhorn", "public_transport": "stop_position", "ref:BVG": "100850", "shelter": "yes", "tactile_paving": "no", "website": "https://qr.bvg.de/h100850"}}, {"type": "node", "id": 247558961, "lat": 52.5752418, "lon": 13.3378385, "tags": {"bench": "yes", "bin": "yes", "bus": "yes", "highway": "bus_stop", "lit": "yes", "name": "U Lindauer Allee", "shelter": "yes", "tactile_paving": "no"}}, {"type": "node", "id": 247560407, "lat": 52.5793491, "lon": 13.3334673, "tags": {"bench": "yes", "bin": "yes", "highway": "bus_stop", "lit": "yes", "name": "S+U Karl-Bonhoeffer-Nervenklinik", "shelter": "yes", "tactile_paving": "no"}}, {"type": "node", "id": 247650295, "lat": 52.567069, "lon": 13.2100829, "tags": {"bench": "yes", "bin": "yes", "bus": "yes", "highway": "bus_stop", "lit": "yes", "name": "Werderstraße", "public_transport": "stop_position", "ref:BVG": "103670", "shelter": "yes", "tactile_paving": "no", "website": "https://qr.bvg.de/h103670"}}, {"type": "node", "id": 247689052, "lat": 52.4648546, "lon": 13.6987705, "tags": {"bench": "yes", "bin": "yes", "bus": "yes", "highway": "bus_stop", "lit": "yes", "name": "Schöneiche (bei Berlin), Lübecker Straße", "name:BVG": "Schöneiche (bei Berlin), Lübecker Straße", "passenger_information_display": "no", "public_transport": "stop_position", "ref:BVG": "105694", "route_ref": "161;420", "shelter": "yes", "source": "local knowledge", "tactile_paving": "no", "website": "https://qr.bvg.de/h105694", "wheelchair": "yes"}}, {"type": "node", "id": 249202158, "lat": 52.5791133, "lon": 13.3088746, "tags": {"bench": "yes", "bin": "yes", "highway": "bus_stop", "lit": "yes", "name": "Innungsstraße", "shelter": "yes", "tactile_paving": "no"}}, {"type": "node", "id": 249202159, "lat": 52.5816081, "lon": 13.304856, "tags": {"bench": "no", "bin": "no", "bus": "yes", "highway": "bus_stop", "lit": "no", "name": "Holzhauser Straße/Schubartstraße", "shelter": "no", "tactile_paving": "no"}}, {"type": "node", "id": 249202160, "lat": 52.5841438, "lon": 13.3025046, "tags": {"bench": "yes", "bin": "yes", "bus": "yes", "highway": "bus_stop", "lit": "yes", "name": "Schubartstraße/Ernststraße", "shelter": "yes", "tactile_paving": "yes", "wheelchair": "yes"}}, {"type": "node", "id": 249358913, "lat": 52.5840938, "lon": 13.3096689, "tags": {"bench": "yes", "bin": "yes", "check_date:shelter": "2023-07-16", "highway": "bus_stop", "lit": "no", "name": "Miraustraße", "shelter": "yes", "tactile_paving": "yes"}}, {"type": "node", "id": 253168445, "lat": 52.5567641, "lon": 13.1488072, "tags": {"bench": "no", "bin": "no", "bus": "yes", "highway": "bus_stop", "lit": "yes", "name": "Goldkäferweg", "public_transport": "stop_position", "shelter": "no", "tactile_paving": "no"}}, {"type": "node", "id": 253168485, "lat": 52.5545554, "lon": 13.1494664, "tags": {"bench": "no", "bin": "yes", "bus": "yes", "highway": "bus_stop", "lit": "yes", "name": "Freudstraße", "public_transport": "stop_position", "ref:BVG": "103480", "shelter": "no", "tactile_paving": "no", "website": "https://qr.bvg.de/h103480"}}, {"type": "node", "id": 253168545, "lat": 52.5501115, "lon": 13.1527674, "tags": {"bench": "yes", "bin": "yes", "bus": "yes", "highway": "bus_stop", "lit": "yes", "name": "Hochhausweg", "public_transport": "stop_position", "ref:BVG": "103019", "shelter": "yes", "tactile_paving": "no", "website": "https://qr.bvg.de/h103019"}}, {"type": "node", "id": 253780465, "lat": 52.4913225, "lon": 13.6718673, "tags": {"bench": "yes", "bin": "yes", "bus": "yes", "highway": "bus_stop", "lit": "yes", "name": "Münchehofe", "public_transport": "stop_position", "ref:IFOPT": "de:12064:900320075::1", "ref_name": "Münchehofe (bei Dahlwitz-Hoppegarten), Münchehofe", "shelter": "yes", "tactile_paving": "yes"}}, {"type": "node", "id": 254500062, "lat": 52.5202353, "lon": 13.3555937, "tags": {"bench": "no", "bin": "yes", "highway": "bus_stop", "lit": "yes", "name": "Paulstraße", "shelter": "no", "tactile_paving": "no"}}, {"type": "node", "id": 254500065, "lat": 52.5267572, "lon": 13.3546769, "tags": {"bench": "yes", "bin": "yes", "bus": "yes", "highway": "bus_stop", "lit": "yes", "name": "Kriminalgericht Moabit", "shelter": "yes", "tactile_paving": "no", "wheelchair": "yes"}}, {"type": "node", "id": 259411078, "lat": 52.554439, "lon": 13.1482259, "tags": {"bench": "yes", "bin": "yes", "bus": "yes", "highway": "bus_stop", "lit": "yes", "name": "Freudstraße", "public_transport": "stop_position", "ref:BVG": "102619", "shelter": "yes", "tactile_paving": "no", "website": "https://qr.bvg.de/h102619"}}, {"type": "node", "id": 260589029, "lat": 52.5353118, "lon": 13.1243028, "tags": {"bench": "no", "bin": "yes", "bus": "yes", "highway": "bus_stop", "lit": "yes", "name": "Brunsbütteler Damm/Stadtgrenze", "passenger_information_display": "no", "public_transport": "stop_position", "ref:BVG": "105757", "ref_name": "Brunsbütteler Damm/Stadtgrenze, Berlin", "shelter": "no", "tactile_paving": "no", "website": "https://qr.bvg.de/h105757"}}, {"type": "node", "id": 261744064, "lat": 52.5271838, "lon": 13.3296429, "tags": {"bench": "yes", "bin": "yes", "highway": "bus_stop", "lit": "yes", "name": "Turmstraße/Beusselstraße", "note": "M27;TXL;123;106", "shelter": "yes", "tactile_paving": "yes", "wheelchair": "yes"}}, {"type": "node", "id": 261744735, "lat": 52.5279396, "lon": 13.3288063, "tags": {"bench": "yes", "bin": "yes", "highway": "bus_stop", "lit": "yes", "name": "Turmstraße/Beusselstraße", "shelter": "yes", "tactile_paving": "no", "wheelchair": "yes"}}, {"type": "node", "id": 261745103, "lat": 52.5238204, "lon": 13.3306983, "tags": {"bench": "yes", "bin": "yes", "highway": "bus_stop", "lit": "yes", "name": "Gotzkowskystraße", "shelter": "yes", "tactile_paving": "no", "wheelchair": "yes"}}, {"type": "node", "id": 261745174, "lat": 52.524059, "lon": 13.3309756, "tags": {"bench": "yes", "bin": "yes", "highway": "bus_stop", "lit": "yes", "name": "Gotzkowskystraße", "shelter": "yes", "tactile_paving": "no", "wheelchair": "yes"}}, {"type": "node", "id": 261745198, "lat": 52.5242043, "lon": 13.3299224, "tags": {"bench": "yes", "bin": "yes", "highway": "bus_stop", "lit": "yes", "name": "Alt-Moabit/Gotzkowskystraße", "route_ref": "101;106;N26", "shelter": "yes", "tactile_paving": "no", "wheelchair": "yes"}}, {"type": "node", "id": 262089093, "lat": 52.5138403, "lon": 13.622366, "tags": {"bench": "yes", "bin": "yes", "bus": "yes", "highway": "bus_stop", "lit": "yes", "name": "Menzelstraße", "public_transport": "stop_position", "ref:BVG": "106165", "shelter": "yes", "source": "local knowledge", "tactile_paving": "no", "website": "https://qr.bvg.de/h106165"}}, {"type": "node", "id": 262201609, "lat": 52.5816794, "lon": 13.52689, "tags": {"bench": "no", "bin": "no", "bus": "yes", "highway": "bus_stop", "lit": "yes", "name": "Siedlung Wartenberg/Straße 3", "public_transport": "stop_position", "ref:BVG": "106449", "shelter": "no", "tactile_paving": "no", "website": "https://qr.bvg.de/h106449"}}, {"type": "node", "id": 262201694, "lat": 52.5811404, "lon": 13.5297939, "tags": {"bench": "yes", "bin": "yes", "bus": "yes", "highway": "bus_stop", "lit": "yes", "name": "Siedlung Wartenberg/Straße 6", "public_transport": "stop_position", "ref:BVG": "106450", "shelter": "yes", "tactile_paving": "no", "website": "https://qr.bvg.de/h106450"}}, {"type": "node", "id": 264226500, "lat": 52.618699, "lon": 13.3073042, "tags": {"bench": "yes", "bin": "yes", "bus": "yes", "gtfs:stop_id": "de:11000:900093201::1", "highway": "bus_stop", "lit": "yes", "name": "S Hermsdorf", "public_transport": "stop_position", "shelter": "no", "tactile_paving": "no"}}, {"type": "node", "id": 267850654, "lat": 52.5241593, "lon": 13.3296893, "tags": {"bench": "yes", "bin": "yes", "highway": "bus_stop", "lit": "yes", "name": "Alt-Moabit/Gotzkowskystraße", "shelter": "yes", "tactile_paving": "no", "wheelchair": "yes"}}, {"type": "node", "id": 268223974, "lat": 52.5097428, "lon": 13.5245834, "tags": {"bench": "yes", "bin": "yes", "highway": "bus_stop", "lit": "yes", "shelter": "yes", "tactile_paving": "yes"}}, {"type": "node", "id": 268675697, "lat": 52.611468, "lon": 13.2171874, "tags": {"bench": "no", "bin": "yes", "bus": "yes", "highway": "bus_stop", "lit": "no", "name": "Heiligenseestraße/Hennigsdorfer Straße", "public_transport": "stop_position", "ref:BVG": "101821", "shelter": "no", "tactile_paving": "yes", "website": "https://qr.bvg.de/h101821"}}, {"type": "node", "id": 268834076, "lat": 52.6062804, "lon": 13.2114823, "tags": {"bus": "yes", "highway": "bus_stop", "name": "Alt-Heiligensee", "public_transport": "stop_position", "ref:BVG": "101954", "website": "https://qr.bvg.de/h101954"}}, {"type": "node", "id": 268834080, "lat": 52.6065757, "lon": 13.2118363, "tags": {"bench": "yes", "bin": "yes", "bus": "yes", "highway": "bus_stop", "lit": "yes", "name": "Alt-Heiligensee", "public_transport": "stop_position", "ref:BVG": "101781", "shelter": "yes", "tactile_paving": "no", "website": "https://qr.bvg.de/h101781"}}, {"type": "node", "id": 268835014, "lat": 52.6070104, "lon": 13.2110808, "tags": {"bus": "yes", "highway": "bus_stop", "name": "Alt-Heiligensee", "public_transport": "stop_position", "ref:BVG": "101973", "website": "https://qr.bvg.de/h101973"}}, {"type": "node", "id": 268837043, "lat": 52.6136874, "lon": 13.2462272, "tags": {"bench": "yes", "bin": "yes", "bus": "yes", "highway": "bus_stop", "lit": "yes", "name": "S Schulzendorf", "public_transport": "stop_position", "ref:BVG": "101264", "shelter": "yes", "tactile_paving": "no", "website": "https://qr.bvg.de/h101264"}}, {"type": "node", "id": 270737264, "lat": 52.5277778, "lon": 13.3244398, "tags": {"bench": "yes", "bin": "yes", "highway": "bus_stop", "lit": "yes", "name": "Reuchlinstraße", "note": "M27", "shelter": "yes", "tactile_paving": "yes"}}, {"type": "node", "id": 270737265, "lat": 52.5280234, "lon": 13.323368, "tags": {"bench": "yes", "bin": "yes", "highway": "bus_stop", "lit": "yes", "name": "Reuchlinstraße", "note": "M27", "shelter": "yes", "tactile_paving": "yes"}}, {"type": "node", "id": 270737268, "lat": 52.5284039, "lon": 13.3198757, "tags": {"bench": "yes", "bin": "yes", "highway": "bus_stop", "lit": "yes", "name": "Wiebestraße/Huttenstraße", "note": "M27", "shelter": "yes", "tactile_paving": "yes", "wheelchair": "yes"}}, {"type": "node", "id": 270737270, "lat": 52.5282134, "lon": 13.3201729, "tags": {"bench": "yes", "bin": "yes", "highway": "bus_stop", "lit": "yes", "name": "Wiebestraße/Huttenstraße", "note": "M27", "shelter": "yes", "tactile_paving": "yes", "wheelchair": "yes"}}, {"type": "node", "id": 270737272, "lat": 52.5295562, "lon": 13.3150835, "tags": {"bench": "yes", "bin": "yes", "highway": "bus_stop", "lit": "yes", "name": "Neues Ufer", "note": "M27", "shelter": "yes", "source": "survey", "tactile_paving": "yes", "wheelchair": "yes"}}, {"type": "node", "id": 270737274, "lat": 52.5290463, "lon": 13.316046, "tags": {"bench": "yes", "bin": "yes", "highway": "bus_stop", "lit": "yes", "name": "Neues Ufer", "note": "M27", "shelter": "yes", "source": "survey", "tactile_paving": "yes", "wheelchair": "yes"}}, {"type": "node", "id": 270792948, "lat": 52.5620134, "lon": 13.3596021, "tags": {"bench": "no", "bin": "no", "bus": "yes", "highway": "bus_stop", "lit": "no", "name": "Brienzer Straße", "operator": "Berliner Verkehrsbetriebe", "public_transport": "platform", "shelter": "no", "tactile_paving": "no", "wheelchair": "yes"}}, {"type": "node", "id": 271296143, "lat": 52.5209215, "lon": 13.4061585, "tags": {"bench": "yes", "bin": "yes", "bus": "yes", "check_date:shelter": "2023-12-24", "highway": "bus_stop", "lit": "yes", "name": "Spandauer Straße/Marienkirche", "public_transport": "platform", "shelter": "yes", "tactile_paving": "no"}}, {"type": "node", "id": 271411051, "lat": 52.4889363, "lon": 13.2596163, "tags": {"bench": "yes", "bin": "yes", "highway": "bus_stop", "lit": "yes", "name": "S Grunewald", "shelter": "yes", "tactile_paving": "no"}}, {"type": "node", "id": 271411052, "lat": 52.4917285, "lon": 13.263392, "tags": {"bench": "no", "bin": "no", "highway": "bus_stop", "lit": "no", "name": "Alte Allee", "shelter": "no", "tactile_paving": "no"}}, {"type": "node", "id": 271411053, "lat": 52.4919813, "lon": 13.2635363, "tags": {"bench": "no", "bin": "no", "highway": "bus_stop", "lit": "yes", "name": "Alte Allee", "shelter": "no", "tactile_paving": "no"}}, {"type": "node", "id": 271411054, "lat": 52.4932064, "lon": 13.265256, "tags": {"bench": "no", "bin": "yes", "highway": "bus_stop", "lit": "yes", "name": "Kiefernweg", "shelter": "no", "tactile_paving": "no"}}, {"type": "node", "id": 271411055, "lat": 52.4934897, "lon": 13.2654429, "tags": {"bench": "no", "bin": "no", "highway": "bus_stop", "lit": "no", "name": "Kiefernweg", "shelter": "no", "tactile_paving": "no"}}, {"type": "node", "id": 271411056, "lat": 52.4944279, "lon": 13.266798, "tags": {"bench": "no", "bin": "no", "highway": "bus_stop", "lit": "no", "name": "Maikäferpfad", "shelter": "no", "tactile_paving": "no"}}, {"type": "node", "id": 271411057, "lat": 52.4946289, "lon": 13.2668912, "tags": {"bench": "no", "bin": "no", "highway": "bus_stop", "lit": "no", "name": "Maikäferpfad", "shelter": "no", "tactile_paving": "no"}}, {"type": "node", "id": 271411059, "lat": 52.4969937, "lon": 13.2700806, "tags": {"bench": "no", "bin": "no", "highway": "bus_stop", "lit": "no", "name": "S Messe Süd", "shelter": "no", "tactile_paving": "no"}}, {"type": "node", "id": 271411060, "lat": 52.4996483, "lon": 13.2730752, "tags": {"bench": "yes", "bin": "yes", "bus": "yes", "highway": "bus_stop", "lit": "yes", "name": "Jafféstraße", "shelter": "yes", "tactile_paving": "no"}}, {"type": "node", "id": 271411061, "lat": 52.4996501, "lon": 13.2733828, "tags": {"bus": "yes", "highway": "bus_stop", "name": "Jafféstraße", "shelter": "no"}}, {"type": "node", "id": 271411062, "lat": 52.5011555, "lon": 13.2752838, "tags": {"bench": "yes", "bin": "yes", "bus": "yes", "highway": "bus_stop", "name": "Messegelände/Verwaltung", "shelter": "yes", "tactile_paving": "no"}}, {"type": "node", "id": 271411063, "lat": 52.5012328, "lon": 13.2750822, "tags": {"bench": "yes", "bin": "no", "bus": "yes", "highway": "bus_stop", "name": "Messegelände/Verwaltung", "shelter": "yes", "tactile_paving": "no"}}, {"type": "node", "id": 271411064, "lat": 52.5044754, "lon": 13.2797314, "tags": {"bench": "no", "bin": "yes", "highway": "bus_stop", "lit": "yes", "name": "Messegelände/ICC", "shelter": "no", "tactile_paving": "no"}}, {"type": "node", "id": 271411065, "lat": 52.5044802, "lon": 13.2792342, "tags": {"bench": "yes", "bin": "yes", "highway": "bus_stop", "lit": "yes", "name": "Messegelände/ICC", "shelter": "yes", "tactile_paving": "no"}}, {"type": "node", "id": 271419826, "lat": 52.5106339, "lon": 13.2815143, "tags": {"bench": "no", "bin": "yes", "highway": "bus_stop", "lit": "yes", "name": "U Kaiserdamm", "shelter": "no", "tactile_paving": "no", "wheelchair": "no"}}, {"type": "node", "id": 271419827, "lat": 52.5104436, "lon": 13.2819496, "tags": {"bench": "no", "bin": "yes", "highway": "bus_stop", "lit": "yes", "name": "U Kaiserdamm", "shelter": "no", "tactile_paving": "no", "wheelchair": "no"}}, {"type": "node", "id": 271419829, "lat": 52.5136938, "lon": 13.2965759, "tags": {"bench": "yes", "bin": "yes", "highway": "bus_stop", "lit": "yes", "name": "Zillestraße", "note": "309", "shelter": "yes", "tactile_paving": "no"}}, {"type": "node", "id": 271419830, "lat": 52.5128578, "lon": 13.2971509, "tags": {"bench": "yes", "bin": "yes", "highway": "bus_stop", "lit": "yes", "name": "Zillestraße", "note": "309", "shelter": "yes", "tactile_paving": "no"}}, {"type": "node", "id": 271419831, "lat": 52.5167307, "lon": 13.2966915, "tags": {"bench": "no", "bin": "yes", "bus": "yes", "highway": "bus_stop", "lit": "yes", "name": "Seelingstraße", "note": "309", "shelter": "no", "tactile_paving": "no"}}, {"type": "node", "id": 271419833, "lat": 52.5157314, "lon": 13.2962427, "tags": {"bench": "no", "bin": "yes", "highway": "bus_stop", "lit": "yes", "name": "Seelingstraße", "note": "309", "shelter": "no", "tactile_paving": "no"}}, {"type": "node", "id": 271419834, "lat": 52.5188255, "lon": 13.2963489, "tags": {"bench": "no", "bin": "yes", "bus": "yes", "highway": "bus_stop", "lit": "yes", "name": "Schloss Charlottenburg", "name:ja": "シャルロッテンブルク宮殿", "shelter": "no", "tactile_paving": "no"}}, {"type": "node", "id": 271419836, "lat": 52.5201579, "lon": 13.2996701, "tags": {"bench": "yes", "bin": "yes", "bus": "yes", "highway": "bus_stop", "lit": "yes", "name": "Luisenplatz/Schloss Charlottenburg", "shelter": "yes", "tactile_paving": "yes", "wheelchair": "yes"}}, {"type": "node", "id": 271419837, "lat": 52.5191609, "lon": 13.2995082, "tags": {"bench": "yes", "bin": "yes", "bus": "yes", "highway": "bus_stop", "lit": "yes", "name": "Luisenplatz/Schloss Charlottenburg", "note": "109", "shelter": "yes", "tactile_paving": "yes"}}, {"type": "node", "id": 271419838, "lat": 52.5257923, "lon": 13.3051131, "tags": {"bench": "no", "bin": "yes", "bus": "yes", "highway": "bus_stop", "lit": "yes", "name": "U Mierendorffplatz", "shelter": "no", "tactile_paving": "no"}}, {"type": "node", "id": 271419839, "lat": 52.5260178, "lon": 13.3059, "tags": {"bench": "no", "bin": "yes", "bus": "yes", "highway": "bus_stop", "lit": "yes", "name": "U Mierendorffplatz", "name:ja": "U ミーレンドルフプラッツ", "shelter": "no", "tactile_paving": "no"}}, {"type": "node", "id": 271419841, "lat": 52.5256566, "lon": 13.3094876, "tags": {"bench": "yes", "bin": "yes", "highway": "bus_stop", "lit": "yes", "name": "Ilsenburger Straße", "note": "M27", "shelter": "yes", "tactile_paving": "no"}}, {"type": "node", "id": 271419842, "lat": 52.5258343, "lon": 13.310306, "tags": {"bench": "no", "bin": "yes", "highway": "bus_stop", "lit": "yes", "name": "Ilsenburger Straße", "note": "M27", "shelter": "no", "tactile_paving": "no"}}, {"type": "node", "id": 271419843, "lat": 52.5258442, "lon": 13.314219, "tags": {"bench": "yes", "bin": "yes", "bus": "yes", "check_date:shelter": "2023-12-07", "departures_board": "timetable", "highway": "bus_stop", "lit": "yes", "name": "Goslarer Platz", "note": "M27", "operator": "BVG", "shelter": "yes", "tactile_paving": "no", "wheelchair": "yes"}}, {"type": "node", "id": 271419844, "lat": 52.5256956, "lon": 13.3142951, "tags": {"bench": "yes", "bin": "yes", "bus": "yes", "check_date:shelter": "2023-12-07", "departures_board": "timetable", "highway": "bus_stop", "lit": "yes", "name": "Goslarer Platz", "note": "M27", "operator": "BVG", "shelter": "yes", "tactile_paving": "no", "wheelchair": "yes"}}, {"type": "node", "id": 271878787, "lat": 52.4580086, "lon": 13.2998613, "tags": {"bench": "no", "bin": "yes", "bus": "yes", "highway": "bus_stop", "lit": "yes", "name": "Arnimallee", "shelter": "no", "tactile_paving": "no"}}, {"type": "node", "id": 271878802, "lat": 52.4577951, "lon": 13.2993127, "tags": {"bench": "yes", "bin": "yes", "bus": "yes", "highway": "bus_stop", "lit": "yes", "name": "Arnimallee", "shelter": "yes", "tactile_paving": "no"}}, {"type": "node", "id": 271977443, "lat": 52.5282797, "lon": 13.3050058, "tags": {"bench": "yes", "bin": "yes", "bus": "yes", "highway": "bus_stop", "lit": "yes", "name": "Keplerstraße", "shelter": "no", "tactile_paving": "no"}}, {"type": "node", "id": 271977445, "lat": 52.5294624, "lon": 13.3006208, "tags": {"bench": "no", "bin": "yes", "bus": "yes", "highway": "bus_stop", "lit": "no", "name": "S+U Jungfernheide", "name:ja": "S+U ユングフェルンハイデ", "shelter": "no", "tactile_paving": "no"}}, {"type": "node", "id": 272364542, "lat": 52.5176705, "lon": 13.3765218, "tags": {"bench": "yes", "bin": "yes", "check_date:shelter": "2025-08-01", "highway": "bus_stop", "lit": "yes", "name": "Reichstag/Bundestag", "shelter": "yes", "tactile_paving": "yes", "wheelchair": "yes"}}, {"type": "node", "id": 272409455, "lat": 52.5168441, "lon": 13.3896531, "tags": {"bench": "yes", "bin": "yes", "bus": "yes", "highway": "bus_stop", "lit": "yes", "name": "U Unter den Linden", "name:ja": "U ウンター・デン・リンデン", "public_transport": "platform", "shelter": "yes", "tactile_paving": "yes"}}, {"type": "node", "id": 272418457, "lat": 52.5075478, "lon": 13.3487971, "tags": {"bench": "yes", "bin": "yes", "highway": "bus_stop", "lit": "yes", "name": "Corneliusbrücke", "shelter": "yes", "tactile_paving": "no"}}, {"type": "node", "id": 272418849, "lat": 52.5076011, "lon": 13.3484038, "tags": {"bench": "yes", "bin": "yes", "highway": "bus_stop", "lit": "yes", "name": "Corneliusbrücke", "shelter": "yes", "tactile_paving": "no"}}, {"type": "node", "id": 272436770, "lat": 52.5095469, "lon": 13.3785442, "tags": {"bench": "yes", "bin": "yes", "bus": "yes", "highway": "bus_stop", "lit": "yes", "name": "S+U Potsdamer Platz", "public_transport": "platform", "shelter": "yes", "tactile_paving": "yes", "wheelchair": "yes"}}, {"type": "node", "id": 272437495, "lat": 52.5097063, "lon": 13.378099, "tags": {"bench": "yes", "bin": "yes", "bus": "yes", "highway": "bus_stop", "lit": "yes", "name": "S+U Potsdamer Platz", "public_transport": "platform", "shelter": "yes", "tactile_paving": "yes", "wheelchair": "yes"}}, {"type": "node", "id": 273176511, "lat": 52.5028753, "lon": 13.3490711, "tags": {"bench": "yes", "bin": "yes", "highway": "bus_stop", "lit": "yes", "name": "Schillstraße", "shelter": "yes", "tactile_paving": "no"}}, {"type": "node", "id": 273176591, "lat": 52.5027486, "lon": 13.3499726, "tags": {"bench": "yes", "bin": "yes", "highway": "bus_stop", "lit": "yes", "name": "Schillstraße", "shelter": "yes", "tactile_paving": "no", "wheelchair": "yes"}}, {"type": "node", "id": 273819998, "lat": 52.4621056, "lon": 13.3391804, "tags": {"bench": "yes", "bin": "yes", "highway": "bus_stop", "lit": "yes", "name": "Lauenburger Platz", "shelter": "yes", "tactile_paving": "no", "wheelchair": "yes"}}, {"type": "node", "id": 273829784, "lat": 52.4614881, "lon": 13.3394208, "tags": {"bench": "yes", "bin": "yes", "highway": "bus_stop", "lit": "yes", "name": "Lauenburger Platz", "shelter": "yes", "tactile_paving": "no"}}, {"type": "node", "id": 273830299, "lat": 52.4614806, "lon": 13.3451502, "tags": {"bench": "no", "bin": "yes", "highway": "bus_stop", "lit": "yes", "name": "Auguste-Viktoria-Klinikum Süd", "shelter": "no", "tactile_paving": "no"}}, {"type": "node", "id": 273831234, "lat": 52.4641741, "lon": 13.339052, "tags": {"bench": "yes", "bin": "yes", "highway": "bus_stop", "lit": "yes", "name": "Knausplatz", "shelter": "yes", "tactile_paving": "no"}}, {"type": "node", "id": 273831440, "lat": 52.4646077, "lon": 13.3394034, "tags": {"bench": "yes", "bin": "yes", "highway": "bus_stop", "lit": "yes", "name": "Knausplatz", "shelter": "yes", "tactile_paving": "no"}}, {"type": "node", "id": 273831924, "lat": 52.4644347, "lon": 13.3385517, "tags": {"bench": "yes", "bin": "yes", "highway": "bus_stop", "lit": "yes", "name": "Knausplatz", "shelter": "no", "tactile_paving": "yes"}}, {"type": "node", "id": 274109535, "lat": 52.4794912, "lon": 13.3608141, "tags": {"bench": "yes", "bin": "no", "bus": "yes", "highway": "bus_stop", "lit": "yes", "name": "Torgauer Straße", "shelter": "yes", "tactile_paving": "yes"}}, {"type": "node", "id": 274109536, "lat": 52.4791884, "lon": 13.3620193, "tags": {"bench": "no", "bin": "yes", "bus": "yes", "highway": "bus_stop", "lit": "yes", "name": "Torgauer Straße", "shelter": "no", "tactile_paving": "no"}}, {"type": "node", "id": 274113448, "lat": 52.4812324, "lon": 13.3614862, "tags": {"bench": "no", "bin": "no", "bus": "yes", "highway": "bus_stop", "lit": "no", "name": "Leuthener Straße", "shelter": "no", "tactile_paving": "no"}}, {"type": "node", "id": 274113454, "lat": 52.4834342, "lon": 13.3615311, "tags": {"bench": "no", "bin": "no", "bus": "yes", "highway": "bus_stop", "lit": "yes", "name": "Gustav-Müller-Platz", "shelter": "no", "tactile_paving": "no"}}, {"type": "node", "id": 274113455, "lat": 52.4838534, "lon": 13.3613521, "tags": {"bench": "no", "bin": "yes", "bus": "yes", "highway": "bus_stop", "lit": "yes", "name": "Gustav-Müller-Platz", "shelter": "no", "tactile_paving": "no"}}, {"type": "node", "id": 274113456, "lat": 52.4863599, "lon": 13.3608059, "tags": {"bench": "no", "bin": "yes", "highway": "bus_stop", "lit": "yes", "name": "S Julius-Leber-Brücke", "network": "Verkehrsverbund Berlin-Brandenburg", "operator": "Berliner Verkehrsbetriebe", "shelter": "yes", "tactile_paving": "yes", "toilets:wheelchair": "no", "wheelchair": "yes"}}, {"type": "node", "id": 274113458, "lat": 52.4859845, "lon": 13.3611154, "tags": {"bench": "yes", "bin": "yes", "bus": "yes", "highway": "bus_stop", "lit": "yes", "name": "S Julius-Leber-Brücke", "network": "Verkehrsverbund Berlin-Brandenburg", "network:short": "VBB", "network:wikidata": "Q315451", "network:wikipedia": "de:Verkehrsverbund Berlin-Brandenburg", "operator": "Berliner Verkehrsbetriebe", "shelter": "yes", "tactile_paving": "yes", "wheelchair": "yes"}}, {"type": "node", "id": 274115099, "lat": 52.4850213, "lon": 13.3651679, "tags": {"bench": "yes", "bin": "yes", "bus": "yes", "highway": "bus_stop", "lit": "yes", "name": "Hohenfriedbergstraße", "public_transport": "platform", "shelter": "yes", "tactile_paving": "no"}}, {"type": "node", "id": 274115102, "lat": 52.4849942, "lon": 13.3675072, "tags": {"bench": "yes", "bin": "yes", "highway": "bus_stop", "lit": "yes", "name": "Kesselsdorfstraße", "shelter": "yes", "tactile_paving": "no"}}, {"type": "node", "id": 274115104, "lat": 52.4851741, "lon": 13.3682465, "tags": {"bench": "no", "bin": "yes", "highway": "bus_stop", "lit": "yes", "name": "Kesselsdorfstraße", "shelter": "no", "tactile_paving": "no"}}, {"type": "node", "id": 274115105, "lat": 52.4814484, "lon": 13.3605631, "tags": {"bench": "no", "bin": "no", "bus": "yes", "highway": "bus_stop", "lit": "no", "name": "Leuthener Straße", "shelter": "no", "tactile_paving": "no"}}, {"type": "node", "id": 274280680, "lat": 52.4693289, "lon": 13.4415748, "tags": {"bench": "no", "bin": "yes", "bus": "yes", "highway": "bus_stop", "lit": "yes", "name": "S+U Neukölln", "shelter": "no", "tactile_paving": "yes"}}, {"type": "node", "id": 275384821, "lat": 52.4391675, "lon": 13.5928081, "tags": {"bench": "yes", "bin": "yes", "highway": "bus_stop", "lit": "yes", "name": "Krankenhaus Köpenick/Südseite", "shelter": "yes", "tactile_paving": "yes"}}, {"type": "node", "id": 275422713, "lat": 52.4957652, "lon": 13.3664991, "tags": {"bench": "yes", "bin": "no", "highway": "bus_stop", "lit": "no", "name": "Dennewitzplatz", "shelter": "yes", "tactile_paving": "yes"}}, {"type": "node", "id": 275541053, "lat": 52.6644164, "lon": 13.5251411, "tags": {"bench": "no", "bin": "yes", "bus": "yes", "check_date:shelter": "2023-09-16", "highway": "bus_stop", "lit": "no", "name": "Holbeinstraße", "public_transport": "platform", "shelter": "no", "tactile_paving": "no", "wheelchair": "yes"}}, {"type": "node", "id": 276772755, "lat": 52.5349438, "lon": 13.1984324, "tags": {"bench": "yes", "bin": "yes", "bus": "yes", "check_date:shelter": "2024-01-18", "highway": "bus_stop", "lit": "yes", "local_ref": "1", "name": "S+U Rathaus Spandau", "name:BVG": "S+U Rathaus Spandau [Bus Seegefelder Straße]", "public_transport": "stop_position", "ref": "1", "ref:BVG": "102838", "shelter": "yes", "tactile_paving": "no", "website": "https://qr.bvg.de/h102838"}}, {"type": "node", "id": 277023067, "lat": 52.5088693, "lon": 13.3335389, "tags": {"bench": "no", "bin": "yes", "highway": "bus_stop", "lit": "yes", "name": "Hertzallee", "shelter": "no", "tactile_paving": "no", "wheelchair": "yes"}}, {"type": "node", "id": 277023071, "lat": 52.5092342, "lon": 13.3320918, "tags": {"bench": "no", "bin": "yes", "highway": "bus_stop", "lit": "yes", "name": "Hertzallee", "shelter": "no", "tactile_paving": "no"}}, {"type": "node", "id": 277023078, "lat": 52.5037084, "lon": 13.3301968, "tags": {"bench": "yes", "bin": "yes", "highway": "bus_stop", "lit": "yes", "name": "U Kurfürstendamm", "shelter": "yes", "tactile_paving": "no", "wheelchair": "yes"}}, {"type": "node", "id": 277023088, "lat": 52.5010424, "lon": 13.3310665, "tags": {"bench": "no", "bin": "yes", "highway": "bus_stop", "lit": "yes", "name": "Friedrich-Hollaender-Platz", "shelter": "no", "tactile_paving": "no", "wheelchair": "yes"}}, {"type": "node", "id": 277023089, "lat": 52.5005676, "lon": 13.3303367, "tags": {"bench": "no", "bin": "yes", "highway": "bus_stop", "lit": "yes", "name": "Friedrich-Hollaender-Platz", "shelter": "no", "tactile_paving": "no"}}, {"type": "node", "id": 277023090, "lat": 52.5002127, "lon": 13.3259439, "tags": {"bench": "no", "bin": "yes", "highway": "bus_stop", "lit": "yes", "name": "Lietzenburger Straße/Uhlandstraße", "shelter": "no", "tactile_paving": "no"}}, {"type": "node", "id": 277023091, "lat": 52.4999127, "lon": 13.3253153, "tags": {"bench": "no", "bin": "yes", "highway": "bus_stop", "lit": "yes", "name": "Lietzenburger Straße/Uhlandstraße", "shelter": "no", "tactile_paving": "no"}}, {"type": "node", "id": 277023092, "lat": 52.4973209, "lon": 13.3241287, "tags": {"bench": "yes", "bin": "yes", "bus": "yes", "highway": "bus_stop", "lit": "yes", "name": "Pariser Straße", "shelter": "yes", "tactile_paving": "no"}}, {"type": "node", "id": 277023093, "lat": 52.4977572, "lon": 13.3245243, "tags": {"bench": "yes", "bin": "yes", "highway": "bus_stop", "lit": "yes", "name": "Pariser Straße", "shelter": "yes", "tactile_paving": "no"}}, {"type": "node", "id": 277023094, "lat": 52.4931544, "lon": 13.3233675, "tags": {"bench": "no", "bin": "yes", "highway": "bus_stop", "lit": "yes", "name": "U Hohenzollernplatz", "shelter": "no", "tactile_paving": "no"}}, {"type": "node", "id": 277023095, "lat": 52.4933302, "lon": 13.3237034, "tags": {"bench": "no", "bin": "yes", "highway": "bus_stop", "lit": "yes", "name": "U Hohenzollernplatz", "shelter": "no", "tactile_paving": "no"}}, {"type": "node", "id": 277023104, "lat": 52.4912607, "lon": 13.3230265, "tags": {"bench": "yes", "bin": "no", "highway": "bus_stop", "lit": "yes", "name": "Güntzelstraße/Uhlandstraße", "shelter": "yes", "tactile_paving": "no"}}, {"type": "node", "id": 277023105, "lat": 52.4918118, "lon": 13.3234162, "tags": {"bench": "yes", "bin": "yes", "highway": "bus_stop", "lit": "yes", "name": "Güntzelstraße/Uhlandstraße", "shelter": "yes", "tactile_paving": "no"}}, {"type": "node", "id": 277023106, "lat": 52.4889282, "lon": 13.3226545, "tags": {"bench": "no", "bin": "yes", "highway": "bus_stop", "lit": "yes", "name": "Fechnerstraße", "shelter": "no", "tactile_paving": "yes"}}, {"type": "node", "id": 277023107, "lat": 52.4898677, "lon": 13.3230283, "tags": {"bench": "no", "bin": "yes", "highway": "bus_stop", "lit": "yes", "name": "Fechnerstraße", "shelter": "no", "tactile_paving": "yes"}}, {"type": "node", "id": 277023116, "lat": 52.4819058, "lon": 13.3163121, "tags": {"bench": "yes", "bin": "no", "highway": "bus_stop", "lit": "yes", "name": "Brabanter Platz", "shelter": "yes", "tactile_paving": "no", "toilets:wheelchair": "no", "wheelchair": "yes"}}, {"type": "node", "id": 277023117, "lat": 52.48178, "lon": 13.3152397, "tags": {"bench": "yes", "bin": "yes", "highway": "bus_stop", "lit": "yes", "name": "Brabanter Platz", "shelter": "yes", "tactile_paving": "no", "toilets:wheelchair": "no", "wheelchair": "yes"}}, {"type": "node", "id": 277023118, "lat": 52.4802198, "lon": 13.3121728, "tags": {"bench": "yes", "bin": "yes", "highway": "bus_stop", "lit": "yes", "name": "S+U Heidelberger Platz", "shelter": "yes", "tactile_paving": "no"}}, {"type": "node", "id": 277023119, "lat": 52.4797286, "lon": 13.3118305, "tags": {"bench": "yes", "bin": "yes", "highway": "bus_stop", "lit": "yes", "name": "S+U Heidelberger Platz", "shelter": "yes", "tactile_paving": "yes"}}, {"type": "node", "id": 277023120, "lat": 52.4783762, "lon": 13.3088192, "tags": {"bench": "no", "bin": "yes", "check_date:shelter": "2024-07-02", "highway": "bus_stop", "lit": "yes", "name": "Mecklenburgische Straße/Binger Straße", "shelter": "no", "tactile_paving": "no"}}, {"type": "node", "id": 277023122, "lat": 52.4754133, "lon": 13.303408, "tags": {"bench": "yes", "bin": "yes", "check_date:shelter": "2024-06-25", "highway": "bus_stop", "lit": "yes", "name": "Rudolf-Mosse-Platz", "shelter": "yes", "tactile_paving": "no", "wheelchair": "yes"}}, {"type": "node", "id": 277023123, "lat": 52.4753415, "lon": 13.3037881, "tags": {"bench": "yes", "bin": "yes", "highway": "bus_stop", "lit": "yes", "name": "Rudolf-Mosse-Platz", "shelter": "yes", "tactile_paving": "no", "wheelchair": "yes"}}, {"type": "node", "id": 277023136, "lat": 52.4734511, "lon": 13.298353, "tags": {"bench": "no", "bin": "yes", "highway": "bus_stop", "lit": "yes", "name": "Zoppoter Straße", "shelter": "no", "tactile_paving": "no"}}, {"type": "node", "id": 277023147, "lat": 52.4731847, "lon": 13.2994032, "tags": {"bench": "yes", "bin": "yes", "highway": "bus_stop", "lit": "yes", "name": "Zoppoter Straße", "shelter": "yes", "tactile_paving": "no"}}, {"type": "node", "id": 277023162, "lat": 52.4743852, "lon": 13.2940586, "tags": {"bench": "no", "bin": "yes", "bus": "yes", "highway": "bus_stop", "lit": "yes", "name": "Schmargendorf Kirche", "shelter": "no", "tactile_paving": "no"}}, {"type": "node", "id": 277023164, "lat": 52.4738893, "lon": 13.2949167, "tags": {"bench": "yes", "bin": "yes", "bus": "yes", "highway": "bus_stop", "lit": "yes", "name": "Schmargendorf Kirche", "shelter": "yes", "tactile_paving": "no"}}, {"type": "node", "id": 277025537, "lat": 52.4754466, "lon": 13.2907063, "tags": {"bench": "no", "bin": "yes", "highway": "bus_stop", "lit": "yes", "name": "Berkaer Straße/Breite Straße", "shelter": "no", "tactile_paving": "no"}}, {"type": "node", "id": 277025539, "lat": 52.4750406, "lon": 13.2906955, "tags": {"bench": "yes", "bin": "yes", "highway": "bus_stop", "lit": "yes", "name": "Berkaer Straße/Breite Straße", "shelter": "yes", "tactile_paving": "yes"}}, {"type": "node", "id": 277025541, "lat": 52.4770488, "lon": 13.288403, "tags": {"bench": "yes", "bin": "yes", "highway": "bus_stop", "lit": "yes", "name": "Rathaus Schmargendorf", "shelter": "yes", "tactile_paving": "no"}}, {"type": "node", "id": 277025543, "lat": 52.4773538, "lon": 13.2878146, "tags": {"bench": "yes", "bin": "yes", "highway": "bus_stop", "name": "Rathaus Schmargendorf", "shelter": "yes"}}, {"type": "node", "id": 277025555, "lat": 52.4792169, "lon": 13.2855916, "tags": {"bench": "no", "bin": "yes", "highway": "bus_stop", "lit": "yes", "name": "Elsterplatz", "shelter": "no", "tactile_paving": "no"}}, {"type": "node", "id": 277025557, "lat": 52.479147, "lon": 13.2858954, "tags": {"bench": "yes", "bin": "yes", "highway": "bus_stop", "lit": "yes", "name": "Elsterplatz", "shelter": "no", "tactile_paving": "no"}}, {"type": "node", "id": 277025559, "lat": 52.4794145, "lon": 13.2847034, "tags": {"bench": "yes", "bin": "yes", "highway": "bus_stop", "lit": "yes", "name": "Elsterplatz", "shelter": "yes", "tactile_paving": "no"}}, {"type": "node", "id": 277025561, "lat": 52.4763224, "lon": 13.2818069, "tags": {"bench": "no", "bin": "no", "highway": "bus_stop", "lit": "yes", "name": "Roseneck", "shelter": "no", "tactile_paving": "no"}}, {"type": "node", "id": 277346324, "lat": 52.5176944, "lon": 13.6738254, "tags": {"bench": "no", "bin": "no", "bus": "yes", "highway": "bus_stop", "lit": "yes", "local_ref": "1", "name": "S Hoppegarten", "note": "Nur ausstieg", "public_transport": "stop_position", "ref": "1", "ref_name": "Dahlwitz-Hoppegarten, S Hoppegarten", "shelter": "no", "tactile_paving": "yes"}}, {"type": "node", "id": 280524861, "lat": 52.5384117, "lon": 13.7007858, "tags": {"bench": "yes", "bin": "yes", "bus": "yes", "highway": "bus_stop", "lit": "no", "name": "Umspannwerk", "network": "Verkehrsverbund Berlin-Brandenburg", "network:short": "VBB", "network:wikidata": "Q315451", "public_transport": "platform", "ref:IFOPT": "de:12064:900320122::2", "ref_name": "Neuenhagen (b Berlin), Umspannwerk", "shelter": "yes", "tactile_paving": "no"}}, {"type": "node", "id": 280946151, "lat": 52.4727714, "lon": 13.4283247, "tags": {"bench": "yes", "bin": "yes", "bus": "yes", "highway": "bus_stop", "lit": "yes", "name": "U Leinestraße", "shelter": "yes", "tactile_paving": "no"}}, {"type": "node", "id": 281388644, "lat": 52.5104014, "lon": 13.4989849, "tags": {"bench": "yes", "bin": "yes", "highway": "bus_stop", "lit": "yes", "name": "S+U Lichtenberg", "shelter": "yes", "tactile_paving": "yes", "wheelchair": "limited"}}, {"type": "node", "id": 282815815, "lat": 52.5112355, "lon": 13.460475, "tags": {"bench": "yes", "bin": "yes", "bus": "yes", "bus_lines": "240;N40", "highway": "bus_stop", "lit": "yes", "name": "Boxhagener Platz", "public_transport": "platform", "shelter": "yes", "tactile_paving": "no"}}, {"type": "node", "id": 282815816, "lat": 52.5112007, "lon": 13.4599363, "tags": {"bench": "no", "bin": "yes", "bus": "yes", "bus_lines": "240;N40", "check_date:shelter": "2024-09-19", "highway": "bus_stop", "lit": "yes", "name": "Boxhagener Platz", "public_transport": "platform", "shelter": "no", "tactile_paving": "no", "wheelchair": "yes"}}, {"type": "node", "id": 283383080, "lat": 52.4716939, "lon": 13.5590559, "tags": {"bench": "yes", "bin": "yes", "highway": "bus_stop", "lit": "yes", "name": "Köpenicker Straße/Innovationspark", "shelter": "yes", "tactile_paving": "no"}}, {"type": "node", "id": 283444057, "lat": 52.5243736, "lon": 13.3337569, "tags": {"bench": "no", "bin": "yes", "highway": "bus_stop", "lit": "yes", "name": "Ottostraße", "shelter": "no", "tactile_paving": "no"}}, {"type": "node", "id": 283444937, "lat": 52.5248662, "lon": 13.3352473, "tags": {"bench": "yes", "bin": "yes", "check_date": "2024-03-13", "highway": "bus_stop", "lit": "yes", "name": "Ottostraße", "shelter": "yes", "tactile_paving": "no"}}, {"type": "node", "id": 283573093, "lat": 52.5158409, "lon": 13.4977702, "tags": {"bench": "yes", "bin": "yes", "check_date:shelter": "2024-06-16", "highway": "bus_stop", "lit": "yes", "name": "Freiaplatz", "shelter": "yes", "tactile_paving": "no"}}, {"type": "node", "id": 283573321, "lat": 52.5160412, "lon": 13.4988073, "tags": {"bench": "no", "bin": "yes", "check_date:shelter": "2024-06-16", "highway": "bus_stop", "lit": "yes", "name": "Freiaplatz", "shelter": "no", "tactile_paving": "no"}}, {"type": "node", "id": 285296447, "lat": 52.5789387, "lon": 13.244003, "tags": {"bench": "no", "bin": "no", "bus": "yes", "highway": "bus_stop", "lit": "no", "name": "Scharfenberg", "public_transport": "stop_position", "ref:BVG": "102967", "shelter": "no", "tactile_paving": "no", "website": "https://qr.bvg.de/h102967"}}, {"type": "node", "id": 285945519, "lat": 52.5155186, "lon": 13.4986624, "tags": {"bench": "no", "bin": "yes", "highway": "bus_stop", "lit": "yes", "name": "Freiaplatz", "shelter": "no", "tactile_paving": "yes"}}, {"type": "node", "id": 287734022, "lat": 52.5483685, "lon": 13.1948241, "tags": {"bench": "yes", "bin": "yes", "bus": "yes", "ele": "33.2", "highway": "bus_stop", "name": "Windmühlenberg", "public_transport": "stop_position", "ref:BVG": "100743", "shelter": "yes", "website": "https://qr.bvg.de/h100743"}}, {"type": "node", "id": 288304528, "lat": 52.5511582, "lon": 13.5487624, "tags": {"bench": "yes", "bin": "yes", "bus": "yes", "highway": "bus_stop", "lit": "yes", "name": "S Raoul-Wallenberg-Straße", "public_transport": "stop_position", "ref:BVG": "105339", "shelter": "yes", "tactile_paving": "yes", "website": "https://qr.bvg.de/h105339", "wheelchair": "yes"}}, {"type": "node", "id": 288728803, "lat": 52.4992472, "lon": 13.4656563, "tags": {"bench": "yes", "bin": "yes", "highway": "bus_stop", "lit": "yes", "name": "Markgrafendamm", "shelter": "yes", "tactile_paving": "yes"}}, {"type": "node", "id": 288905899, "lat": 52.5023568, "lon": 13.3417324, "tags": {"bench": "no", "bin": "yes", "highway": "bus_stop", "lit": "yes", "name": "U Wittenbergplatz", "shelter": "no", "tactile_paving": "no", "wheelchair": "yes"}}, {"type": "node", "id": 289121559, "lat": 52.4666145, "lon": 13.4641736, "tags": {"bus": "yes", "highway": "bus_stop", "name": "Planetenstraße"}}, {"type": "node", "id": 289121576, "lat": 52.4671063, "lon": 13.464675, "tags": {"bus": "yes", "highway": "bus_stop", "name": "Planetenstraße", "shelter": "yes"}}, {"type": "node", "id": 294715387, "lat": 52.4304355, "lon": 13.1610684, "tags": {"bench": "yes", "bin": "yes", "highway": "bus_stop", "lit": "yes", "name": "Zum Heckeshorn", "shelter": "yes", "tactile_paving": "no", "wheelchair": "yes"}}, {"type": "node", "id": 295525827, "lat": 52.500778, "lon": 13.4620723, "tags": {"bench": "yes", "bin": "yes", "check_date:shelter": "2024-07-24", "highway": "bus_stop", "lit": "yes", "name": "Persiusstraße", "shelter": "yes", "tactile_paving": "no"}}, {"type": "node", "id": 295525828, "lat": 52.5009645, "lon": 13.461767, "tags": {"bench": "yes", "bin": "yes", "check_date:shelter": "2024-07-24", "highway": "bus_stop", "lit": "yes", "name": "Persiusstraße", "shelter": "yes", "tactile_paving": "no"}}, {"type": "node", "id": 295831527, "lat": 52.5628714, "lon": 13.3659939, "tags": {"bench": "yes", "bin": "yes", "bus": "yes", "check_date:shelter": "2024-03-14", "highway": "bus_stop", "lit": "yes", "name": "U Franz-Neumann-Platz", "public_transport": "platform", "shelter": "yes", "tactile_paving": "no"}}, {"type": "node", "id": 296094695, "lat": 52.5055178, "lon": 13.4318395, "tags": {"bench": "yes", "bin": "yes", "bus": "yes", "highway": "bus_stop", "lit": "yes", "name": "Audre-Lorde-Straße", "shelter": "yes", "tactile_paving": "yes"}}, {"type": "node", "id": 296094887, "lat": 52.505859, "lon": 13.4319102, "tags": {"bench": "yes", "bin": "yes", "bus": "yes", "highway": "bus_stop", "lit": "yes", "name": "Audre-Lorde-Straße", "shelter": "yes", "tactile_paving": "no"}}, {"type": "node", "id": 296095058, "lat": 52.5072959, "lon": 13.4286162, "tags": {"bench": "yes", "bin": "yes", "bus": "yes", "highway": "bus_stop", "lit": "yes", "name": "Bethaniendamm", "shelter": "yes", "tactile_paving": "no"}}, {"type": "node", "id": 296095562, "lat": 52.5045527, "lon": 13.4345432, "tags": {"bench": "yes", "bin": "yes", "bus": "yes", "highway": "bus_stop", "lit": "no", "name": "Eisenbahnstraße", "shelter": "yes", "tactile_paving": "no"}}, {"type": "node", "id": 296095564, "lat": 52.5043971, "lon": 13.4353104, "tags": {"bench": "yes", "bin": "no", "bus": "yes", "highway": "bus_stop", "lit": "no", "name": "Eisenbahnstraße", "shelter": "yes", "tactile_paving": "no"}}, {"type": "node", "id": 296095755, "lat": 52.5070699, "lon": 13.4286892, "tags": {"bench": "yes", "bin": "yes", "bus": "yes", "highway": "bus_stop", "lit": "yes", "name": "Bethaniendamm", "shelter": "yes", "tactile_paving": "no"}}, {"type": "node", "id": 296095954, "lat": 52.5055406, "lon": 13.4322489, "tags": {"bench": "yes", "bin": "yes", "bus": "yes", "highway": "bus_stop", "lit": "yes", "name": "Audre-Lorde-Straße", "shelter": "yes", "tactile_paving": "no"}}, {"type": "node", "id": 296245482, "lat": 52.47532, "lon": 13.3396878, "tags": {"bench": "no", "bin": "yes", "highway": "bus_stop", "lit": "yes", "name": "Hähnelstraße", "shelter": "no", "tactile_paving": "no", "wheelchair": "yes"}}, {"type": "node", "id": 296914599, "lat": 52.4107699, "lon": 13.3086275, "tags": {"bench": "yes", "bin": "yes", "bus": "yes", "highway": "bus_stop", "lit": "yes", "name": "S Lichterfelde Süd", "shelter": "yes", "tactile_paving": "no", "wheelchair": "yes"}}, {"type": "node", "id": 297218589, "lat": 52.5057751, "lon": 13.3249938, "tags": {"bench": "no", "bin": "yes", "highway": "bus_stop", "lit": "yes", "name": "Uhlandstraße/Kantstraße", "shelter": "no", "tactile_paving": "no"}}, {"type": "node", "id": 297218647, "lat": 52.5059519, "lon": 13.3220305, "tags": {"bench": "yes", "bin": "yes", "check_date:shelter": "2025-06-03", "check_date:tactile_paving": "2021-03-22", "highway": "bus_stop", "lit": "yes", "name": "Savignyplatz", "shelter": "yes", "tactile_paving": "no"}}, {"type": "node", "id": 297218709, "lat": 52.5056786, "lon": 13.3227332, "tags": {"bench": "yes", "bin": "yes", "bus": "yes", "highway": "bus_stop", "lit": "yes", "name": "Savignyplatz", "shelter": "yes", "tactile_paving": "no"}}, {"type": "node", "id": 297219334, "lat": 52.5061732, "lon": 13.3179724, "tags": {"bench": "no", "bin": "yes", "bus": "yes", "highway": "bus_stop", "lit": "yes", "name": "Schlüterstraße", "public_transport": "platform", "shelter": "no", "tactile_paving": "no", "wheelchair": "yes"}}, {"type": "node", "id": 297219393, "lat": 52.5059813, "lon": 13.3172005, "tags": {"bench": "no", "bin": "yes", "bus": "yes", "highway": "bus_stop", "lit": "yes", "name": "Schlüterstraße", "public_transport": "platform", "shelter": "no", "tactile_paving": "no", "wheelchair": "yes"}}, {"type": "node", "id": 297219791, "lat": 52.5063747, "lon": 13.3143528, "tags": {"bench": "no", "bin": "yes", "highway": "bus_stop", "lit": "yes", "name": "Kantstraße/Leibnizstraße", "shelter": "no", "tactile_paving": "no", "wheelchair": "yes"}}, {"type": "node", "id": 297219820, "lat": 52.5061906, "lon": 13.3134805, "tags": {"bench": "no", "bin": "yes", "highway": "bus_stop", "lit": "yes", "name": "Kantstraße/Leibnizstraße", "shelter": "no", "tactile_paving": "no", "wheelchair": "yes"}}, {"type": "node", "id": 297219894, "lat": 52.5065213, "lon": 13.3137792, "tags": {"bench": "no", "bin": "yes", "highway": "bus_stop", "lit": "yes", "name": "Kantstraße/Leibnizstraße", "shelter": "no", "tactile_paving": "yes", "wheelchair": "yes"}}, {"type": "node", "id": 297220032, "lat": 52.5059971, "lon": 13.3139975, "tags": {"bench": "no", "bin": "yes", "highway": "bus_stop", "lit": "yes", "name": "Kantstraße/Leibnizstraße", "shelter": "no", "tactile_paving": "yes", "wheelchair": "yes"}}, {"type": "node", "id": 297222096, "lat": 52.5090834, "lon": 13.3142191, "tags": {"bench": "yes", "bin": "yes", "highway": "bus_stop", "lit": "yes", "name": "Goethestraße", "shelter": "yes", "tactile_paving": "no", "wheelchair": "yes"}}, {"type": "node", "id": 297222110, "lat": 52.5086678, "lon": 13.3143865, "tags": {"bench": "yes", "bin": "yes", "bus": "yes", "departures_board": "realtime", "highway": "bus_stop", "lit": "yes", "name": "Goethestraße", "shelter": "yes", "tactile_paving": "no", "wheelchair": "yes"}}, {"type": "node", "id": 297230912, "lat": 52.5067577, "lon": 13.3068677, "tags": {"bench": "yes", "bin": "yes", "bus": "yes", "highway": "bus_stop", "lit": "yes", "local_ref": "2", "name": "U Wilmersdorfer Straße", "shelter": "yes", "tactile_paving": "no", "wheelchair": "yes"}}, {"type": "node", "id": 297231079, "lat": 52.5066445, "lon": 13.3063322, "tags": {"bench": "no", "bin": "yes", "bus": "yes", "highway": "bus_stop", "lit": "yes", "name": "U Wilmersdorfer Straße", "name:ja": "U ヴィルマースドルファー通り", "shelter": "no", "tactile_paving": "no"}}, {"type": "node", "id": 297471826, "lat": 52.5067402, "lon": 13.2895755, "tags": {"bench": "yes", "bin": "yes", "highway": "bus_stop", "lit": "yes", "name": "Kuno-Fischer-Straße", "shelter": "yes", "tactile_paving": "no"}}, {"type": "node", "id": 297471891, "lat": 52.5065576, "lon": 13.2899215, "tags": {"bench": "yes", "bin": "yes", "highway": "bus_stop", "lit": "yes", "name": "Kuno-Fischer-Straße", "shelter": "yes", "tactile_paving": "no"}}, {"type": "node", "id": 297687719, "lat": 52.5055206, "lon": 13.4316986, "tags": {"bench": "yes", "bin": "yes", "bus": "yes", "highway": "bus_stop", "lit": "yes", "name": "Audre-Lorde-Straße", "shelter": "yes", "tactile_paving": "no"}}, {"type": "node", "id": 298072615, "lat": 52.3885365, "lon": 13.3008597, "tags": {"bench": "yes", "bin": "yes", "highway": "bus_stop", "lit": "yes", "name": "Bahnhof", "shelter": "yes", "tactile_paving": "yes"}}, {"type": "node", "id": 298073911, "lat": 52.3962282, "lon": 13.3051069, "tags": {"bus": "yes", "highway": "bus_stop", "name": "Sigridshorst", "public_transport": "platform"}}, {"type": "node", "id": 298151283, "lat": 52.3998094, "lon": 13.2503588, "tags": {"bench": "yes", "bin": "yes", "highway": "bus_stop", "lit": "yes", "name": "Havelstraße", "network": "Verkehrsverbund Berlin-Brandenburg", "network:short": "VBB", "network:wikidata": "Q315451", "shelter": "yes", "tactile_paving": "yes", "wheelchair": "yes"}}, {"type": "node", "id": 298270257, "lat": 52.4780519, "lon": 13.3438119, "tags": {"bench": "yes", "bin": "yes", "check_date:shelter": "2025-06-11", "highway": "bus_stop", "lit": "yes", "name": "S+U Innsbrucker Platz", "shelter": "yes", "tactile_paving": "no"}}, {"type": "node", "id": 298771384, "lat": 52.4579363, "lon": 13.2944446, "tags": {"bench": "yes", "bin": "yes", "bus": "yes", "highway": "bus_stop", "lit": "yes", "name": "Edwin-Redslob-Straße", "shelter": "yes", "tactile_paving": "no"}}, {"type": "node", "id": 298771407, "lat": 52.4580009, "lon": 13.2953797, "tags": {"bench": "no", "bin": "yes", "highway": "bus_stop", "lit": "yes", "name": "Edwin-Redslob-Straße", "shelter": "yes", "tactile_paving": "no"}}, {"type": "node", "id": 300137877, "lat": 52.471851, "lon": 13.3354196, "tags": {"bench": "no", "bin": "yes", "highway": "bus_stop", "lit": "yes", "name": "Breslauer Platz", "shelter": "no", "tactile_paving": "yes"}}, {"type": "node", "id": 301151200, "lat": 52.5443549, "lon": 13.355267, "tags": {"bench": "yes", "bin": "yes", "highway": "bus_stop", "lit": "yes", "name": "Luxemburger Straße", "shelter": "yes", "tactile_paving": "no", "wheelchair": "yes"}}, {"type": "node", "id": 304039493, "lat": 52.3854434, "lon": 13.110907, "tags": {"bench": "yes", "bin": "yes", "highway": "bus_stop", "lit": "yes", "name": "Kleine Straße", "shelter": "yes", "tactile_paving": "no"}}, {"type": "node", "id": 304296307, "lat": 52.5096732, "lon": 13.6059198, "tags": {"bench": "yes", "bin": "yes", "check_date:shelter": "2021-03-05", "highway": "bus_stop", "lit": "yes", "name": "Gielsdorfer Straße", "shelter": "yes", "tactile_paving": "no"}}, {"type": "node", "id": 304296351, "lat": 52.5092585, "lon": 13.608973, "tags": {"bench": "yes", "bin": "yes", "highway": "bus_stop", "lit": "yes", "name": "Neuenhagener Straße", "shelter": "yes", "tactile_paving": "no"}}, {"type": "node", "id": 306988646, "lat": 52.4298598, "lon": 13.3333109, "tags": {"bench": "no", "bin": "yes", "bus": "yes", "bus_routes": "184;284;N84", "highway": "bus_stop", "lit": "yes", "name": "Amalienstraße", "shelter": "no", "tactile_paving": "no"}}, {"type": "node", "id": 306988852, "lat": 52.4301468, "lon": 13.3335893, "tags": {"bench": "yes", "bin": "yes", "bus_routes": "184;284;N84", "highway": "bus_stop", "lit": "yes", "name": "Amalienstraße", "shelter": "yes", "tactile_paving": "no"}}, {"type": "node", "id": 306989797, "lat": 52.4321256, "lon": 13.3382475, "tags": {"bench": "yes", "bin": "yes", "bus_routes": "184;284;N84", "highway": "bus_stop", "lit": "yes", "name": "Kaiser-Wilhelm-Straße/Seydlitzstraße", "shelter": "yes", "tactile_paving": "no"}}, {"type": "node", "id": 306989988, "lat": 52.4316748, "lon": 13.3379174, "tags": {"bench": "yes", "bin": "yes", "bus": "yes", "highway": "bus_stop", "lit": "yes", "name": "Kaiser-Wilhelm-Straße/Seydlitzstraße", "shelter": "yes", "tactile_paving": "no", "wheelchair": "yes"}}, {"type": "node", "id": 307798730, "lat": 52.3394455, "lon": 13.2506627, "tags": {"bus": "yes", "highway": "bus_stop", "name": "Sputendorf, Abzweig", "public_transport": "platform"}}, {"type": "node", "id": 307798732, "lat": 52.3400802, "lon": 13.2511943, "tags": {"bus": "yes", "highway": "bus_stop", "name": "Sputendorf, Abzweig", "public_transport": "platform"}}, {"type": "node", "id": 307798734, "lat": 52.3446146, "lon": 13.2640384, "tags": {"bus": "yes", "highway": "bus_stop", "name": "Sputendorfer Chaussee", "public_transport": "platform"}}, {"type": "node", "id": 307798737, "lat": 52.3445344, "lon": 13.2641753, "tags": {"bus": "yes", "highway": "bus_stop", "name": "Sputendorfer Chaussee", "public_transport": "platform"}}, {"type": "node", "id": 307802169, "lat": 52.3503495, "lon": 13.2740849, "tags": {"bus": "yes", "highway": "bus_stop", "name": "Neubeeren, Dorf", "public_transport": "platform"}}, {"type": "node", "id": 307802173, "lat": 52.3492145, "lon": 13.2751676, "tags": {"bus": "yes", "highway": "bus_stop", "name": "Neubeeren, Dorf", "public_transport": "platform"}}, {"type": "node", "id": 307813072, "lat": 52.3748296, "lon": 13.2634822, "tags": {"bench": "yes", "bin": "yes", "highway": "bus_stop", "lit": "yes", "name": "Ruhlsdorf", "shelter": "yes", "tactile_paving": "yes", "wheelchair": "yes"}}, {"type": "node", "id": 307816025, "lat": 52.3776284, "lon": 13.2599597, "tags": {"highway": "bus_stop", "name": "Mühlenbergstraße", "shelter": "yes"}}, {"type": "node", "id": 308711401, "lat": 52.529191, "lon": 13.5649889, "tags": {"bench": "no", "bin": "yes", "highway": "bus_stop", "lit": "yes", "name": "Cecilienstraße/Blumberger Damm", "shelter": "no", "tactile_paving": "no"}}, {"type": "node", "id": 309751773, "lat": 52.4231047, "lon": 13.3572849, "tags": {"bench": "yes", "bin": "yes", "highway": "bus_stop", "lit": "yes", "name": "Marchandstraße", "shelter": "yes", "tactile_paving": "yes", "wheelchair": "yes"}}, {"type": "node", "id": 309751775, "lat": 52.4232664, "lon": 13.3574974, "tags": {"bench": "yes", "bin": "yes", "highway": "bus_stop", "lit": "yes", "name": "Marchandstraße", "shelter": "yes", "tactile_paving": "yes", "wheelchair": "yes"}}, {"type": "node", "id": 309751776, "lat": 52.4205803, "lon": 13.3585495, "tags": {"bench": "yes", "bin": "yes", "check_date:shelter": "2023-10-02", "highway": "bus_stop", "lit": "yes", "name": "Friedrichrodaer Straße", "shelter": "yes", "tactile_paving": "no", "wheelchair": "yes"}}, {"type": "node", "id": 309751777, "lat": 52.4204306, "lon": 13.3589203, "tags": {"bench": "yes", "bin": "yes", "check_date:shelter": "2023-10-02", "highway": "bus_stop", "lit": "yes", "name": "Friedrichrodaer Straße", "shelter": "yes", "tactile_paving": "no", "wheelchair": "yes"}}, {"type": "node", "id": 309883268, "lat": 52.3936829, "lon": 13.2105918, "tags": {"bench": "no", "bin": "yes", "bus": "yes", "highway": "bus_stop", "lit": "yes", "name": "Waldschänke", "public_transport": "platform", "shelter": "no", "tactile_paving": "yes"}}, {"type": "node", "id": 309963444, "lat": 52.38892, "lon": 13.129835, "tags": {"bench": "no", "bin": "yes", "highway": "bus_stop", "lit": "yes", "name": "Steinstücken", "shelter": "no", "tactile_paving": "no", "wheelchair": "yes"}}, {"type": "node", "id": 309963448, "lat": 52.3891759, "lon": 13.1299287, "tags": {"bench": "no", "bin": "yes", "highway": "bus_stop", "lit": "yes", "name": "Steinstücken", "shelter": "no", "tactile_paving": "no", "wheelchair": "yes"}}, {"type": "node", "id": 310244882, "lat": 52.3963685, "lon": 13.2439736, "tags": {"bench": "no", "highway": "bus_stop", "name": "Iserstraße/Gesundheitszentrum", "shelter": "no"}}, {"type": "node", "id": 310244884, "lat": 52.3962699, "lon": 13.243859, "tags": {"bench": "yes", "highway": "bus_stop", "name": "Iserstraße/Gesundheitszentrum", "shelter": "yes"}}, {"type": "node", "id": 310244887, "lat": 52.3959993, "lon": 13.2408244, "tags": {"bench": "yes", "bin": "yes", "check_date": "2025-02-18", "check_date:bench": "2025-02-18", "check_date:bin": "2025-02-18", "check_date:lit": "2025-02-18", "check_date:shelter": "2025-02-18", "check_date:tactile_paving": "2025-02-18", "gtfs:stop_id": "de:12069:900220096::2", "highway": "bus_stop", "lit": "yes", "name": "Feuerwehr", "shelter": "yes", "tactile_paving": "yes"}}, {"type": "node", "id": 310621725, "lat": 52.396559, "lon": 13.0944385, "tags": {"bench": "yes", "bin": "yes", "bus": "yes", "highway": "bus_stop", "kerb": "raised", "kerb:approach_aid": "yes", "lit": "yes", "name": "Spindelstraße", "passenger_information_display": "no", "public_transport": "platform", "shelter": "yes", "tactile_paving": "no", "wheelchair": "yes"}}, {"type": "node", "id": 310621729, "lat": 52.3963994, "lon": 13.0942009, "tags": {"bench": "yes", "bin": "yes", "bus": "yes", "highway": "bus_stop", "lit": "yes", "name": "Spindelstraße", "shelter": "yes", "tactile_paving": "yes"}}, {"type": "node", "id": 313330278, "lat": 52.3783111, "lon": 13.1768049, "tags": {"bus": "yes", "gtfs:stop_id": "de:12069:900220061::1", "highway": "bus_stop", "name": "Stolper Weg", "public_transport": "stop_position"}}, {"type": "node", "id": 313543073, "lat": 52.4243927, "lon": 13.327877, "tags": {"bench": "no", "bin": "yes", "highway": "bus_stop", "lit": "yes", "name": "Oberhofer Platz", "shelter": "no", "tactile_paving": "no"}}, {"type": "node", "id": 313543118, "lat": 52.4246244, "lon": 13.328823, "tags": {"bench": "yes", "bin": "yes", "highway": "bus_stop", "lit": "yes", "name": "Oberhofer Platz", "shelter": "yes", "tactile_paving": "no"}}, {"type": "node", "id": 315122082, "lat": 52.6353701, "lon": 13.1983771, "tags": {"bench": "yes", "bus": "yes", "highway": "bus_stop", "name": "Fontaneschule", "public_transport": "stop_position", "route_ref": "808;809;824", "shelter": "yes", "tactile_paving": "yes"}}, {"type": "node", "id": 316623410, "lat": 52.590617, "lon": 13.2829535, "tags": {"bench": "yes", "bin": "yes", "bus": "yes", "check_date": "2016-02-08", "highway": "bus_stop", "lit": "yes", "name": "U Alt-Tegel", "name:BVG": "U Alt-Tegel [Bus]", "network": "Verkehrsverbund Berlin-Brandenburg", "network:short": "VBB", "network:wikidata": "Q315451", "operator": "Berliner Verkehrsbetriebe", "operator:short": "BVG", "operator:wikidata": "Q99633", "public_transport": "stop_position", "ref:BVG": "101656", "shelter": "yes", "tactile_paving": "no", "website": "https://qr.bvg.de/h101656"}}, {"type": "node", "id": 316623847, "lat": 52.5903471, "lon": 13.2828153, "tags": {"bench": "yes", "bin": "yes", "bus": "yes", "bus_bay": "right", "check_date": "2016-02-08", "highway": "bus_stop", "lit": "yes", "name": "U Alt-Tegel", "name:BVG": "U Alt-Tegel [Bus]", "network": "Verkehrsverbund Berlin-Brandenburg", "network:short": "VBB", "network:wikidata": "Q315451", "operator": "Berliner Verkehrsbetriebe", "operator:short": "BVG", "operator:wikidata": "Q99633", "public_transport": "stop_position", "ref:BVG": "104404", "shelter": "yes", "tactile_paving": "yes", "website": "https://qr.bvg.de/h104404", "wheelchair": "yes"}}, {"type": "node", "id": 316623850, "lat": 52.590282, "lon": 13.2826625, "tags": {"bench": "yes", "bin": "yes", "bus": "yes", "check_date": "2016-02-08", "highway": "bus_stop", "lit": "yes", "name": "U Alt-Tegel", "name:BVG": "U Alt-Tegel [Bus]", "network": "Verkehrsverbund Berlin-Brandenburg", "network:short": "VBB", "network:wikidata": "Q315451", "operator": "Berliner Verkehrsbetriebe", "operator:short": "BVG", "operator:wikidata": "Q99633", "public_transport": "stop_position", "ref:BVG": "104403", "shelter": "yes", "tactile_paving": "no", "website": "https://qr.bvg.de/h104403", "wheelchair": "yes"}}, {"type": "node", "id": 316636156, "lat": 52.605353, "lon": 13.2914615, "tags": {"bench": "yes", "bin": "yes", "bus": "yes", "highway": "bus_stop", "lit": "yes", "name": "Dohnensteig", "public_transport": "stop_position", "ref:BVG": "100061", "shelter": "yes", "tactile_paving": "no", "website": "https://qr.bvg.de/h100061"}}, {"type": "node", "id": 316837864, "lat": 52.4846919, "lon": 13.6284925, "tags": {"bench": "yes", "bin": "yes", "bus": "yes", "highway": "bus_stop", "lit": "yes", "name": "Mahlsdorfer Allee", "public_transport": "stop_position", "ref:BVG": "105095", "ref:IFOPT": "de:12064:900320023::1", "ref_name": "Waldesruh, Mahlsdorfer Allee", "shelter": "yes", "source": "local knowledge", "tactile_paving": "no", "website": "https://qr.bvg.de/h105095"}}, {"type": "node", "id": 316841178, "lat": 52.5719128, "lon": 13.3119234, "tags": {"bench": "yes", "bin": "yes", "highway": "bus_stop", "lit": "yes", "name": "Eichborndamm/Antonienstraße", "shelter": "yes", "tactile_paving": "no"}}, {"type": "node", "id": 316841180, "lat": 52.5715929, "lon": 13.3122744, "tags": {"bench": "yes", "bin": "yes", "highway": "bus_stop", "lit": "yes", "name": "Eichborndamm/Antonienstraße", "shelter": "yes", "tactile_paving": "no"}}, {"type": "node", "id": 317179397, "lat": 52.546935, "lon": 13.3584884, "tags": {"bench": "yes", "bin": "yes", "bus": "yes", "highway": "bus_stop", "lit": "yes", "name": "U Leopoldplatz", "shelter": "yes", "tactile_paving": "no"}}, {"type": "node", "id": 317179399, "lat": 52.5467388, "lon": 13.3594347, "tags": {"bench": "yes", "bin": "yes", "bus": "yes", "highway": "bus_stop", "lit": "yes", "name": "U Leopoldplatz", "shelter": "yes", "tactile_paving": "no"}}, {"type": "node", "id": 317322274, "lat": 52.5742807, "lon": 13.3076735, "tags": {"bench": "yes", "bin": "yes", "highway": "bus_stop", "lit": "yes", "name": "Foxweg", "shelter": "no", "tactile_paving": "no"}}, {"type": "node", "id": 317322307, "lat": 52.5738792, "lon": 13.3081916, "tags": {"bench": "no", "bin": "yes", "highway": "bus_stop", "lit": "no", "name": "Foxweg", "shelter": "no", "tactile_paving": "no", "wheelchair": "yes"}}, {"type": "node", "id": 317323277, "lat": 52.5720292, "lon": 13.3084227, "tags": {"bench": "yes", "bin": "yes", "check_date:shelter": "2022-04-05", "highway": "bus_stop", "lit": "yes", "name": "Auguste-Viktoria-Allee/Quäkerstraße", "shelter": "yes", "tactile_paving": "no"}}, {"type": "node", "id": 317437884, "lat": 52.5711754, "lon": 13.3132269, "tags": {"highway": "bus_stop", "lit": "yes", "name": "Eichborndamm/Antonienstraße"}}, {"type": "node", "id": 317438267, "lat": 52.5707599, "lon": 13.3175737, "tags": {"bench": "yes", "bin": "yes", "bus_routes": "125", "covered": "yes", "direction": "S+U-Bhf. Osloer Str.", "highway": "bus_stop", "name": "General-Woyna-Straße", "shelter": "yes", "tactile_paving": "no"}}, {"type": "node", "id": 317438268, "lat": 52.5710132, "lon": 13.3163351, "tags": {"bench": "yes", "bin": "yes", "bus_routes": "125", "covered": "yes", "direction": "Invalidensiedlung", "highway": "bus_stop", "lit": "no", "name": "General-Woyna-Straße", "shelter": "yes", "tactile_paving": "no", "wheelchair": "yes"}}, {"type": "node", "id": 317439251, "lat": 52.5687886, "lon": 13.3172487, "tags": {"bench": "no", "bin": "yes", "check_date:shelter": "2021-12-30", "highway": "bus_stop", "lit": "no", "name": "Zobeltitzstraße", "shelter": "no", "tactile_paving": "no"}}, {"type": "node", "id": 317439252, "lat": 52.569151, "lon": 13.3171968, "tags": {"highway": "bus_stop", "name": "Zobeltitzstraße", "shelter": "no", "tactile_paving": "no"}}, {"type": "node", "id": 317443583, "lat": 52.5666744, "lon": 13.3175737, "tags": {"bench": "yes", "bin": "yes", "highway": "bus_stop", "lit": "yes", "name": "Uranusweg", "shelter": "yes", "tactile_paving": "no"}}, {"type": "node", "id": 318699921, "lat": 52.5633742, "lon": 13.3273903, "tags": {"bench": "yes", "bin": "yes", "bus": "yes", "highway": "bus_stop", "lit": "yes", "name": "U Kurt-Schumacher-Platz", "shelter": "yes", "tactile_paving": "yes"}}, {"type": "node", "id": 318699922, "lat": 52.5633496, "lon": 13.3268823, "tags": {"bench": "yes", "bin": "yes", "bus": "yes", "highway": "bus_stop", "lit": "yes", "name": "U Kurt-Schumacher-Platz", "network": "Verkehrsverbund Berlin-Brandenburg", "network:short": "VBB", "network:wikidata": "Q315451", "network:wikipedia": "de:Verkehrsverbund Berlin-Brandenburg", "operator": "Berliner Verkehrsbetriebe", "operator:short": "BVG", "shelter": "yes", "tactile_paving": "yes"}}, {"type": "node", "id": 318702540, "lat": 52.5630065, "lon": 13.3311797, "tags": {"bench": "no", "bin": "yes", "check_date:shelter": "2024-04-21", "highway": "bus_stop", "lit": "no", "name": "Kapweg", "shelter": "no", "tactile_paving": "no", "wheelchair": "yes"}}, {"type": "node", "id": 318702541, "lat": 52.5629069, "lon": 13.3313381, "tags": {"bench": "no", "bin": "no", "check_date:shelter": "2024-04-21", "highway": "bus_stop", "lit": "no", "name": "Kapweg", "shelter": "no", "tactile_paving": "no", "wheelchair": "yes"}}, {"type": "node", "id": 318705242, "lat": 52.5575566, "lon": 13.3729359, "tags": {"bench": "yes", "bin": "yes", "bus": "yes", "highway": "bus_stop", "lit": "yes", "name": "U Osloer Straße", "shelter": "yes", "tactile_paving": "no"}}, {"type": "node", "id": 318705246, "lat": 52.5572781, "lon": 13.3728312, "tags": {"bench": "yes", "bin": "yes", "bus": "yes", "highway": "bus_stop", "lit": "yes", "name": "U Osloer Straße/Tromsöer Straße", "shelter": "yes", "tactile_paving": "no"}}, {"type": "node", "id": 318709725, "lat": 52.5565049, "lon": 13.3735238, "tags": {"bench": "yes", "bin": "yes", "bus": "yes", "highway": "bus_stop", "lit": "yes", "name": "U Osloer Straße", "shelter": "yes", "tactile_paving": "no", "wheelchair": "yes"}}, {"type": "node", "id": 318924165, "lat": 52.5773299, "lon": 13.3146608, "tags": {"bench": "yes", "bin": "yes", "highway": "bus_stop", "lit": "yes", "name": "S Eichborndamm", "shelter": "yes", "tactile_paving": "yes"}}, {"type": "node", "id": 318924167, "lat": 52.5773236, "lon": 13.3154728, "tags": {"bench": "no", "bin": "yes", "highway": "bus_stop", "lit": "yes", "name": "S Eichborndamm", "shelter": "no", "tactile_paving": "no"}}, {"type": "node", "id": 319095276, "lat": 52.5743302, "lon": 13.3470376, "tags": {"bench": "yes", "bin": "yes", "check_date:shelter": "2023-08-14", "highway": "bus_stop", "lit": "yes", "name": "U Paracelsus-Bad", "shelter": "yes", "tactile_paving": "no"}}, {"type": "node", "id": 319095277, "lat": 52.5754062, "lon": 13.347997, "tags": {"bench": "yes", "bin": "yes", "highway": "bus_stop", "lit": "yes", "name": "U Paracelsus-Bad", "shelter": "yes", "tactile_paving": "no"}}, {"type": "node", "id": 319546596, "lat": 52.5753453, "lon": 13.3328318, "tags": {"bench": "no", "bin": "yes", "check_date:shelter": "2022-04-17", "highway": "bus_stop", "lit": "no", "name": "Ollenhauerstraße/Lindauer Allee", "shelter": "no", "tactile_paving": "no"}}, {"type": "node", "id": 319546597, "lat": 52.5755982, "lon": 13.3315558, "tags": {"bench": "no", "bin": "no", "check_date:shelter": "2022-04-17", "highway": "bus_stop", "lit": "no", "name": "Ollenhauerstraße/Lindauer Allee", "shelter": "no", "tactile_paving": "no"}}, {"type": "node", "id": 319546599, "lat": 52.5750462, "lon": 13.3317863, "tags": {"bench": "no", "bin": "yes", "check_date:shelter": "2022-04-17", "highway": "bus_stop", "lit": "no", "name": "Ollenhauerstraße/Lindauer Allee", "shelter": "no", "tactile_paving": "no", "wheelchair": "limited"}}, {"type": "node", "id": 319644487, "lat": 52.5754682, "lon": 13.3392339, "tags": {"bench": "yes", "bin": "yes", "bus": "yes", "highway": "bus_stop", "name": "U Lindauer Allee", "shelter": "yes"}}, {"type": "node", "id": 320336516, "lat": 52.6688109, "lon": 13.1588889, "tags": {"bus": "yes", "highway": "bus_stop", "name": "Kreisverkehr", "public_transport": "stop_position", "route_ref": "651;811;814;824", "shelter": "yes", "wheelchair": "yes"}}, {"type": "node", "id": 320336518, "lat": 52.6685187, "lon": 13.1592908, "tags": {"bus": "yes", "bus_bay": "right", "highway": "bus_stop", "name": "Kreisverkehr", "public_transport": "stop_position", "route_ref": "651;811;814;824", "shelter": "yes", "wheelchair": "yes"}}, {"type": "node", "id": 320441249, "lat": 52.5969406, "lon": 13.3595846, "tags": {"bench": "yes", "bin": "yes", "bus": "yes", "highway": "bus_stop", "lit": "yes", "name": "Wilhelmsruher Damm/Treuenbrietzener Straße", "shelter": "yes", "tactile_paving": "no", "wheelchair": "yes"}}, {"type": "node", "id": 321672108, "lat": 52.5767747, "lon": 13.3073429, "tags": {"highway": "bus_stop", "name": "Otisstraße/Wittestraße", "shelter": "no"}}, {"type": "node", "id": 324328106, "lat": 52.4157846, "lon": 13.3615037, "tags": {"bench": "yes", "bin": "yes", "highway": "bus_stop", "lit": "yes", "name": "Vom Guten Hirten", "shelter": "yes", "tactile_paving": "yes", "wheelchair": "yes"}}, {"type": "node", "id": 324328107, "lat": 52.4158244, "lon": 13.3617001, "tags": {"bench": "yes", "bin": "yes", "highway": "bus_stop", "lit": "yes", "name": "Vom Guten Hirten", "shelter": "yes", "tactile_paving": "yes"}}, {"type": "node", "id": 324334971, "lat": 52.4084751, "lon": 13.3765593, "tags": {"bench": "yes", "bin": "yes", "bus": "yes", "highway": "bus_stop", "lit": "yes", "name": "Gutspark Marienfelde", "shelter": "yes", "tactile_paving": "no"}}, {"type": "node", "id": 324820693, "lat": 52.3954513, "lon": 13.3990636, "tags": {"highway": "bus_stop", "name": "Barnetstraße/Steinstraße"}}, {"type": "node", "id": 324820694, "lat": 52.3957628, "lon": 13.3986078, "tags": {"bench": "yes", "bin": "yes", "bus": "yes", "check_date:shelter": "2023-10-13", "highway": "bus_stop", "lit": "yes", "name": "Barnetstraße/Steinstraße", "shelter": "yes", "tactile_paving": "no"}}, {"type": "node", "id": 324820695, "lat": 52.3937086, "lon": 13.4045652, "tags": {"bench": "yes", "bin": "yes", "highway": "bus_stop", "name": "Finchleystraße", "shelter": "yes", "tactile_paving": "no"}}, {"type": "node", "id": 324820696, "lat": 52.3938606, "lon": 13.4057475, "tags": {"bench": "yes", "bin": "yes", "bus": "yes", "highway": "bus_stop", "lit": "yes", "name": "Lichtenrader Damm/Barnetstraße", "shelter": "yes", "tactile_paving": "no", "wheelchair": "limited"}}, {"type": "node", "id": 324820697, "lat": 52.3937187, "lon": 13.4075342, "tags": {"highway": "bus_stop", "name": "Lichtenrader Damm/Barnetstraße"}}, {"type": "node", "id": 324820698, "lat": 52.3942307, "lon": 13.4102253, "tags": {"highway": "bus_stop", "name": "Im Domstift/Groß-Ziethener Straße"}}, {"type": "node", "id": 324820699, "lat": 52.3943061, "lon": 13.4121076, "tags": {"highway": "bus_stop", "name": "Im Domstift/Groß-Ziethener Straße"}}, {"type": "node", "id": 324820700, "lat": 52.3945565, "lon": 13.4163517, "tags": {"bin": "yes", "highway": "bus_stop", "name": "Volkspark Lichtenrade", "shelter": "yes"}}, {"type": "node", "id": 324820701, "lat": 52.3946276, "lon": 13.4159226, "tags": {"bin": "yes", "highway": "bus_stop", "name": "Volkspark Lichtenrade"}}, {"type": "node", "id": 324822681, "lat": 52.3921998, "lon": 13.4200003, "tags": {"bench": "yes", "bin": "no", "bus": "yes", "highway": "bus_stop", "lit": "no", "name": "Skarbinastraße", "shelter": "yes", "tactile_paving": "no"}}, {"type": "node", "id": 325666548, "lat": 52.4101944, "lon": 13.3794495, "tags": {"bench": "no", "bin": "no", "bus": "yes", "highway": "bus_stop", "lit": "no", "name": "S Buckower Chaussee West", "network": "Verkehrsverbund Berlin-Brandenburg", "network:short": "VBB", "network:wikidata": "Q315451", "public_transport": "platform", "shelter": "no", "tactile_paving": "no"}}, {"type": "node", "id": 325695086, "lat": 52.4115507, "lon": 13.3499304, "tags": {"bench": "yes", "bin": "yes", "highway": "bus_stop", "lit": "yes", "name": "Lichterfelder Ring/Waldsassener Straße", "shelter": "yes", "tactile_paving": "no", "wheelchair": "yes"}}, {"type": "node", "id": 325695087, "lat": 52.4121807, "lon": 13.3496457, "tags": {"bench": "no", "bin": "yes", "check_date:shelter": "2021-10-16", "highway": "bus_stop", "lit": "yes", "name": "Lichterfelder Ring/Waldsassener Straße", "shelter": "no", "tactile_paving": "no", "wheelchair": "yes"}}, {"type": "node", "id": 325696452, "lat": 52.4084335, "lon": 13.3505514, "tags": {"bench": "no", "bin": "yes", "highway": "bus_stop", "lit": "yes", "name": "Waldsassener Straße", "shelter": "no", "tactile_paving": "no"}}, {"type": "node", "id": 325696453, "lat": 52.4080743, "lon": 13.3507759, "tags": {"bench": "yes", "bin": "yes", "highway": "bus_stop", "lit": "yes", "name": "Waldsassener Straße", "shelter": "yes", "tactile_paving": "no"}}, {"type": "node", "id": 325705375, "lat": 52.4163898, "lon": 13.3523346, "tags": {"bench": "yes", "bin": "yes", "check_date:shelter": "2022-10-25", "highway": "bus_stop", "lit": "yes", "name": "Maximilian-Kaller-Straße", "shelter": "yes", "tactile_paving": "no", "wheelchair": "yes"}}, {"type": "node", "id": 325705377, "lat": 52.4165305, "lon": 13.3529754, "tags": {"bench": "yes", "bin": "yes", "check_date:shelter": "2022-10-25", "highway": "bus_stop", "lit": "yes", "name": "Maximilian-Kaller-Straße", "shelter": "yes", "tactile_paving": "no", "wheelchair": "yes"}}, {"type": "node", "id": 325705381, "lat": 52.4203515, "lon": 13.350466, "tags": {"highway": "bus_stop", "name": "Brotteroder Straße", "wheelchair": "limited"}}, {"type": "node", "id": 325705387, "lat": 52.4197376, "lon": 13.3510773, "tags": {"bench": "no", "bin": "yes", "highway": "bus_stop", "lit": "no", "name": "Brotteroder Straße", "shelter": "no", "tactile_paving": "no", "wheelchair": "yes"}}, {"type": "node", "id": 325705389, "lat": 52.4217279, "lon": 13.349513, "tags": {"bench": "no", "bin": "yes", "check_date:shelter": "2022-05-15", "highway": "bus_stop", "name": "Blankenhainer Straße", "shelter": "no", "wheelchair": "yes"}}, {"type": "node", "id": 325705392, "lat": 52.4225749, "lon": 13.3486866, "tags": {"bench": "yes", "bin": "yes", "highway": "bus_stop", "lit": "yes", "name": "Blankenhainer Straße", "shelter": "yes", "tactile_paving": "no"}}, {"type": "node", "id": 325705394, "lat": 52.4252, "lon": 13.3476004, "tags": {"bench": "yes", "bin": "yes", "highway": "bus_stop", "lit": "yes", "name": "St. Marien-Krankenhaus", "shelter": "yes", "tactile_paving": "yes"}}, {"type": "node", "id": 325705397, "lat": 52.4246299, "lon": 13.3478772, "tags": {"bench": "yes", "bin": "yes", "highway": "bus_stop", "lit": "yes", "name": "St. Marien-Krankenhaus", "shelter": "yes", "tactile_paving": "yes"}}, {"type": "node", "id": 325705399, "lat": 52.4290254, "lon": 13.3467903, "tags": {"bench": "yes", "bin": "yes", "bus": "yes", "highway": "bus_stop", "lit": "yes", "name": "Eiswaldtstraße", "shelter": "yes", "tactile_paving": "no", "wheelchair": "yes"}}, {"type": "node", "id": 325708857, "lat": 52.4281039, "lon": 13.3471261, "tags": {"bench": "yes", "bin": "yes", "bus": "yes", "check_date:shelter": "2021-12-21", "highway": "bus_stop", "lit": "yes", "name": "Eiswaldtstraße", "shelter": "yes", "tactile_paving": "no", "wheelchair": "yes"}},