id,lat,lon,name,street,zip_code,city
30022140,52.4934924,13.3876866,Curry 36,Mehringdamm 36,10961,Berlin
84646591,52.5308437,13.3829698,Subway,Chausseestraße 22,10115,Berlin
86001790,52.5158107,13.3899247,Subway,Behrenstraße 47,10117,Berlin
89274884,52.5200676,13.4114731,Dunkin,Rathausstraße 5,10178,Berlin
89312691,52.5226551,13.41272,Burger King,,,Berlin
106982123,52.5099118,13.53153,McDonalds,Alt-Friedrichsfelde 61,10315,Berlin
149607221,52.5404746,13.412219,Konnopke’s Imbiß,Schönhauser Allee 44b,10435,Berlin
248652663,52.5392141,13.4216014,Zweistrom,Kollwitzstraße 104,10435,Berlin
249094185,52.540858,13.4125546,Risa Chicken,Danziger Straße 2,10435,Berlin
253891060,52.5438563,13.4156212,Kreuzburger,Pappelallee 19,10437,Berlin
260753892,52.4695529,13.3711438,McDonalds,Alboinstraße 4,12103,Berlin
262366174,52.5151582,13.4627585,Subway,Frankfurter Allee 41,10247,Berlin
265462005,52.6749113,13.5376469,Asia Imbiss,,16321,Bernau bei Berlin
268072807,52.5957358,13.2909387,Marians Imbiss,Waidmannsluster Damm 18,13509,Berlin
269475044,52.5017902,13.4165385,Milchladen,Dresdener Straße 20,10999,Berlin
276134995,52.4272986,13.3655814,Hans Wurscht,Preysingstraße 9,12249,Berlin
276795907,52.432508,13.4080288,Spielelandschaft,,,
277012294,52.3911788,13.0944601,Babelsberger Küche,Schulstraße 16,14482,Potsdam
277805929,52.4803876,13.3851493,Burger King,Tempelhofer Damm 28-30,12101,Berlin
279301771,52.5264558,13.3881434,Dada Falafel,Linienstraße 132,10115,Berlin
279408216,52.5658467,13.5035112,World of Pizza,Zingster Straße 14,13051,Berlin
282420132,52.5104805,13.4562191,Pizza Dach Aceto Lokanta,Simon-Dach-Straße 12,10245,Berlin
282739417,52.51684,13.4619531,Casablanca,,,
282742878,52.518356,13.4658491,Bistro Samariter,,,
282751417,52.5149029,13.4737036,Akcan Döner,Rigaer Straße 56,10247,Berlin
282751610,52.5148419,13.4739485,Rigas Pizza Box,Rigaer Straße 56,10247,Berlin
285431956,52.5375361,13.2034674,Burger King,Carl-Schurz-Straße 37,13597,Berlin
286750068,52.4339621,13.1911015,Burger King,,,
287295063,52.529464,13.458037,Burger King,Landsberger Allee 119,10407,Berlin
287297683,52.5286587,13.4090078,Luxa,Torstraße 56,,
288893731,52.3916356,13.0910787,Bistro Femo,,,
290829129,52.4268197,13.4349825,Chinapfanne,,,
290829130,52.4268714,13.4349794,Muro Döner Kebap,,,
292728693,52.4168757,13.6252804,Imbiss am Müggelturm,,,
297800140,52.3914179,13.091269,Asia Snack,Karl-Liebknecht-Straße 4,14482,Potsdam
297807601,52.4931087,13.4151128,Ron Telesky Canadian Pizza,Dieffenbachstraße 62,10967,Berlin
298094795,52.4844684,13.3852862,Bistro Nazar,,,
300467433,52.4115191,13.5735374,Vietnam Küche,Gründerstraße 3,12526,Berlin
301644282,52.5431941,13.6928845,Raststätte Seeberg,,,
306498075,52.391555,13.0942335,Vis-a-vis,,,
307640300,52.6376263,13.205306,City Bistro,,,
307642432,52.5172949,13.3769238,Wurst,,,
308858101,52.4105368,13.3818276,,Buckower Chaussee 100-102,12277,Berlin
309447197,52.3944787,13.0897168,Sushi-Bar Lien Lien,Garnstraße 34,14482,Potsdam
310377171,52.4883391,13.3399468,Brutzelstübchen,,,
310377173,52.4813345,13.3481061,Haupt Grill,Hauptstraße 110,10827,Berlin
310377178,52.4854609,13.3554125,Max und Moritz,Hauptstraße 140,10827,Berlin
312383490,52.5001539,13.3119651,Subway,Kurfürstendamm 180,10707,Berlin
313325387,52.504856,13.337072,KFC,Tauentzienstraße 9,10789,Berlin
314671375,52.524735,13.452738,Pho Co,Ebertystraße 44,10249,Berlin
315757117,52.5264989,13.3306162,Sushi Shop,Gotzkowskystraße 34,10555,Berlin
316565528,52.5461326,13.3591332,Kaplan,Müllerstraße 153,,
316657525,52.527485,13.4801013,Macs Deluxe,,,
316772541,52.5888213,13.2847477,Laventes Grill,,,
316964004,52.3960823,13.0899028,Pizza Max,Alt Nowawes 63,14482,Potsdam
317179408,52.5458893,13.3588162,Baba Sultan Köfteci,Luxemburger Straße 34,13353,Berlin
317179409,52.5456829,13.357578,Lahmacun Kebab Haus,Luxemburger Straße 6,13353,Berlin
317179414,52.5466314,13.3591493,Orient Station,,13353,Berlin
317179416,52.5466466,13.3592059,Asia Imbiss,,13353,Berlin
317179429,52.5465521,13.3597523,Currywurst am Leo,,,
317443999,52.5160527,13.4400654,Spross Café Bistro,Straße der Pariser Kommune 35,10243,Berlin
317552398,52.432331,13.5358496,Bagel Company,Rudower Chaussee 13,12489,Berlin
317552401,52.4326337,13.535167,Subway,,,
318149465,52.521073,13.4122205,McDonalds,,,
318149466,52.5211976,13.4118911,Currywurst Express,Dircksenstraße 2,10179,Berlin
320216659,52.5343736,13.4051897,Cult Döner,Kastanienallee 48,10119,
324205115,52.571121,13.5000169,Dolce Vita,Ribnitzer Straße 10A,13051,Berlin
324792570,52.4133977,13.3630022,Pizza Ciao,Marienfelder Allee 146,12279,Berlin
324792581,52.4143333,13.3643082,Seven Grill,,,
329647142,52.5428029,13.6899836,Raststätte Seeberg,,,
333136725,52.5197964,13.3892871,dean&david,Friedrichstraße 96,,
335567493,52.5644598,13.3927796,Aris Döner & Burger,Wollankstraße 24,13359,Berlin
336117213,52.5067896,13.3077721,Beirut Grill,Kantstraße 55,10627,Berlin
350462678,52.5009253,13.418855,Maroush,Adalbertstraße 93,10999,Berlin
350499772,52.5006682,13.436245,McDonalds,Wrangelstraße 35,10997,Berlin
352924669,52.4929355,13.3687704,Hisar,Yorckstraße 49,10965,Berlin
354721203,52.5248829,13.1424802,Bistro Kaya,,,
362861264,52.5110815,13.4584427,Sanabel,Gabriel-Max-Straße 16,10245,Berlin
367081176,52.5068373,13.3070777,Lanzhou Beef Noodles,Kantstraße 56a,10627,Berlin
370400278,52.5103092,13.271345,Prime Kebab,Reichsstraße 1,14052,Berlin
376053800,52.532925,13.399735,Riha Bistro,Veteranenstraße 27,10119,Berlin
380497987,52.5092183,13.3770918,Pret A Manger,,,
388520288,52.3898738,13.6507094,,,,
388579116,52.598019,13.3764618,Irem Bistro,,,
390427086,52.434117,13.4215617,Burger Garden,,,
390470723,52.537582,13.2191283,McDonalds,Am Juliusturm 42-46,13599,Berlin
392404648,52.5176798,13.4410506,Bistro 93,Karl-Marx-Allee 93,10243,Berlin
407094160,52.51226,13.5885443,Mac Kebab,,,
409353486,52.5057935,13.5604279,Dönerpoint,Weißenhöher Straße 108,12683,Berlin
410135925,52.4984909,13.4424784,Nour,Wrangelstraße 81,10997,Berlin
410135941,52.4982746,13.4302367,Pizzeria Piccola Musica,,,
410135953,52.5007365,13.4420873,Pizza Espresso,Schlesische Straße 1,10997,Berlin
410174470,52.537965,13.6343757,Mc Kebap II,Mahlsdorfer Straße 63e,15366,Hoppegarten
410214240,52.5924287,13.2668639,Park-Imbiss,,,
417009812,52.4862522,13.3613204,Efdal,Czeminskistraße 55,10829,Berlin
417128855,52.4847122,13.3460833,Dolce Pizza,Belziger Straße 73,10823,Berlin
417237678,52.4939684,13.4633423,Löcknitz-Forelle Imbiß,,,
426687397,52.5022791,13.3425297,Wittys Organic Food,Wittenbergplatz 5,10789,Berlin
426973261,52.4602941,13.3245563,Falafel Baba,,,
427670053,52.5120307,13.4965401,Payamlino Bistro,,,
427670064,52.5117362,13.4970339,Isys Dönerpoint,,,
427670068,52.5120768,13.4983124,Bambus Bistro,Frankfurter Allee 251,10365,Berlin
427670069,52.5120631,13.4985416,Burger City,Frankfurter Allee 255,10365,Berlin
427670070,52.5120768,13.4984638,Asia-Imbiss,,,
427901484,52.4328293,13.4154457,Am Modellboothafen,,,
428114310,52.4857245,13.3549951,Brammibal’s Donuts,Hauptstraße 26,10827,Berlin
428889381,52.6371696,13.4923264,Akcan Döner,Wiltbergstraße 34,13125,Berlin
429740258,52.50905,13.3771155,dean&david,,,
430545834,52.466214,13.3852325,Risa Chicken,Tempelhofer Damm 144,12099,Berlin
431245850,52.5180225,13.4553319,Saigon Shack,,,
432486561,52.52195,13.32624,Anni Kitchen,Helmholtzstraße 26,10587,Berlin
433914645,52.5295556,13.2965362,Dalinji,,,
434557868,52.3725075,13.615378,Bistro Mavi Ay,,,
434558344,52.3723558,13.6149869,Pizza-Europa Express,,15732,Eichwalde
436624045,52.4315358,13.5377539,extraSuppe,Albert-Einstein-Straße 1-3,12489,Berlin
437195224,52.5194319,13.4108241,Hong Kong Express,,,Berlin
437546059,52.3631833,13.1374299,Kebap Haus Felsenstein,,,
437611378,52.5204075,13.4049136,Nordsee,Spandauer Straße 4,10178,Berlin
438210603,52.4640973,13.5469131,Fritten Fritze,,,
441283250,52.5377105,13.2022098,Pho & More,,,
441514946,52.4787083,13.4254935,Haci Gemüse Kebap,,,
441514948,52.4792133,13.4258225,Burger Pause,Hermannstraße 219,12049,
441514949,52.4792568,13.4258084,Sam Asia Imbiss,,,
441734599,52.4808248,13.4356816,My Döner,,,
442369659,52.405824,13.234512,Tele Pizza,Zehlendorfer Damm 121,14532,Kleinmachnow
442388893,52.4590422,13.3841751,Bistro Rose 2,Tempelhofer Damm 196,12099,Berlin
442390304,52.4567621,13.3835656,Tempelhofer Bistro Grillhaus,,12099,Berlin
442390877,52.4561837,13.3835293,Libanon Snack,Tempelhofer Damm 222,12099,Berlin
442390882,52.4546765,13.384467,Maximilian Hafenimbiss,,,
442391301,52.4525517,13.3848278,Imbiss Tang,,,
442392125,52.4485343,13.3849052,Mangal,Mariendorfer Damm 48,12109,Berlin
442393070,52.447092,13.3852588,Basileus Pizza & Birgül Döner,Mariendorfer Damm 62,12109,Berlin
442394430,52.4435414,13.3864852,Dominos,Mariendorfer Damm 103,12109,Berlin
442394431,52.4434388,13.3865671,Kebaphaus,Mariendorfer Damm 103,12109,Berlin
443458065,52.5197446,13.3886757,Nonnas,,,
443728420,52.5380798,13.2064747,Isola Verde,,,
445842531,52.5045012,13.3369649,McDonalds,Tauentzienstraße 9-12,10789,Berlin
446899198,52.468919,13.4474776,Curry Pelle,Mittelbuschweg 16-17,12055,Berlin
447974137,52.4591906,13.4477661,Z Burger,,,
448811286,52.4866448,13.4244448,Viet Gourmet,,,
448913484,52.5478264,13.4130663,Steinofen Pizza To-Go,,,
449198142,52.3961677,13.7181836,"""Mahlzeit""",,,
449201287,52.3951777,13.7181488,Döner-Imbiss,,,
449201362,52.3952378,13.7179687,Fleischer-Imbiss,,,
451613198,52.5358582,13.1912464,Der Pizzamann,Seegefelder Straße 41,13583,Berlin
452106549,52.4484061,13.2758434,Cơm bụi,Garystraße 46,14195,Berlin
452635001,52.4247579,13.4866527,Sawaddi,Stubenrauchstraße 129,,
454167246,52.5630481,13.4124659,Berliner Grillhaus,Berliner Straße 30,13189,Berlin
454251011,52.491017,13.4352896,Love Deluxe,Pannierstraße 32,12047,Berlin
454358577,52.5369581,13.1888144,Bistro Kübra,Seegefelder Straße 57,13583,Berlin
454358584,52.5370777,13.1885504,,,,
454633657,52.4610126,13.4799191,Atilas Kebap Haus 2,Sonnenallee 412,12437,Berlin
456421031,52.4423952,13.457122,Goldhähnchen,,12351,Berlin
458741715,52.4600803,13.4197113,Big Food,,,
458741716,52.455128,13.4094763,Bei Ivo,,,
459093473,52.5262293,13.4516964,Piano Piano,,,
459671854,52.5810104,13.4034945,Med Bistro,,,
459676366,52.5836547,13.4027512,B&B Focaccia,Kuckhoffstraße 1,,
460199528,52.4679602,13.4667386,Kölle Pizza,,,
461899526,52.367542,13.561218,McDonalds,,,
461943573,52.4737004,13.4503572,Schudomaer Grill,Schudomastraße 9,12055,Berlin
464764424,52.4656293,13.4260971,Akram Arabic Diner,Silbersteinstraße 115,12051,Berlin
469165337,52.4334846,13.4194361,Britzer Höhe,,,
472372228,52.4619471,13.4452036,Gül Bistro,Buschkrugallee 24,12359,Berlin
473066908,52.4220522,13.2992739,,,,
474954965,52.4981786,13.4290467,Chaparro,Wiener Straße 14a,10999,Berlin
477403949,52.4694126,13.4413955,Haci Baba,Karl-Marx-Straße 228,12055,Berlin
477410513,52.4695737,13.4421592,Pizza Pasta,,,
477454200,52.4679284,13.4428419,Lahn-Grill,,,
477558654,52.5107353,13.4563544,Döner Dach Aceto Lokanta,,,
479552606,52.5122227,13.4922229,Grillhaus,,,
485936333,52.5495698,13.4133325,Alain Snack,Schönhauser Allee 116a,10439,Berlin
492022196,52.6181986,13.3364178,Kiosk Freibad Lübars,,,
493681695,52.5178897,13.5419684,Currywurst,,,
501074606,52.551397,13.3838128,Fendi,,,
506197878,52.5439758,13.4244157,Falafel Aladdin,Stargarder Straße 50,10437,Berlin
506265964,52.5261165,13.6829201,Nemrut Imbiss,,,
508640816,52.5891461,13.2815105,Bergmann Pizza,,,
509477411,52.5127305,13.4957,Bistro,,,
513958818,52.4721031,13.4410035,Bistro Phoviet 120,Karl-Marx-Straße 200,12055,Berlin
515660626,52.4905655,13.45759,San Mendoza,,,
519223365,52.5054057,13.5147909,Bistro Legende,Alfred-Kowalke-Straße 1,10315,Berlin
519914006,52.5839577,13.2868824,McDonalds,Am Borsigturm 2,13507,Berlin
520575822,52.4507025,13.339613,Krasselts Imbiss,Steglitzer Damm 22,12169,Berlin
521498877,52.4819483,13.3205912,Blisse Imbiss,Blissestraße 37,10713,Berlin
521551504,52.536611,13.2750098,Asian Snack,,,
521990108,52.5050537,13.4766674,Final Bistro,,,
528641088,52.4211667,13.5390108,Imbiss - Bernd Schulz,,,
530715904,52.5421992,13.3576322,Subzees,Sprengelstraße 42,13353,Berlin
538057674,52.4581244,13.5783354,Asiagourmet,Bahnhofstraße 33-38,12555,Berlin
538057886,52.458461,13.5765016,Bistro Bonjour,Bahnhofstraße 33-38,12555,
538058019,52.4580798,13.5764699,Thang Long,Bahnhofstraße 33-38,12555,
538058226,52.4582013,13.5781383,Center-Grill,,,
538058854,52.458139,13.5780937,Nordsee,,,
538127564,52.3607403,13.4097778,City Grill,Am Bahnhof 6 A,15831,Blankenfelde-Mahlow
538889357,52.5231418,13.379363,Sabzi,Luisenstraße 15,10117,Berlin
539491861,52.4657375,13.4875279,Pizzeria Dilara,Baumschulenstraße 18,12437,Berlin
539757566,52.5465821,13.405815,The Bird,Am Falkplatz 5,10437,Berlin
540812448,52.4340204,13.3595309,Vuong Asia Bistro,,,
541076047,52.5408636,13.4149494,Papa Nô,Danziger Straße 11,10435,Berlin
541076899,52.5406044,13.4166777,Cem Grill,Schliemannstraße 1,10437,Berlin
541077707,52.5401414,13.4195631,Nymami,Danziger Straße 43,10435,Berlin
541077983,52.5404393,13.4176606,Red Dragon,Danziger Straße 29,10435,Berlin
546290481,52.5307955,13.3309254,Darbar,Wiclefstraße 42,10551,Berlin
549227035,52.5801754,13.3973948,Zagros Bistro,,,
549737016,52.5142104,13.4743862,Nordsee,Frankfurter Allee 111,10247,Berlin
549740059,52.5140608,13.4755647,McDonalds,Frankfurter Allee 113,10365,Berlin
549760116,52.5440231,13.4983554,Daliss,Große-Leege-Straße 97/98,13055,Berlin
549932966,52.4628025,13.5114134,Pizza & Pasta,,,
551333488,52.5444987,13.4929059,Asia FastFood,,,
551333687,52.544303,13.4925119,Konrad´s Kebab House,Konrad-Wolf-Straße 22,13055,Berlin
551334510,52.5431683,13.4912568,Kobani Bistro,Konrad-Wolf-Straße 109,,
557918947,52.533089,13.3287365,Beussel Grill,,,
559630083,52.548669,13.5036498,Fantasia Pizza Döner,Hauptstraße 9A,,
560145209,52.5469632,13.4174044,1001 Falafel,Stargarder Straße 73,10437,Berlin
564160843,52.6707784,13.2822579,Palast Imbis,,,
566398011,52.511108,13.4354502,Bistro International,Erich-Steinfurth-Straße 7,10243,Berlin
567167721,52.5457879,13.4147288,Pizza Star,Greifenhagener Straße 62,10437,Berlin
570225669,52.4648811,13.5141446,Mega Bistro,Griechische Allee 1,12459,Berlin
573384943,52.5123582,13.4727773,China & Thai Bistro Kokos,,,
573384944,52.5136838,13.4725763,Center Grill,,,
576282005,52.5479593,13.5035251,Asia Bistro Storchenhof,,,
576282007,52.5479593,13.5037647,Zum Adebar,,13055,Berlin
577338551,52.655761,13.5383381,Leos Imbiss und Getränkeservice,,,
577346825,52.6551708,13.5404066,Star Döner,,,
578429141,52.5183074,13.4158213,McDonalds,Grunerstraße 20,10179,Berlin
582854281,52.422213,13.371144,Jörgs Curry Container,Hranitzkystraße 15,12277,
586372971,52.3868213,13.3955649,Am Mittelmeer,Prinzessinnenstraße 2,12307,Berlin
588557948,52.5484221,13.4530819,Oppen’s Diner & Fleischerei,Mahlerstraße 3,13088,Berlin
592353523,52.5232666,13.4809384,Alanya Bistro,,,
600109639,52.5535441,13.5201166,CurryEck63,,,
602315661,52.5204659,13.412885,Asiagourmet,,,
602315662,52.5206115,13.4127011,KFC,Dircksenstraße 117,10178,Berlin
602315665,52.5205059,13.4128261,Döner Curry,,,
603034328,52.5105253,13.451292,Oase,Warschauer Straße 25,10243,Berlin
603742941,52.5368767,13.2716974,Grillimbiss,,,
608516548,52.470487,13.4796036,Asia Snack,,,
608658018,52.5847287,13.3119656,Imbiss,Holzhauser Straße 140 e,13509,Berlin
610197807,52.3867878,13.403377,Curry-Wolf,Bahnhofstraße 15,12305,Berlin
610198319,52.4130468,13.4016355,Heikes Holzkohlengrill,Lichtenrader Damm 12,,
610489620,52.5051372,13.307374,China Pfanne,,,
613536373,52.5219055,13.3259985,CoffeeCake&Food,Helmholtzstraße 27,10587,Berlin
613536377,52.5221139,13.3272162,The little Bangkok in Berlin,Helmholtzstraße 22,10587,Berlin
614490869,52.5701365,13.3129247,Imbiss König,Eichborndamm 22,13403,Berlin
615020654,52.5000138,13.4434634,Curry 7,,,
615607317,52.4822967,13.4319196,McDonalds,,,
615952483,52.4171994,13.314585,LQ Sushibar-Asiawok,,,
616244451,52.5494443,13.3870522,Curry-Baude,Badstraße 1-5,13357,Berlin
616921896,52.5278649,13.3284776,Aras,,,
617630720,52.5265625,13.3353365,La Döner Vita,,,
617630780,52.5276339,13.3284696,Döner 21,,,
617987239,52.5321525,13.3425101,Birken-Eck,,,
618609701,52.5055145,13.3305178,Biers Mini 7,Kantstraße 7,10623,Berlin
618613702,52.5010809,13.3187969,Biers Kudamm 195,,10707,Berlin
620704410,52.4829543,13.4380238,Pizza Pallazzo,,,
620704417,52.4836193,13.4366095,Al-Pascha,Sonnenallee 77,,
620850020,52.4455859,13.445319,Sumak,,,
623350251,52.4874138,13.3550009,Schüsseldienst,Akazienstraße 7,10823,Berlin
624646233,52.5274403,13.3301531,Green 56,Turmstraße 56,10551,Berlin
627037219,52.5500096,13.3869449,Döner Center,Behmstraße 3,,
627415721,52.5510923,13.3842602,Yesil Fırın,,,
630430814,52.4690352,13.3812689,Kantine Ringbahnstraße,Ringbahnstraße 96,12103,Berlin
632298538,52.4986793,13.4312222,Rissani,Spreewaldplatz 4-6,10999,Berlin
634882639,52.4091449,13.5724481,Bistro Varna,,,
634882660,52.4044938,13.5601171,Paradies Grill,Paradiesstraße 212,12526,Berlin
635820528,52.4623528,13.326287,Burgermeister,Schloßstraße 117,12163,Berlin
637034927,52.4514147,13.2825056,Oh my Bap,,,
639631252,52.5060384,13.4961055,AVCI Café & Bistro,,,
639631282,52.5088702,13.497386,AVCI Bistro,,,
643073980,52.5281122,13.5391965,Dominos,Helene-Weigel-Platz 5,12681,Berlin
643227698,52.4297551,13.4547802,Burgermeister,,,
643509394,52.5495858,13.3877056,Dunkin,Badstraße 4,13357,Berlin
645677474,52.526714,13.3374828,Smackburger,,,
646593037,52.5495205,13.3879083,Brave Burger,Badstraße 4,13357,Berlin
648207420,52.5098108,13.498338,Lavendel Viet,,,
650056055,52.4789041,13.4810197,Asia Imbiss,Dammweg 56,12435,Berlin
652049349,52.4246413,13.4359429,Dominos,,,
652785190,52.5278267,13.537744,Miran Bistro,,,
652880708,52.5284921,13.4024055,Food Brother,Rosenthaler Straße 67,10119,Berlin
655118060,52.5393888,13.6079596,Call a Pizza,Quedlinburger Straße 16,12627,Berlin
658612629,52.4589,13.3230783,Zur Bratpfanne,,12163,Berlin
659034066,52.4228277,13.3707579,Marienfelder Bistro,,,
660130778,52.44702,13.2831931,Mensa Shokudō,Vant-Hoff-Straße 6,14195,Berlin
661126952,52.5102915,13.3057733,Yuppis,Wilmersdorfer Straße 129,10627,Berlin
661126956,52.5153158,13.301338,Maxim´s China-Imbiss,,,
662086926,52.4149931,13.4012323,Barlys,,,
663298045,52.4805877,13.3121951,Sila Grillhaus,,,
663611904,52.479461,13.2856158,Mariannes Imbiss,,,
664028702,52.3769788,13.093669,Bei Addi,,,
664165956,52.439259,13.5075641,Segelfliegerklause,,,
664244057,52.4750015,13.2924623,Adana Imbiss,Breite Straße 20,14199,Berlin
665267032,52.5369006,13.2756383,Manous Schlemmerbude,,,
665503410,52.4279872,13.7449768,Gaststätte Ziech,,15537,Erkner
665535090,52.5039868,13.3364255,Zaddys,Tauentzienstraße 13-13a,10789,Berlin
666348236,52.4126791,13.5720502,Cua-Tung,,,
667211384,52.5159467,13.2606416,Westend Grill,,,
667445242,52.4301731,13.2593821,Efes,,,
667859614,52.5204757,13.403751,Subway,Spandauer Straße 3,10178,
668071755,52.5525331,13.3803771,Atis Gemüse Kebap,Badstraße 49a,13357,Berlin
668899449,52.5041419,13.5122436,Memory,,,
669716292,52.5262102,13.4971845,,,,
671481369,52.5226003,13.4656399,Musti Bistro,,,
671487867,52.5226267,13.4654695,Viet Thai Bistro,,,
672897977,52.5162405,13.4788748,Bistro Kristall M&M,,,
673639048,52.5050521,13.3073812,Tasty Döner 63,,,
674019819,52.5431736,13.3926145,Tatlises Grill,Brunnenstraße 78,,
674086087,52.5482125,13.2012181,Maga-Imbiss,,,
674086095,52.5489654,13.200447,Abbas Bek,,,
674108692,52.5335417,13.1982903,McDonalds,,,
675212899,52.6073964,13.12128,Siggis Imbiss,,,
678306038,52.4751269,13.2907352,Viet-Thai Box,Warnemünder Straße 1,14199,Berlin
678524200,52.3585075,13.0986776,City Grillstation,Arthur-Scheunert-Allee 1a,14558,Nuthetal
678901090,52.4578817,13.2925563,Asia-Snack Dahlem,Königin-Luise-Straße 38,14195,Berlin
679121519,52.5097376,13.4601745,Yoyo Foodworld,Gärtnerstraße 27,10245,Berlin
679671274,52.6066215,13.2120614,Linden Baude,,,
687026166,52.513864,13.4755015,Fresh Go,,,
689563396,52.4839951,13.3527102,Chibo,Hauptstraße 128,10827,Berlin
689563415,52.490636,13.3608188,Sufi,,,
693289397,52.4133058,13.3539303,Kebap Club,,,
693892023,52.5042276,13.3076315,Viets,,10629,Berlin
693892030,52.5040945,13.3076799,Leckere Mahlzeit,,10629,Berlin
695831683,52.4884468,13.3010624,König Döner,Hohenzollerndamm 48,10713,Berlin
697297187,52.5415085,13.4387457,ISY Dönerpoint,Greifswalder Straße 166,10409,Berlin
697907404,52.5488793,13.414101,China Box,,,
698789138,52.5047687,13.4779093,Viktoria Bistro,,,
699533699,52.403522,13.5072997,Asia Imbiss,,12355,Berlin
699538773,52.4165883,13.4972773,China Town Thai,,,
700103410,52.4990007,13.3357092,City Imbiss,Lietzenburger Straße 29,10789,Berlin
700981349,52.4037957,13.5057457,Pizza Jack,Elly-Heuss-Knapp-Straße 21,12355,Berlin
701071949,52.4180008,13.4955106,Burgerzimmer 3,Alt-Rudow 57,12357,Berlin
702364072,52.4039095,13.5067054,Döner & Asia,,,
703607127,52.5517902,13.3809832,Ya Hala,,,
705023614,52.5443112,13.3689072,Berlin Midye,,,
705573153,52.6184006,13.486747,Thai Asia,,,
705926405,52.5192509,13.4530213,Tio Grillhaus,Petersburger Straße 77,10249,Berlin
707365140,52.5478848,13.3747301,Adams Burger,Pankstraße 26,13357,Berlin
707409465,52.544655,13.367252,Simit 24,Gerichtstraße 52,13347,Berlin
711697577,52.551563,13.3826273,Hunkar Sofrasi,Badstraße 57,13357,Berlin
715203759,52.488677,13.322468,Dominos,Uhlandstraße 87,10717,Berlin
715911684,52.5100042,13.3146831,Sing-Le,Leibnizstraße 20,10625,Berlin
718143686,52.515696,13.2527384,Imbiss Olympische Brücke,Olympische Straße 31,14052,Berlin
719313894,52.5526975,13.3791828,Imren,,,
723170413,52.5102176,13.4596622,Burgeramt,Krossener Straße 22,10245,Berlin
724014449,52.5417003,13.3702188,Wedding Grillhaus,Reinickendorfer Straße 9,13347,Berlin
724014451,52.551904,13.3811425,Akko,Pankstraße 52,13357,Berlin
724151408,52.5245738,13.3688644,Burger King,Europaplatz 1,10557,Berlin
725621496,52.4729861,13.314102,Streetfood by la vucciria,Rüdesheimer Straße 8,14197,Berlin
725621505,52.4725668,13.3146625,Pizza E Pasta,Rüdesheimer Straße 9,14197,Berlin
726643465,52.5280661,13.5377534,China Imbiss,,12681,Berlin
727814440,52.5467137,13.4057609,Song Nguu,Am Falkplatz 5,10437,Berlin
727852079,52.4945908,13.354267,Berlin Burrito Company,Pallasstraße 21,10781,Berlin
729587085,52.5520312,13.3815608,Baba Sultan,,,
729587087,52.5516381,13.3824662,Breakfast,,,
732413394,52.4903573,13.3149173,Fattoush,,,
734707653,52.3930689,13.0926161,Babelsberger Küche,Karl-Liebknecht-Straße 11,14482,Potsdam
735530414,52.5749321,13.3143269,Imbiß Stube,,,
735944534,52.4446774,13.5679747,Istanbul Grill,,,
736814197,52.3828358,13.2440323,Chopsticks,Ruhlsdorfer Straße 95,14532,Stahnsdorf
737202792,52.526903,13.4789037,Bistro Max & Moritz,,,
740152658,52.5558161,13.207291,Havel Bistro,Streitstraße 80,13587,Berlin
742015724,52.4248862,13.4621873,By Murat & Okis,,,
746628481,52.6745699,13.5730658,,Zepernicker Chaussee 9,16321,Bernau bei Berlin
746853036,52.5806002,13.4012032,Yaman Kebab,,,
746853056,52.5806189,13.4013285,Golden Asia,,,
747512476,52.5880316,13.4015214,Palast,Dietzgenstraße 77,13156,Berlin
752903320,52.4734439,13.453025,Pizza Mimo,Braunschweiger Straße 12,12055,Berlin
753328970,52.568608,13.4114857,Berliner Currywurst,,,
759996683,52.6711062,13.5534834,Imbiss,,,
760605073,52.4799407,13.417941,Mmaah,Columbiadamm 160,10965,Berlin
761371630,52.4450771,13.5740095,Final Bistro,,,
762607347,52.5414675,13.3500555,Kubi,,,
764521083,52.6351177,13.2093624,Fisch-Eck,Hafenstraße 2,16761,Hennigsdorf
765928593,52.4802036,13.3524664,Döneria,Dominicusstraße 55,10827,Berlin
766742191,52.490087,13.4086881,Roll Inc.,Körtestraße 30,10967,Berlin
766875147,52.4375002,13.5473059,Boggis Gemüse Kebap,Dörpfeldstraße 31,12489,Berlin
766875149,52.4379273,13.5478837,Markt-Imbiss,,12489,Berlin
766875186,52.4350976,13.5423178,Adler Burger,Abtstraße 1,12489,Berlin
769328327,52.5740065,13.3588254,Erdbeere,,,
769849996,52.5665029,13.3632336,Irmak Grillhaus,,,
770089184,52.5098606,13.4582298,No Hablo Español,Gabriel-Max-Straße 3,10245,Berlin
771332561,52.5013936,13.342139,ViVo,Wittenbergplatz 1,10789,Berlin
771332581,52.503807,13.3440644,Reva,Bayreuther Straße 3,10787,Berlin
773305668,52.4116521,13.5731399,Grünau Döner & Pizza,Richterstraße 10,12526,Berlin
775342927,52.4585682,13.3220286,Cebo’s Gemüsedöner,,,
778710939,52.5405901,13.41159,Atix,Kastanienallee 2,10435,Berlin
778710954,52.5398233,13.4113062,KUps Gemüse Kebap,Kastanienallee 102,10435,Berlin
778710973,52.5389081,13.4097955,Habba Habba,Kastanienallee 15,10435,Berlin
779158280,52.4820156,13.3490227,Fresh Bistro,Hauptstraße 113-115,10827,Berlin
783442831,52.5409232,13.4138461,PIZZA ePASTA,,,
783442834,52.5408248,13.4128739,Ali Baba,,,
783442844,52.5410547,13.4130799,Burgeramt,Danziger Straße 1,10435,Berlin
783442850,52.5410315,13.4132143,Aris Diner,Danziger Straße 3,10435,Berlin
791236046,52.5133196,13.4533566,Co Ha,,,
792494423,52.5730322,13.3590207,Residenz,,,
793020072,52.5373002,13.3964372,Brunnen Dönerhaus,,,
793735854,52.5403327,13.402659,Prinzen Falafel,,,
794059331,52.545914,13.554491,Myster Döner,Marzahner Promenade 45,12679,Berlin
798557599,52.4556846,13.3221996,Metro Döner,,,
801096150,52.4013274,13.2604902,Teltower Grillhaus,,,
802697318,52.447173,13.314995,Telepizza,Hindenburgdamm 78,12203,Berlin
811216907,52.5405591,13.4386894,McDonalds,Greifswalder Straße 80,10405,Berlin
811250424,52.5851856,13.3668569,Majesty Grill,Hauptstraße 9,13158,Berlin
813918027,52.4431579,13.2968098,Kristall Imbiss,Drakestraße 33a,12205,Berlin
819316490,52.4966536,13.3537963,Habibi,Goltzstraße 24,10781,Berlin
821587321,52.4816945,13.3038371,Snackpoint Sommerbad Wilmersdorf,,,
823311535,52.4469666,13.2298552,imbiss,,,
823345467,52.3918056,13.0946295,Imbiss Sanssouci,Rudolf-Breitscheid-Straße 47/48,14482,Potsdam
824826703,52.5669881,13.4107888,Sultan Grill,Florastraße 51,13187,Berlin
825221198,52.4736355,13.3020287,Wittys,Wiesbadener Straße 53,14197,Berlin
828086987,52.5671599,13.4117047,Bistro Avci,Florastraße 52,13187,Berlin
831370024,52.5068253,13.3071026,Falafel,Kantstraße 56a,10627,Berlin
832835231,52.5523657,13.366537,First Grillhaus,Reinickendorfer Straße 70,13347,Berlin
832835248,52.5514792,13.3677378,Kebaphaus,,,
832835266,52.5519123,13.3667833,Polat Hähnchengrill,,,
832835288,52.5503168,13.368458,Call a Pizza,Reinickendorfer Straße 48,13347,Berlin
832840928,52.4914281,13.3947858,Orginal Chicken Gemüse Kebap,,,
833955538,52.4544017,13.3959328,Imbiss bei Ines,Volkmarstraße 14,12099,Berlin
837695978,52.4330937,13.5356472,Fleischimbiss,Rudower Chaussee 12,12489,Berlin
837695994,52.4332087,13.5354084,Döner,,,
837696891,52.4445986,13.5175161,Grillbus,Groß-Berliner Damm 75,12487,Berlin
838429712,52.5060163,13.4661547,Call a Pizza,Sonntagstraße 11,,
838429769,52.505027,13.4673989,LOrient,,,
838429798,52.5047135,13.4677651,Burgers Berlin,Sonntagstraße 2,10245,Berlin
838440474,52.5038036,13.4690084,Wurstland,,,
839083366,52.489912,13.3601424,three buddies,Hauptstraße 159,10827,Berlin
841530560,52.5655399,13.4061259,Sahara Imbiss,Florastraße 67b,,Berlin
847906246,52.4675348,13.5130053,Bistro Edison,Edisonstraße 36B,12459,Berlin
848508705,52.4992739,13.4193661,Misir Carsisi,Skalitzer Straße 134,10999,Berlin
848875729,52.4995381,13.4173579,7days Finest Fresh Food,Reichenberger Straße 175,10999,Berlin
849521578,52.44111,13.5867128,Pablo Döner Bistro,,,
850619776,52.4204788,13.369354,Pizza Max,,,
851492635,52.4341195,13.414581,Imbiss,,,
854528522,52.4786802,13.4220056,Croccante Pizza napoletana,,,Berlin
858273179,52.4604168,13.3233757,Döner King,,,
862031027,52.5150045,13.3151586,Currystation-36,,,
863962683,52.5064172,13.4701335,Crunchy,Boxhagener Straße 68,10245,Berlin
863962760,52.506729,13.4687301,Vöner,Boxhagener Straße 56,10245,Berlin
863962803,52.5057109,13.4695834,Machete,Neue Bahnhofstraße 29,10245,Berlin
863962822,52.5057981,13.4701854,Thron Burger,Neue Bahnhofstraße 7A,10245,Berlin
863962824,52.5063917,13.4702176,Best of Grill,Boxhagener Straße 68,10245,Berlin
863962932,52.5065906,13.4690727,Happy Asia,Boxhagener Straße 57,10245,Berlin
864945529,52.4651474,13.3947403,Birecik Döner Kebab,,,
865949811,52.4995697,13.4175755,Cem’s Diner Burgerhouse,Reichenberger Straße 174,10999,Berlin
866007372,52.4997529,13.4178805,Huy Hoang,Adalbertstraße 98,10999,Berlin
866013501,52.5029073,13.4137536,Mimatoha,Oranienstraße 47,10969,Berlin
866021764,52.4994353,13.4166734,Izmir Köftecisi Konak Grill,Reichenberger Straße 10,10999,Berlin
867855171,52.5000914,13.4185943,Lezzet Grill,,10999,
871561387,52.5014649,13.4190249,falafelwerk,Oranienstraße 30,10999,Berlin
871641846,52.4999715,13.4179142,Taka Fischgrill Stube,,,
871641848,52.4995472,13.4172643,Orient Eck,,,
872141192,52.4999085,13.4231539,1001 Falafel,Oranienstraße 194,10999,Berlin
872204136,52.4989158,13.4216651,Tekbir Döner,,,
874272578,52.4999492,13.4180371,Çiğköftem,,,
874317214,52.5019071,13.4173809,pizzys,Oranienstraße 38,,
874355744,52.5031283,13.4130178,Burgerkette,,,
876479034,52.5118586,13.4554806,Nil,Grünberger Straße 52,10245,Berlin
876479035,52.5118348,13.4556012,Goldies,Grünberger Straße 52,10245,Berlin
876492487,52.5119369,13.4564565,principessa,Grünberger Straße 55,10245,Berlin
876497311,52.5117429,13.4561409,Babek 2,,10245,Berlin
880651949,52.5362126,13.271535,M&D Grillhaus,Reisstraße 20,13629,Berlin
883518610,52.4912746,13.4161838,Pizzeria Sicilia,Graefestraße 27,10967,Berlin
886109077,52.4985101,13.428061,Imren,Wiener Straße 11,10999,Berlin
886152063,52.4986883,13.4275425,Miranda,Wiener Straße 8,10999,Berlin
886396519,52.4973673,13.3541683,Agenor Falafel,Maaßenstraße 14,10777,Berlin
895721096,52.526299,13.3383799,Curry Eck,,,
897444078,52.4884551,13.4286356,Sahara Imbiss,Reuterstraße 56,12047,Berlin
899286045,52.5736031,13.351427,Femo Döner Burger,,,
910465447,52.4982521,13.3177594,Rico Falafel,Pariser Straße 39,10707,Berlin
913248497,52.5145933,13.4981138,Selin,Siegfriedstraße 203A,10365,Berlin
914792633,52.4990153,13.3355539,Sushi Yana,Lietzenburger Straße 29,10789,Berlin
918358493,52.5163021,13.2937033,DöPi 19,,,
922523983,52.4200859,13.161857,Peter bringts by Peter Pane,Königstraße 12,14109,Berlin
924592371,52.3735088,13.4665706,Imbiss 68,,,
925385008,52.4108417,13.3085392,Kiosk,,,
939667416,52.5415999,13.3490935,Adi Yaman Grill:02,Föhrer Straße 11,,
939667418,52.5415766,13.3489907,Pi.Pa.Sa,Föhrer Straße 10,13353,Berlin
939667423,52.5415525,13.3488393,Butts Spicy Kitchen,Föhrer Straße 10,13353,Berlin
939667450,52.5416266,13.3492149,Spice,Föhrer Straße 11,13353,Berlin
945649945,52.4332975,13.1897258,Easy Rider,,14129,Berlin
946947081,52.3437925,13.4353009,Call a Pizza,,,
947967998,52.4893485,13.4084053,Habibi,Körtestraße 35,10967,Berlin
950599858,52.5106671,13.4023123,Spätzle-Club,Seydelstraße 2,10117,Berlin
951583795,52.4403785,13.601226,Trattoria Pizzeare,Müggelschlößchenweg 44,12559,Berlin
954838581,52.3918639,13.0955898,Karli Döner,Rudolf-Breitscheid-Straße 52,14482,Potsdam
959238588,52.488763,13.408222,Döner Burger Haus,Hasenheide 61,10967,Berlin
959287072,52.5244815,13.4031679,Kebab Kitchen,Rosenthaler Straße 46,10178,Berlin
960239446,52.4436128,13.3159115,Döner Box,Hindenburgdamm 42,12203,Berlin
960892957,52.5147405,13.4742624,Curry Piraten,,,
963681283,52.4862649,13.3942449,Akimi Sushi & More,Friesenstraße 13,,
963681290,52.4883752,13.3946678,Call a Pizza,Arndtstraße 6,10965,Berlin
967109628,52.4967445,13.353789,Schöneburger,Goltzstraße 24,10781,Berlin
971003155,52.4845443,13.3015895,Eisbärchen,,,
972319913,52.5110599,13.4167593,Döner Box,Köpenicker Straße 76,10179,Berlin
975312181,52.5226768,13.4011539,Mustafa Demirs Gemüsekebab,Neue Promenade 7,,
982716529,52.5136078,13.4737183,Thai-Snack,,,
987950846,52.5494566,13.4146805,Subway,Schönhauser Allee 78,10439,Berlin
990222340,52.4864595,13.430857,Berlin Burger International,Pannierstraße 5,12047,Berlin
990855440,52.4359722,13.3467415,MC Curry,,,
992805876,52.4302786,13.3338363,Knorke,,,
992805900,52.437068,13.3448426,Kings Döner,,,
992806032,52.4368693,13.3449523,Asia Imbiss,,,
992806038,52.4354068,13.343927,Döneria,,12247,Berlin
994718562,52.5007079,13.4421693,Bagdad,,,
997194070,52.4904942,13.4229424,Imren Grill,Boppstraße 10,10967,Berlin
999294630,52.490943,13.3611393,Burger Vision,Hauptstraße 163,10827,Berlin
999444297,52.5212651,13.5479271,Luisen-Stübchen,Luise-Zietz-Straße 82,12683,Berlin
1001470684,52.4881383,13.3543709,Habibi,Akazienstraße 9,10823,Berlin
1002586825,52.4277184,13.3252409,My Asia Küche,,,
1003097095,52.5400764,13.416879,Falafel Daye,,,
1006711247,52.4354254,13.3126401,Döner Karwendel,,,
1016454158,52.5118772,13.2968903,XL Döner Sophie,Schloßstraße 27b,14059,Berlin
1018906439,52.4974306,13.4312012,NEM,,,
1026430998,52.5595996,13.2414943,Kiosk im Saatwinkel,,,
1029802248,52.4313704,13.2593178,Curry Station,Teltower Damm 35,14169,Berlin
1030066965,52.5346282,13.4961129,Burger King,Landsberger Allee 277,13055,Berlin
1030067036,52.5345506,13.495928,Mehas Food Berlin,Landsberger Allee 277,13055,Berlin
1030067044,52.5349736,13.4967825,Long Food,Landsberger Allee 277,13055,Berlin
1032978524,52.5350052,13.4970493,Allee-Bistro,,,
1038558506,52.4697976,13.1015366,Asia-Schnell-Imbiss,,,
1042253335,52.4370527,13.2619893,Borkowskis Curry & Chicken,,14169,
1043622404,52.4175956,13.4379305,Haydar Baba,,,
1048083141,52.5716527,13.3797172,Bistro Femo,Herbststraße 2,13409,Berlin
1051176851,52.4107946,13.2619457,Döner Eck MC,,,
1070828273,52.4633965,13.3266735,Schloss Döner,,,
1075296027,52.4357294,13.2578952,Liberty Pizza,Potsdamer Straße 3,14163,Berlin
1077596637,52.5130877,13.4572371,Dominos,Boxhagener Straße 109,10245,Berlin
1077664928,52.4820887,13.4338465,Imren,,,
1077664930,52.4826392,13.4345759,Bei Onkel,Fuldastraße 4,,
1077664943,52.48272,13.4342395,Fulda Bistro,,,
1078727226,52.4616758,13.3249265,Curry Wolf,,,
1078763327,52.5238006,13.3494998,Monopol,Kirchstraße 23,10557,Berlin
1084349573,52.4981873,13.4067395,Hähnchenhaus,Gitschiner Straße 32,10969,Berlin
1093969650,52.509894,13.4558664,doen doen Kebap,Kopernikusstraße 17,10245,Berlin
1094023488,52.5099391,13.4555482,Adam,Kopernikusstraße 16,10245,Berlin
1098859626,52.5128804,13.6120223,Vietnam Today,,,
1098859635,52.5138325,13.6123485,Thai Sushi,Hönower Straße 100,12623,Berlin
1104703139,52.3713476,13.1339413,Nordsee,Nuthestraße 1-10,14480,Potsdam
1107961208,52.4356883,13.2611587,Civan’s Imbiss,Clayallee 352,14169,Berlin
1110370899,52.5104947,13.3964109,Döner Point,,,
1110999034,52.5415795,13.4211167,Maison Viet,Göhrener Straße 6,10437,Berlin
1112075595,52.5514145,13.4136359,Ilayda,,,
1112649650,52.4233888,13.2420327,Dönerthek,,,
1112981300,52.5274898,13.3295892,Best Döner Kebap Berlin,Turmstraße 59,10551,Berlin
1115379855,52.5209648,13.5883161,Bistro Dream,,,
1115395091,52.5209567,13.587617,MACs Kebap,Hellersdorfer Straße 77,12619,Berlin
1117791820,52.5386963,13.4235449,Nachtigall Imbiss,,,
1118909731,52.3491883,13.103942,Pinar Bistro,,,
1120346390,52.5201337,13.4793907,Napoli,Scheffelstraße 45,10367,Berlin
1133787143,52.5245039,13.1975983,Gyros Express,,,
1135819843,52.5486302,13.2016323,Spandau Sushi,Lynarstraße 20,13585,Berlin
1137579741,52.5177251,13.3001719,Perserwich,,,
1143684850,52.476865,13.4392633,Döner 63,Karl-Marx-Straße 143,,
1147348112,52.5367377,13.2036903,Marktstube,Marktstraße 2,13597,Berlin
1152574702,52.5286875,13.3186884,Telepizza,Huttenstraße 22,10553,Berlin
1157486353,52.478325,13.4300973,Burger Vision,Rollbergstraße 59,12053,Berlin
1158165853,52.5291472,13.4015439,Cô Cô bánh mì deli,Rosenthaler Straße 2,10119,Berlin
1163128999,52.5886579,13.2885539,Topals Döner Station,,,
1163282233,52.5130645,13.2973125,Manhattan Burger,Schloßstraße 39,14059,Berlin
1168923109,52.4894455,13.3936407,Orient Esspress,Zossener Straße 26,10961,Berlin
1170625374,52.46337,13.3388012,Mevlana,Bismarckstraße 3,12157,Berlin
1171149516,52.4901048,13.3612042,Köyüm Imbiss,,,
1172030506,52.6072084,13.4210366,Furat Grillhaus,,,
1181625794,52.5035151,13.4471126,Urban Falafel,,10243,
1181625839,52.5038496,13.4473758,Bistro Istanbul,,,
1181625847,52.5028629,13.4472391,Scheers Schnitzel,Warschauer Platz 18,10245,Berlin
1190043009,52.455627,13.3221156,Thai-China Wok,,,
1194597953,52.5181292,13.3053035,China Thai Imbiss,,,
1194782105,52.5120352,13.2974817,Lily Burger,,,
1195413138,52.408731,13.3561793,Dominos,Zernickstraße 1,12279,Berlin
1196611970,52.4289059,13.4208664,Kiosk Heidehof,,,
1197396719,52.5337938,13.1982478,KFC,,,
1200964313,52.5104038,13.2820568,,Königin-Elisabeth-Straße 2,14059,Berlin
1200964352,52.5103854,13.2840724,Kaiser Bistro,Kaiserdamm 22,14057,Berlin
1205048327,52.4979396,13.4050431,,,,
1206287820,52.4559034,13.3517991,,,,
1212599367,52.5491051,13.3539158,Pizza La Rosa,,,
1212599380,52.4917133,13.4232107,Gel Gör,Kottbusser Damm 80,10967,Berlin
1216682472,52.542866,13.4145813,Home Kitchen,,,
1228195011,52.512365,13.3048823,Steinofen Pizza,Wilmersdorfer Straße 33,10585,Berlin
1228200532,52.5124436,13.3048644,Falafel,Wilmersdorfer Straße 32,10585,Berlin
1229176983,52.4667363,13.4315559,Balli,,,
1230534875,52.4908227,13.3131766,Safran Grill,,,
1236581634,52.5497722,13.3527463,Ya Karim,,,
1240663607,52.5047011,13.3809434,Mega Wraps Döner,Askanischer Platz 2,,
1247659955,52.5283847,13.4693795,Asia Imbiss,Franz-Jacob-Straße 16-18,10369,Berlin
1247768921,52.4567424,13.5100727,Mundis.Döner,Brückenstraße 31,12439,Berlin
1248415763,52.5563366,13.4294664,Adar Kebap & Pizza,,13086,
1249080177,52.4536053,13.5094736,Final Bistro,,,
1255571641,52.5326906,13.4294551,Meraba Neuland Bistro,Greifswalder Straße 31,10405,Berlin
1255576136,52.5327437,13.4295117,Curry32,Greifswalder Straße 32,10405,Berlin
1258380854,52.5128249,13.4511143,Ha Noi Pho,Grünberger Straße 19,10243,Berlin
1259381367,52.500891,13.4937741,Bistro by Ossi,Lückstraße 46,10317,Berlin
1259381376,52.5008159,13.4941085,Pizzeria Toscana,Lückstraße 45,10317,Berlin
1259381390,52.5012991,13.4933337,New Asia,Weitlingstraße 117,10317,Berlin
1261931313,52.5156369,13.4398981,Bistro Istanbul,Straße der Pariser Kommune 31,10243,Berlin
1263253902,52.5053054,13.3284844,Saveur de Bánh Mì,Fasanenstraße 81,10623,Berlin
1264887588,52.4952655,13.4197012,Goldies Smashburger,Graefestraße 93,10967,
1279778584,52.5899704,13.2851008,Asia Wok,,,
1279778621,52.5902301,13.2877975,Orient Kitchen,,,
1279778649,52.5900109,13.2857479,Asia Box,,,
1279778670,52.5899494,13.2876863,Orient Kebap,,,
1279778708,52.5897825,13.2877769,Duc & Anh,,,
1281791180,52.5707378,13.1233645,Seepavillon,,,
1282080437,52.5096044,13.3060124,Atom-Saftbar,Wilmersdorfer Straße 126,10627,Berlin
1282111606,52.5065062,13.3020701,Ali Döner,,,
1282889485,52.4869949,13.4242932,Enfes,,,
1296266006,52.4987353,13.3627192,Fadi,Potsdamer Straße 117/119,10783,Berlin
1296266105,52.4995105,13.363355,Pizza Point,Kurfürstenstraße 152,10785,Berlin
1298565287,52.5231846,13.4532551,Noodle Box,,,
1300143981,52.4983671,13.3920592,Asia Snack,,,
1300684845,52.4427638,13.2411217,Dreamz,,,
1305276039,52.4864453,13.4287383,Risa Chicken,Sonnenallee 26,12047,Berlin
1306551393,52.5081485,13.3993561,Yousef,Axel-Springer-Straße 43,10969,Berlin
1306551399,52.5080446,13.3944241,Soup Kultur,Markgrafenstraße 22,10117,Berlin
1307115286,52.4685024,13.4318275,Emmi Oğlu,,,
1311121926,52.5066569,13.3100082,Mao Master,Kantstraße 50,10625,Berlin
1311121973,52.5011841,13.2979972,Vietnam Imbiss,,10711,Berlin
1314411426,52.4710401,13.3850788,Lodos Bistro,,,
1314875883,52.5420118,13.3978114,Pizza De Lux,,,
1321473171,52.4962625,13.4194868,Prisma Pavillon,Kohlfurter Straße 43,10999,Berlin
1323444936,52.5384041,13.5751142,aux fleurs,,,
1331757339,52.4473097,13.5762594,Pizza Piccolo,Freiheit 2,,
1333810531,52.517489,13.3072703,Lale,,,
1336668646,52.537424,13.2044981,CityChicken,,,
1336702246,52.5369469,13.2036912,Lotus Asia-imbiss,,,
1336954931,52.535911,13.4343008,Pizza Stop,Danziger Straße 125,10407,Berlin
1339007395,52.5064184,13.3144502,By Ali,Kantstraße 38,10625,Berlin
1346939907,52.5098572,13.4214234,Wurstpate,Köpenicker Straße 58,10179,Berlin
1348720483,52.5017684,13.4318019,Pho 44,Eisenbahnstraße 44,10997,Berlin
1349331492,52.4662117,13.3859672,Balli Burger,Tempelhofer Damm 143,12099,Berlin
1349696698,52.5205861,13.3884197,Prime Kebap,,,
1357806626,52.4314015,13.2594014,Sumak,Teltower Damm 37,14169,Berlin
1362703565,52.4612293,13.5199829,Efes Imbiss,Wilhelminenhofstraße 38,12459,Berlin
1363511598,52.4887117,13.4083825,Thai-China Spezialitäten,,,
1365702007,52.5425673,13.2391027,Ital.-Snack,,,
1365702030,52.5429963,13.240645,,,,
1366539093,52.5431701,13.2401235,Flavio Faldon,Gartenfelder Straße 94,13599,Berlin
1366551995,52.5445243,13.2381259,Bistro alte Post,,,
1370129750,52.5389326,13.2505734,Subway,,,
1370691455,52.5534075,13.3463199,Yesil Firin,,,
1372267480,52.479525,13.443979,Mae Charoen,Sonnenallee 134,12059,Berlin
1372898384,52.5157767,13.4679056,Haroun,Rigaer Straße 42a,10247,Berlin
1379551622,52.5057775,13.5615384,by Sultans,,,
1385363625,52.558287,13.3863277,American Burger,Prinzenallee 37,13359,Berlin
1385778406,52.5589857,13.3858739,Berfin Döner Kebap,,,
1385781556,52.545869,13.390454,BringNSushi BringNBurger BringNPizza,Brunnenstraße 96,13355,Berlin
1387916692,52.5139856,13.4755376,Subway,Frankfurter Allee 113,10365,Berlin
1387922011,52.5332709,13.1573776,Cafe Palas,,,
1388365976,52.6144146,13.4696539,Karow Döner,,,
1389048018,52.4997452,13.4388667,Tunas Gemüse Kebap,Wrangelstraße 42,10997,Berlin
1391580019,52.4574792,13.3204125,Thai-Nippon Sushi,Schloßstraße 33-36,12163,Berlin
1392330579,52.4881065,13.3404412,Döner Time,Bayerischer Platz 9,10779,Berlin
1402083398,52.5399055,13.2317394,Rodi,,,
1404437464,52.5470635,13.2015388,Kümes - Chicken,,,
1405821703,52.5475163,13.2012094,Toleranz Grillhaus,Schönwalder Str. 91 91,13585,Berlin
1406077001,52.5406137,13.4125287,Burgermeister,Schönhauser Allee 45,10435,Berlin
1412521419,52.5576905,13.0917792,Carpe Döner,,,
1416202596,52.4814308,13.4397707,Şehzade,Erkstraße 13,12043,Berlin
1419134527,52.5369277,13.2681482,Köfte City,,,
1421243415,52.3972946,13.5339067,Fero´s Pizzeria,Schwalbenweg 7,12529,Schönefeld
1422009815,52.5092645,13.5044038,OPA Bistro,,,
1424999185,52.4970213,13.4324202,La Bono,Wiener Straße 24,10999,Berlin
1428002429,52.5284145,13.129306,Imbiss,,,
1432154268,52.4464214,13.3719849,Arslan Döner,Gersdorfstraße 42,12105,Berlin
1435425803,52.3713544,13.1344858,Prime Kebap,Stern-Center 1-10,14480,Potsdam
1435425843,52.3713877,13.1344422,McDonalds,Stern-Center 1-10,14480,Potsdam
1435426070,52.3714141,13.1344062,Subway,Stern-Center 1-10,14480,Potsdam
1435426081,52.3714484,13.1343597,Ciao Bella,Stern-Center 1-10,14480,Potsdam
1445299205,52.5144723,13.5544717,Asia & Sushi Bar,Oberfeldstraße 4,12683,Berlin
1447902615,52.5244354,13.3924038,Pizza Peppino,,,
1450298576,52.5502889,13.4624277,Tao Dan,Lindenallee 58,13088,Berlin
1453876086,52.5071768,13.5124144,Tiger Asia-Euro Bistro,,,
1453995662,52.5052498,13.3931077,Charlotte I,Charlottenstraße 1,10969,Berlin
1459951029,52.5529051,13.4056573,Adak,,,
1464848001,52.4608002,13.2741071,Waldbaude am Grunewaldsee,Clayallee 91,14195,Berlin
1469403177,52.5081875,13.4510573,Smash Burger,Warschauer Straße 47,10243,Berlin
1471137918,52.531206,13.3820059,Bistro Grillhaus,Chausseestraße 110,,
1471202665,52.5531116,13.3620341,Imbiss-Punjab;Punjab Spätkauf,Groninger Straße 28,13347,Berlin
1477769715,52.50787,13.512577,Arena Grill,,,
1478057350,52.6653573,13.3785827,Antalya Imbiss,Hauptstraße 25,16567,Mühlenbecker Land
1482547508,52.4666773,13.4886562,NC Kebap,Baumschulenstraße 12,12437,Berlin
1485772728,52.4866356,13.326034,Bistro Femo,,,
1485772735,52.4866772,13.3236395,Henne Frieda - Gemüse Döner,Berliner Straße 30-31,10715,
1489978774,52.539624,13.424095,Kebab Haus,Prenzlauer Allee 195,10405,Berlin
1490656635,52.5664807,13.4740093,grillbar,,,
1492173299,52.4011084,13.269903,World of Pizza,,,
1493309769,52.5944041,13.4325846,Buchholz City Kebap Haus,,,
1493309775,52.6071543,13.4331514,Familien Bistro,,,
1496523864,52.5034274,13.3375322,Schlemmer Pylon,,,
1504191021,52.4614309,13.435139,Curry Paule,Britzer Damm 17,12347,Berlin
1504415250,52.5309857,13.3008642,Asia Good Choice,,,
1505820959,52.4432604,13.4345885,Burger King,Buckower Damm 11,12349,Berlin
1505820993,52.4434603,13.4342099,Loops Curry & Burger,Buckower Damm 7-9,,
1509249834,52.5255491,13.3054467,Medi-Tat,Mierendorffplatz 16,10589,Berlin
1519970052,52.4892928,13.3463614,Dalma,Grunewaldstraße 35,10823,Berlin
1519970093,52.4887169,13.343206,My Grill,Grunewaldstraße 62-63,10825,Berlin
1520204193,52.4322652,13.4604431,Gyros Express,,,
1524958187,52.4919267,13.5254588,Imbissstand Asiate MC Mahir,,10318,Berlin
1525332786,52.4931654,13.3538009,Der Hot Dog Laden,Goltzstraße 15,10781,Berlin
1527932088,52.4842383,13.4294008,Toasted,Karl-Marx-Straße 33,12043,Berlin
1528702505,52.4588824,13.525882,Altintop,Wilhelminenhofstraße 51,12459,Berlin
1535593194,52.435147,13.5410568,Ibos Kebup,,,
1535709266,52.511722,13.6119994,Mahlsdorfer Grillhaus,,,
1542195937,52.5698563,13.4958854,Macs Bistro,Ribnitzer Straße 24,13051,Berlin
1542549045,52.5219124,13.4116322,Snackexpress,,,
1543127135,52.5793146,13.3014216,KIMIKO SUSHI,,,
1544188682,52.5474169,13.4114646,Hala Hala,Gleimstraße 25,,
1557276154,52.476336,13.699867,Call a Pizza,,,
1559841923,52.4726121,13.6861624,Schöneiche Kebab,,,
1578857501,52.4787659,13.4254798,Rollberge Pizzeria,Hermannstraße 46,12049,
1578857505,52.4796562,13.4252059,Harran Kebaphaus,,,
1578857513,52.480963,13.4253473,Ali Efendi Gemüse Kebab,,,
1578857516,52.4786039,13.4260754,Kaplan,Hermannstraße 214-216,12049,Berlin
1581563473,52.486318,13.430186,Star,,,
1583884357,52.4997445,13.417808,Tadim,,,
1588354830,52.5346547,13.5512149,Pizza Max,Allee der Kosmonauten 151,12685,Berlin
1596671048,52.4648098,13.3278117,Subway,,,
1597894101,52.4908625,13.4214302,imren,,,
1598921671,52.5076609,13.4550862,Tonys Grill Bistro,,,
1601806288,52.4892473,13.3933168,Grande Gyros,Bergmannstraße 88,10961,Berlin
1601806398,52.4913085,13.3940852,Sesam,,,
1602162090,52.5279829,13.4100314,Kiez Falafel,Rosa-Luxemburg-Straße 49,10178,Berlin
1603571265,52.540225,13.405816,Juicery Berlin,Oderberger Straße 28,10435,Berlin
1614148727,52.503409,13.3796598,Italia 90,Schöneberger Straße 8,10963,Berlin
1639373812,52.5871552,13.3343989,Bistro am Nordgraben,Am Nordgraben 14,13437,Berlin
1640616148,52.5950551,13.3328138,Wittenauer Grillhaus,,,
1641113914,52.4562768,13.5113805,Mundis Chicken,Spreestraße 1,12439,Berlin
1642126638,52.5369923,13.4224556,Food home,Prenzlauer Allee 207,10405,Berlin
1648232618,52.4839822,13.4290759,Chicken Haus Burger,,,
1649134392,52.5232949,13.4039034,Esra Falafel,Dircksenstraße 51,10178,Berlin
1651902720,52.4986245,13.3829064,Döner 49,,,
1653339086,52.5172677,13.4080052,Tigertörtchen Berlin Cupcakes,,,
1658785283,52.4937043,13.3103941,City Imbiss,,,
1659325646,52.547609,13.3574849,Risa Chicken,Müllerstraße 30,13353,Berlin
1659884036,52.5483558,13.3600261,Nazar Grillhaus,Nazarethkirchstraße 48,,
1663350362,52.5103522,13.452037,Bistro Café 64,Warschauer Straße 64,10243,Berlin
1663350366,52.5105361,13.4521116,Café Avci,Warschauer Straße 64,10243,Berlin
1665158255,52.5186331,13.3889263,Dussmann Deli,,,
1666024123,52.5443423,13.3786275,Akcan Döner,,,
1667160190,52.4632002,13.4838313,Kurt Kebap,,,
1681243906,52.4673931,13.3419689,Sairan,,12157,Berlin
1687718440,52.5106353,13.4985792,Centies,,,
1689342534,52.5696703,13.5673138,Mauritius Grill,Havemannstraße 6A,12689,Berlin
1689345948,52.5699214,13.5664907,Lailas Burgerhaus & Cocktailbar,Havemannstraße 4A,12689,Berlin
1692582542,52.4571499,13.5783536,Döner Box Köpenick,,,
1692582557,52.4571511,13.5778281,Zur Currywurst,,,
1693456691,52.421283,13.5032245,PAM Pizza and More Lieferservice,Köpenicker Straße 130,12355,Berlin
1699353571,52.5415242,13.3499428,Hala Teigwaren,,,
1699353573,52.5416983,13.3495485,DIDIM,Föhrer Straße 13,,
1701488027,52.4773794,13.4235265,Nkln Zoo,Herrfurthstraße 7,12049,Berlin
1706140456,52.492985,13.4607034,Asia Cucina,,,
1706152497,52.4293107,13.3803393,Pepito Bistro,,,
1710025846,52.5047366,13.4955457,Domino’s,Weitlingstraße 71,10317,Berlin
1714250762,52.4848925,13.4340979,City Chicken,,,
1714847991,52.6192254,13.3048367,Heinse Kebap,,13467,
1719799745,52.426553,13.3939643,Goltz Kebap,Mariendorfer Damm 29a,12107,Berlin
1721061536,52.430556,13.1951496,Call a Pizza,,,
1724401409,52.5338108,13.4367249,Max & Moritz,Bötzowstraße 51,10407,Berlin
1725056493,52.4734477,13.4887073,Giovanni,Neue Krugallee 148,12437,Berlin
1725272310,52.5491834,13.4140668,Burger King,Schönhauser Allee 75,10439,Berlin
1731192795,52.5240349,13.3302981,Mahlzeit,Alt-Moabit 51,10555,Berlin
1733865022,52.5333826,13.4203974,Linh-Thai-Snack,Prenzlauer Allee 225,10405,
1736160650,52.4322706,13.3109199,Dominos,Hindenburgdamm 3,12203,Berlin
1737241352,52.5714272,13.5681009,King Kebap-Haus,,,
1741956125,52.5288957,13.4020773,Jigi Poke,Rosenthaler Straße 69,,
1743741219,52.5062604,13.2833464,TEOS Kebap,,,
1746680497,52.5034987,13.3461912,Telepizza,Keithstraße 18-20,10787,Berlin
1751753371,52.5102662,13.4593687,Burgeramt,,,
1753810056,52.5209683,13.3221544,Anatolische Küche,,10587,Berlin
1754690705,52.5095413,13.3736873,Dunkin,Potsdamer Straße 2,10785,Berlin
1757578454,52.5254015,13.6818006,Thuy´s Asia Imbiss,,,
1764332711,52.5317709,13.34256,Doy Doy,Birkenstraße 49,10551,Berlin
1765786432,52.5847198,13.2860195,Subway,Am Borsigturm 2,13507,Berlin
1766708461,52.5544037,13.4239805,Freddy Fresh,Neumannstraße 3c,13189,Berlin
1769040670,52.5377002,13.4085322,Forn Simsim,Kastanienallee 24,10435,Berlin
1771309892,52.5236475,13.3798103,Dominos,Schumannstraße 19,10117,Berlin
1771511978,52.4986617,13.4065821,Prinzeneck,,,
1773068685,52.5300918,13.4007622,Rosen Burger,Brunnenstraße 196,10119,Berlin
1773167215,52.5538921,13.445695,Dominos,Pistoriusstraße 41,13086,Berlin
1779212037,52.4996458,13.507345,Bistro Tuana,,,
1779216466,52.4670805,13.4313123,Nur Gemüse Döner,,,
1779977627,52.5244926,13.3512045,Otti Grill,,,
1789804843,52.483608,13.4402014,Beef Fabrik,Weserstraße 52,12045,Berlin
1791398677,52.4542563,13.577929,Dominos,Puchanstraße 22,12555,Berlin
1792828519,52.5357963,13.4733267,Emo Bistro,,,
1794264397,52.3624919,13.1897449,,,,
1800831075,52.4969291,13.3543603,Döner & Köfte,,10781,Berlin
1804191018,52.538574,13.3964289,Subway,Brunnenstraße 53,13355,Berlin
1804564000,52.5060966,13.3939898,Diner67,Markgrafenstraße 67,10969,Berlin
1812573160,52.5225514,13.4007036,La Focaccia,Neue Promenade 9,10178,Berlin
1814087029,52.5046139,13.3906604,Eck Imbiss,,,
1816004561,52.5222884,13.4083594,Berlin Currys,Karl-Liebknecht-Straße 13,10178,Berlin
1819093417,52.5538764,13.1986008,Auto-Imbiss,,,
1819309505,52.5103787,13.2712112,Prime Chicken,,14052,Berlin
1819471633,52.5249755,13.4068346,Mishba,Münzstraße 24,10178,Berlin
1827049049,52.5031768,13.3129269,OverSlize,Mommsenstraße 60,10629,Berlin
1831473808,52.4982366,13.4303455,Café Quitte,,10999,
1831473809,52.4982933,13.430157,Wiener 63,Wiener Straße 63,10999,Berlin
1831823651,52.506103,13.3332718,Prime Kebap,,,
1835093039,52.4453661,13.2934007,Baba,,,
1835196334,52.4537451,13.3158357,Tasty Döner 63,,,
1842628496,52.5783374,13.2442171,Strandbad Tegelsee,,,
1852561674,52.4968388,13.2923924,Panda Meister,Westfälische Straße 46,10711,Berlin
1855550910,52.4384869,13.5490317,Asia Imbiss,Dörpfeldstraße 50,12489,Berlin
1860405863,52.5235729,13.3989693,dean&david,Oranienburger Straße 82,10178,Berlin
1866365541,52.5254238,13.3413575,Metrom Bistro,Alt-Moabit 86,10555,Berlin
1866365556,52.52532,13.3421606,China Pfanne - Xin Hui City,Alt-Moabit 86b,10555,Berlin
1869640506,52.5744626,13.508717,,,,
1872071854,52.3703862,13.5270134,Burger King,Elly-Beinhorn-Ring 2 a,12529,Schönefeld
1874069647,52.5122449,13.3840439,Call a Pizza,Mohrenstraße 67,10117,Berlin
1877438853,52.5730532,13.5044917,Drachen Bistro,Egon-Erwin-Kisch-Straße 30,13059,Berlin
1882549125,52.5023301,13.330959,Salomon Bagels,Joachimsthaler Straße 14,10719,Berlin
1884324710,52.4058776,13.2346072,Macs Döner,Zehlendorfer Damm 121,14532,Kleinmachnow
1894741521,52.5353564,13.4232341,MarienBurgerie,Marienburger Straße 47,10405,Berlin
1900586051,52.5124731,13.4890668,Asia Foot Anh Minh,,,
1901127945,52.366395,13.1010463,Call a Pizza,Drewitzer Straße 39,14478,Potsdam
1905963687,52.4976693,13.3246068,Kebup,,,
1905963710,52.4958951,13.3242683,Ohsake,,,
1905986828,52.5104391,13.4567056,Furat,Simon-Dach-Straße 37,10245,Berlin
1906524917,52.4661789,13.4486519,Hauptstadt-Curry,,,
1907577305,52.4853608,13.4318097,El-Daia Snack,,12045,Berlin
1908183924,52.5011206,13.4424576,Burgermeister,Oberbaumstraße 8,10997,Berlin
1910446611,52.5099219,13.4579023,Monkey Donuts,Gabriel-Max-Straße 21,10245,Berlin
1912164191,52.4804563,13.4247011,Libanon Falafel,Flughafenstraße 66,12049,Berlin
1912649783,52.4335139,13.5347201,Asia Imbiss,,,
1914403857,52.4952852,13.3277659,Call a Pizza,Hohenzollerndamm 7,10717,Berlin
1915397137,52.5165709,13.3084286,Mustis Gemüse Döner,,10585,Berlin
1925850423,52.5053657,13.4493638,KEBmeUP,,,
1940602101,52.5084695,13.4523512,Heavens,Revaler Straße 8,10245,Berlin
1944887345,52.3770303,13.1292551,King Sigi Döner,,,
1944887347,52.3775359,13.1296069,World of Pizza,,,
1948103190,52.5182883,13.2870614,Imbiss König,,14059,Berlin
1952910833,52.520409,13.4038458,Kümes Chickenhouse,,,
1955745206,52.4774958,13.424546,Sahara Imbiss,Herrfurthstraße 5,12049,Berlin
1960008621,52.5255415,13.3074766,Öz Kebaphaus,Kaiserin-Augusta-Allee 84,10589,Berlin
1962378934,52.5167331,13.3801989,Dunkin,Unter den Linden 78,10117,Berlin
1962661756,52.4967722,13.4312098,Nachtigall,Ohlauer Straße 10,10999,Berlin
1964705737,52.6404265,13.2435158,Agip Service Station,,,
1964964494,52.4669182,13.3439611,GUT_SEL GRILL,,,
1965270888,52.4852032,13.4272643,Pizza Prima,,,
1969716098,52.3962837,13.2370823,Curry-Imbiss,,,
1972340658,52.5131855,13.482199,Castello Bistro,,,
1978515941,52.4851318,13.3850377,Bistro Columbia,,,
1982924047,52.5168658,13.4795462,Pizza Bistro,,,
1983576259,52.533197,13.4131597,Ziervogels Kult-Curry,Schönhauser Allee 20,10435,Berlin
1988054523,52.5552288,13.3440458,Munzur,Müllerstraße 60,13349,Berlin
1989484826,52.5563781,13.3736314,Harika Döner,Osloer Straße 84,13359,Berlin
1995023445,52.3719774,13.5263478,Lufthansa Imbiss,,,
1998720225,52.5397744,13.411224,Burger Fabrik,Kastanienallee 102,10435,Berlin
2013009692,52.4950151,13.4211096,Bal Köfteci,,,
2020059473,52.5227629,13.4084173,Ali Baba Bistro,,,
2029248693,52.4280228,13.4680694,Lipschitzgrill,,,
2029254010,52.4297987,13.4781392,My Life,Neuköllner Straße 205,12357,Berlin
2029768655,52.5067826,13.3079077,Superhahn,,,
2031964340,52.4812483,13.347298,Arian Pizzeria,Hauptstraße 54,10827,Berlin
2048758831,52.3963043,13.2410944,Thai-Nippon-Sushi-Bar,,,
2054449369,52.5151822,13.5829698,Ayy Kebap,,,
2055476098,52.5416966,13.3538217,King Döneria,,,
2057504112,52.5202536,13.3880742,Biers S Friedrichstraße,Friedrichstraße 142,10117,Berlin
2073820376,52.5230102,13.4119395,döner Inn,,,
2073820426,52.5231367,13.4119902,Coffeeshop Inn,,,
2088402742,52.5019821,13.3431427,Nollen Asia Imbiss,,,
2091658201,52.5273535,13.3274457,Al-Sultan Grill,Huttenstraße 70,10553,Berlin
2091658202,52.5273818,13.3271759,El-Reda,Huttenstraße 69-70,10553,Berlin
2093536186,52.3868853,13.4003297,Döner XL,Bahnhofstraße 23,12305,Berlin
2098246712,52.4508328,13.3385215,Kebap House,,12169,Berlin
2104832785,52.5646694,13.5047616,Linden Grillhaus,Prerower Platz 12,13051,Berlin
2110729365,52.4647929,13.3277358,La pizza di Russillo,Walther-Schreiber-Platz 1,12161,Berlin
2134271557,52.42091,13.7535125,Antalya Grill,,,
2135472383,52.5423383,13.5920612,Mc Döner,Alte Hellersdorfer Straße 102,12629,Berlin
2137976346,52.4235994,13.7524099,Kebab Salon,,,
2141487870,52.4916279,13.3780435,Madona,,,
2143425571,52.4904253,13.401583,Hummus & Baba Ghanoush,Gneisenaustraße 69,10961,Berlin
2146656152,52.5665564,13.3962491,Yoko Sushi,Wollankstraße 13,13187,Berlin
2156980990,52.4778404,13.1965527,,,,
2159077410,52.3918157,13.0947238,Lindenburger,Rudolf-Breitscheid-Straße 47/48,14482,Potsdam
2165687307,52.4773493,13.423258,Pazzi X Pizza,Herrfurthstraße 8,12049,Berlin
2169668828,52.35855,13.6803113,Thieles Bräuelbude,Kiefernweg 1,15713,Königs Wusterhausen
2173412443,52.5091877,13.4515194,Burger Vision,Warschauer Straße 57,10243,Berlin
2177563746,52.4246641,13.7572329,Pizza Planet,Rudolf-Breitscheid-Straße 11,,
2181178563,52.5069335,13.3922096,La Gino,Rudi-Dutschke-Straße 28,10969,
2181178800,52.5068913,13.3952687,pepe,,,
2182534894,52.5209952,13.4117495,F!sh&Ch!ps,,,
2182534895,52.5209428,13.4118399,Pergamon,,,
2198204070,52.5273283,13.3277002,City Chicken 1,Huttenstraße 71,10553,Berlin
2212970826,52.4703254,13.429482,Star Gemüsekebap,Warthestraße 1,12051,Berlin
2215069778,52.4704659,13.4293894,Star Pizza,,,
2218590013,52.4748659,13.3281137,Asia Lee,Bundesallee 71,12161,Berlin
2231299028,52.5103334,13.3759853,Saravanaa Bhavan,Potsdamer Platz 5,10785,Berlin
2231321435,52.5245138,13.3681395,Grillstand HBF,,,
2234844504,52.4166078,13.4972526,King Chicken,,,
2259025210,52.5518891,13.3828721,Akko,Badstraße 21,13357,Berlin
2260323123,52.53424,13.437879,Thai Son,Danziger Straße 153,10407,Berlin
2266143086,52.4862408,13.3215366,Max & Moritz,Berliner Straße 132,10715,Berlin
2266143112,52.4862415,13.3213996,Sushi & Bowl,Berliner Straße 132,10715,Berlin
2266143240,52.4868452,13.3222597,Uhland Bistro,Uhlandstraße 94,,
2273485059,52.5743428,13.5096197,Bistro Jade,Rostocker Straße 15,13059,Berlin
2274239245,52.5686674,13.5158342,FalkenBistro,,,
2277225437,52.6594608,13.5330183,Döner 20,Schönower Straße 105,16341,Panketal
2281112714,52.5215298,13.3238568,Viet Station,Helmholtzstraße 33,10587,Berlin
2286636361,52.5500524,13.386072,Eurogida Grill,Badstraße 9,13357,Berlin
2288127747,52.5240394,13.3519798,Smile,Alt-Moabit 112,10559,Berlin
2294133088,52.5242926,13.3499177,Call a Pizza,Alt-Moabit 108,10559,Berlin
2295684074,52.5186623,13.4540728,Kiezküche,,,
2300342118,52.5112264,13.4351048,Bei Joe,,10243,Berlin
2301610476,52.5502224,13.3648516,Inegöl Köftecisi,,,
2301610477,52.5517497,13.366869,Kral Döner,,,
2301610480,52.5518349,13.3668241,Burgerstraße,,,
2302013306,52.5115442,13.4343452,Der Neue Genuss,,10243,Berlin
2308524457,52.5472995,13.3579914,Albaik,,,
2309314685,52.4485862,13.3849009,Hühner-Grill,,12109,Berlin
2313631480,52.5326545,13.326087,Wok Man,,,
2321389955,52.5113206,13.4349195,Ossi Chicken Kebab,,10243,Berlin
2322311244,52.5113619,13.4347855,Asia Imbiss,,10243,Berlin
2322990527,52.5198178,13.6168085,Domino’s,,12623,Berlin
2325904327,52.499495,13.3017112,Hühnerwald,Lehniner Platz 2,10709,Berlin
2335071994,52.5121608,13.4536054,Salsabil,Grünberger Straße 38,10245,Berlin
2335103333,52.4950472,13.4204604,International Döner,,,
2335257205,52.5116243,13.4584451,Hot Dog Soup,Grünberger Straße 69,10245,Berlin
2336898159,52.505574,13.3234273,Simela Pizza,Kantstraße 146,10623,Berlin
2338524282,52.4614006,13.5484096,Alfons,,,
2339246308,52.4819109,13.3201459,Chicken & Burger Home,Blissestraße 38,10713,Berlin
2344299870,52.4742241,13.3775408,Pizza Jack,,,
2352273139,52.5652815,13.4056394,Al Letany Insel,Florastraße 34a,13187,Berlin
2356047930,52.6657651,13.4911639,,,,
2367016289,52.3924487,13.0919321,SuBBa,,,
2367511035,52.3960159,13.1066952,Dilwala,Goethestraße 49,14482,Potsdam
2418702361,52.5418643,13.488705,Sushi For You,Konrad-Wolf-Straße 100,13055,Berlin
2420056943,52.5065822,13.2945528,Teos Bistro,,14057,Berlin
2422049347,52.5836297,13.3007427,Asia-GP,,,
2424339299,52.4425039,13.5817539,Call a Pizza,,,
2425261126,52.5342402,13.5513483,Sushi For You,Allee der Kosmonauten 151c,12685,Berlin
2429162153,52.5691018,13.3294598,Trattoria Porta Via,,,
2439759130,52.5100798,13.2729593,VietFood – Asia Street Food,,,
2444783807,52.5485527,13.5056759,Eleganz Bistro,,,
2444783812,52.5440358,13.4927619,Call a Pizza,,,
2445454965,52.4843705,13.3199269,Pho 2T,,,
2445456643,52.4868461,13.3202727,Istanbul Grill,Brandenburgische Straße 1,10713,Berlin
2446742873,52.5458947,13.168157,,,,
2451561461,52.4683836,13.3039713,Cafeteria,,,
2456197520,52.4171075,13.7250019,Imbiss Sturzbecher,,,
2462167030,52.4554813,13.3846585,Subway,,,
2465493517,52.4996459,13.4966369,Street Food King,,,
2465494570,52.4996382,13.4971751,Sushi,,,
2466173936,52.5062066,13.299678,WindBurger,Windscheidstraße 26,10627,Berlin
2467510808,52.5418504,13.4125848,El Rief,Schönhauser Allee 46a,10437,Berlin
2470183077,52.5263088,13.3382169,Humbaba,Turmstraße 85,10551,Berlin
2470183078,52.526398,13.3373325,Grillhähnchen,,,
2471080117,52.4934214,13.3705132,König Food,,,
2471369274,52.5369706,13.6076579,Grill-Station,,,
2471370899,52.5384377,13.6038001,Corner Snack,,,
2471833973,52.4703777,13.4299531,Melita,,,
2476268049,52.4788431,13.3294863,Asia Annam,Wexstraße 31,10715,Berlin
2479053633,52.5015275,13.3214942,Caponcello,,,
2482984706,52.5446962,13.3607064,Asia Food,Triftstraße 3,13353,Berlin
2482984707,52.5444208,13.3598449,Falafel Al Amin,Triftstraße 6,13353,
2484347011,52.486026,13.4309832,Sultan Zwei,,,
2484584670,52.4877977,13.4259828,Gemüse Döner Kebab,,,
2485478390,52.5297734,13.4006649,City Chicken,Torstraße 125,10119,Berlin
2495554585,52.4891685,13.3924292,Piccola Romantica,,,
2496651185,52.4925376,13.3879501,Burgermeister,Mehringdamm 39,10961,Berlin
2496651203,52.4906845,13.3871447,Al-Arz,Mehringdamm 63,10961,Berlin
2496751906,52.4895578,13.3916343,Sahara Imbiss,Bergmannstraße 94,10961,Berlin
2496828426,52.4893218,13.3933106,Balli by Bergmann,,,
2498835759,52.5069391,13.303153,City Pizza,Kantstraße 66a,10627,Berlin
2503678437,52.4804531,13.4209195,Almanara Imbiss,,,
2505407351,52.5269475,13.3312093,Baba Sultan Köfteci,,,
2505407352,52.5262338,13.3351405,Song Tra 79,Ottostraße 19,10555,Berlin
2512668677,52.5235392,13.4001793,Esra,Oranienburger Straße 87,10178,Berlin
2517342788,52.5361483,13.4195084,Salsabil,,,
2517569523,52.5807664,13.4019925,Hatoki,,,
2532898366,52.5057791,13.3056032,Fadis,Stuttgarter Platz 3,10627,Berlin
2532898414,52.5065536,13.3062463,McDonalds,Kantstraße 111a,10627,Berlin
2532898507,52.5076681,13.3061576,Dunkin,Wilmersdorfer Straße 57,10627,Berlin
2534135242,52.5069093,13.6208368,Curry Schmiede,,,
2538629394,52.5419527,13.4406023,Asia Box,,,
2541787236,52.4600192,13.3844195,YE-MC,Tempelhofer Damm 188,12099,Berlin
2558589471,52.5239834,13.4166846,Wandel,Bernhard-Weiß-Straße 6,10178,Berlin
2566216062,52.4574162,13.5786181,City Grill,,12555,Berlin
2569978773,52.4585046,13.5782846,Eat me,,,
2581174616,52.4697972,13.4297583,Altayeb Grillhaus,Hermannstraße 98,12051,Berlin
2608218206,52.4959195,13.3968376,Pizza nuno,Blücherstraße 66a,10961,Berlin
2613801952,52.5609284,13.4288835,McDonalds,Prenzlauer Promenade 45,13089,Berlin
2616118718,52.4445629,13.5858048,Pizza Planet,Wendenschloßstraße 41,12559,Berlin
2618488931,52.4430644,13.5033407,Macs Bistro,,,
2627351292,52.4808706,13.350039,Döner Zade,Dominicusstraße 42,10827,Berlin
2638723694,52.5040091,13.3615097,Bistro am Magdeburger Platz,,,
2641521425,52.5000448,13.4241829,Da Dante,Oranienstraße 10,10997,Berlin
2641521429,52.4994653,13.4280873,Falafel in Berlin,,,
2642056469,52.4231562,13.47554,Lara Döner,,,
2647303479,52.526257,13.451268,5 Big 5 - Buger & More,Ebertystraße 6,10249,Berlin
2659342715,52.4291134,13.4565551,Thai-Nippon-Bar,,,
2674384504,52.447843,13.3856094,Chicken House,,,
2687685191,52.5298418,13.4008083,Rosenthaler Grill und Schlemmerbuffet,Torstraße 125,10119,Berlin
2694816788,52.4802491,13.4228961,Sushi Mana,Weisestraße 2,12049,Berlin
2706852525,52.5064102,13.4752721,Schlemmerbuffet,Schreiberhauer Straße 10,10317,Berlin
2707786973,52.3646104,13.0935986,Asia Food,,,
2708288551,52.3652656,13.0933419,Kings Snack,,,
2713659411,52.5125208,13.3052815,Bat Viet,Wilmersdorfer Straße 142,10585,Berlin
2728928660,52.630962,13.731073,Snow Döner,Berliner Allee 21,16356,Werneuchen
2736043853,52.5397069,13.3711399,Della Pizza,Müllerstraße 3a,13353,Berlin
2737042889,52.5305032,13.3161421,Mr Singh Pizzas,Sickingenstraße 56,10553,Berlin
2738302938,52.3895572,13.0922218,Yoko Sushi,Großbeerenstraße 16,14482,Potsdam
2756088407,52.4359602,13.4346366,Yumi Yumi,,,
2757841791,52.5174024,13.7507085,Çeto Döner,,15370,Fredersdorf-Vogelsdorf
2757852888,52.5034606,13.7469607,,,,
2760939934,52.5124693,13.5888854,Asia Imbiss,,,
2763478482,52.5286173,13.4707754,deli am Markt,Anton-Saefkow-Platz 8,10369,Berlin
2766653892,52.5129484,13.5744143,Wuhle-Café-Box,,12683,Berlin
2769035729,52.4793327,13.4257838,Pizza Pause,Hermannstraße 220,12049,
2788669422,52.4268045,13.6300421,Bistro Rübezahl,Müggelheimer Damm 143,12559,Berlin
2796742918,52.5253115,13.4036343,Viet Village,,,
2796753232,52.5237167,13.4007181,Curry 61,Oranienburger Straße 6,10178,Berlin
2801187844,52.4978002,13.3197619,SushiParis,,,
2803320966,52.498889,13.4266476,Cafe Maschari,,,
2806105230,52.5019107,13.3253434,Tommis Burger Joint,Kurfürstendamm 212,10719,Berlin
2825774573,52.5761723,13.2952951,Döner Eck,,,
2831137574,52.5268675,13.4077187,Shiso Burger,Alte Schönhauser Straße 13,10119,Berlin
2836987701,52.4566497,13.6251513,Bölsche Imbiss,Bölschestraße 72,12587,Berlin
2836988901,52.4564414,13.6251105,Thüringer Ritter Rostbratwurst,Bölschestraße 72,12587,Berlin
2840615699,52.5003538,13.4188439,Nefis Gemüse Kebap,Adalbertstraße 6,10999,Berlin
2841527495,52.4652544,13.3853593,Pizza,,,
2853629560,52.4433007,13.5690341,Schlossburger,Grünauer Straße 12,12557,Berlin
2856196172,52.4999054,13.4407136,The Mood Burger,Oppelner Straße 4-5,10997,Berlin
2866292467,52.5490911,13.178098,Prime Kebap,Westerwaldstraße 1A,13589,Berlin
2866294410,52.5608688,13.1716845,Bötzow-Baude,Radelandstraße 131,13589,Berlin
2870301201,52.5120075,13.4348643,Tolle Knolle Imbiss,,,
2875570929,52.5365068,13.2045875,Stern Döner,Breite Straße 58,13597,Berlin
2879829145,52.5535245,13.2076444,Snacky 64,Neuendorfer Straße 64,13585,Berlin
2886226713,52.4862453,13.4468409,Grillhaus,Harzer Straße 95,12059,Berlin
2886854344,52.5684022,13.4283308,Burger King,Prenzlauer Promenade 69,13089,Berlin
2896332940,52.5128386,13.2439404,Wurstmax,,14053,Berlin
2906208894,52.4237258,13.3964151,MMC Pizza & Pasta,,12107,Berlin
2914006130,52.3951693,13.2815639,Dönertreff,,14513,Teltow
2926167810,52.4863922,13.424689,Dunkin,Karl-Marx-Straße 1,12043,Berlin
2926167819,52.4856563,13.4263118,steelshark Sushi Bar,,,
2935337186,52.4720649,13.3355466,63 Gemüse Kebab,,,
2935543802,52.499448,13.4185113,Burgermeister,Skalitzer Straße 136,10999,Berlin
2952704353,52.392762,13.2893346,Efe Grill,,,
2953557791,52.5641258,13.3644514,Italienische Snacks,Residenzstraße 109,13409,Berlin
2953781333,52.5654266,13.3631319,Döner by Cinar,,,
2958311086,52.5045764,13.4684053,Bro‘s Döner Kepab,,,
2971089687,52.4899727,13.4556649,take a way,Elsenstraße 108,12435,Berlin
2974834528,52.5602291,13.1289621,MEGA BISTRO,,,
2979195164,52.5051055,13.5613999,Vuong Asia Bistro,,,
3013553354,52.5006637,13.2839922,Ditsch,,,
3013553355,52.5009547,13.2840871,Imbiss,,,
3017758067,52.5510768,13.3504512,Imren Grill,Müllerstraße 134,13349,Berlin
3029571479,52.5585454,13.0904721,Pizza Panda,,,
3030997423,52.4641157,13.4004467,Stern Pizza,Germaniastraße 134,12099,Berlin
3034472768,52.5227974,13.4627416,Subway,Zur Rinderauktionshalle 1,10247,Berlin
3036728566,52.3652856,13.314357,Tuan Duc,Berliner Straße 107a,14979,Großbeeren
3039050402,52.5482846,13.4518219,Anton Grill,Berliner Allee 40,13088,Berlin
3041229339,52.5226413,13.4346668,Döner - Frieden Kebaphaus,,,
3042466050,52.5038124,13.3298913,dean&david,Kurfürstendamm 21,10719,Berlin
3045334454,52.5207854,13.404239,Cloud Eatery Food Hall,Spandauer Straße 2,10178,Berlin
3045364462,52.5452922,13.5512582,Asia Snack,Marzahner Promenade 31E,12679,Berlin
3045761941,52.5743583,13.5093662,Alanya Bistro,Rostocker Straße 15,13059,Berlin
3046444264,52.4827453,13.4342756,Kumpir,Fuldastraße 58,12043,Berlin
3056477844,52.5068175,13.3324387,McDonalds,Hardenbergplatz 13,10623,Berlin
3058034840,52.4815339,13.4320137,Chicken Leckere Mahlzeit,Flughafenstraße 13,12053,Berlin
3060544100,52.5406544,13.4138661,Happy Asia,,,
3064933251,52.4165288,13.3996517,Call a Pizza,Mariendorfer Damm 430,12107,Berlin
3072367942,52.4941956,13.3379617,pizza bulls,Hohenstaufenstraße 40,10779,Berlin
3074533459,52.4711232,13.3850806,Burger am Feld,Tempelhofer Damm 106,12099,Berlin
3077886381,52.553075,13.3795148,Meshegur Inegöl Köfteci,Badstraße 34,13357,Berlin
3077900875,52.5519846,13.3816521,Alte Forno,Badstraße 53,13357,Berlin
3080511414,52.5550991,13.0954861,Fritten-Schmiede,,,
3081661339,52.4881718,13.3376567,Com Dai Dung,Grunewaldstraße 54,10825,Berlin
3086737577,52.3917171,13.0924616,Domino’s,Rudolf-Breitscheid-Straße 33,14482,Potsdam
3092387748,52.6182299,13.3066441,Istanbul Grill,,,
3095237229,52.5337329,13.4051378,Berlin Burrito Company,Kastanienallee 59,10119,Berlin
3097509454,52.51004,13.3798327,McDonalds,Leipziger Platz 12,10117,Berlin
3098125630,52.5298814,13.404425,Mozzarella & Pomodoro,Torstraße 97,10119,Berlin
3098126379,52.5299145,13.4021279,Soup ’n Roll,Torstraße 117,10119,Berlin
3102540984,52.4928448,13.386576,Yorks Kebap,Yorckstraße 89A,10965,Berlin
3105340829,52.5268807,13.3067187,Sushi For You,Lise-Meitner-Straße 2,10589,Berlin
3107198500,52.5374021,13.2859995,Halem Grill,Halemweg 21,13627,Berlin
3112849839,52.6346765,13.4958689,Akcan Döner,Walter-Friedrich-Straße 4A,13125,Berlin
3124057511,52.5358264,13.1995831,Kaplan,,,
3136665156,52.4491475,13.2774886,Uni-Imbiss,,,
3136935128,52.4932008,13.3844342,My Pasta,Yorckstraße 82,10965,Berlin
3140301721,52.5433454,13.363999,Beybaba Döner,Müllerstraße 163A,13353,Berlin
3150248663,52.6173756,13.4899797,Antalya,,,
3150248675,52.6183862,13.4876108,Antalya II,,,
3153793061,52.455833,13.401389,Grünes Wasser,,12099,Berlin
3155471007,52.5081805,13.3905849,Mr Imbiss BURGER,,,
3157838595,52.4674918,13.3424105,Call a Pizza,Cranachstraße 54,12157,Berlin
3167656606,52.4866744,13.4248777,McDonalds,Hermannplatz 2-3,10967,Berlin
3178171052,52.471628,13.335722,THE MOOD BURGER,Rheinstraße 66,12159,Berlin
3180634748,52.5050856,13.3171019,Pizza del cavallo,Schlüterstraße 24a,10625,Berlin
3184678568,52.4156548,13.4065493,Curry Dennis,,,
3187755700,52.413733,13.286848,Patricks Grüne Bude,Am Stichkanal 28a,14167,Berlin
3209505566,52.4994279,13.4407523,Toros,Oppelner Straße 40,10997,Berlin
3210985571,52.4998436,13.439161,Kiran,,,
3212386820,52.4993586,13.4397987,Al-Faruk,Wrangelstraße 45,10997,Berlin
3215756470,52.496604,13.4337304,Mmaah,Wiener Straße 31,10999,Berlin
3215758712,52.4950623,13.4325552,Şiribom Grillhaus,,,
3219121361,52.494315,13.3536665,Burgers Berlin,Goltzstraße 33,10781,Berlin
3229157413,52.4649832,13.328833,Zaim Falafel,Rheinstraße 40,12161,Berlin
3229881310,52.545773,13.3586095,Gemüse Kebap Servets,,,
3235752194,52.4772539,13.4353975,Holi Cow,Kienitzer Straße 22,12053,Berlin
3238408129,52.4714011,13.4411124,König Döner,Karl-Marx-Straße 210,12055,Berlin
3265404871,52.406185,13.5242221,Kebap Hayat,,,
3265404924,52.4207048,13.5390519,Helin Grillhaus,,,
3265404957,52.4222374,13.5378932,Asia Bistro,,,
3269945961,52.525645,13.302116,Aiva Schawarma Falafel Grill,Tauroggener Straße 13,10589,Berlin
3270560161,52.4702618,13.334296,The Kitchen,Rheinstraße 61,12159,Berlin
3270765762,52.4978943,13.3479902,Zsa Zsa Burger,Motzstraße 28,10777,Berlin
3270898061,52.5424998,13.412636,Burgerie,Schönhauser Allee 50,10437,Berlin
3275373406,52.4938939,13.3887653,FalaFel,Mehringdamm 25,10961,Berlin
3278025407,52.5952509,13.3353978,Cevdet Usta Grillhaus,,,
3283798898,52.5773738,13.3143942,Imbiss Nordtanke,Antonienstraße 34n,13509,Berlin
3314954414,52.558736,13.1344457,Ayaz Grillhaus,Spandauer Straße 160,14612,Falkensee
3325877871,52.4131169,13.5642723,Domino’s,Am Falkenberg 108,12524,Berlin
3326694111,52.4998164,13.3069164,T. Viet,,,
3331333817,52.6077191,13.3249358,Döner Meile,,,
3343102777,52.4919686,13.3510002,Barbarossa Grill,Barbarossastraße 61,10781,Berlin
3343659160,52.4983467,13.3619442,Alzad,Potsdamer Straße 138,10783,Berlin
3344180814,52.5327403,13.4134866,LPG Kantine,Kollwitzstraße 17,10405,
3345110733,52.4327558,13.5353669,Asia Sushi Bar,Rudower Chaussee 13,12489,Berlin
3346902286,52.4988265,13.4071515,Prinzen Burger,,,
3354419274,52.5034096,13.33439,Falafel Salam,Rankestraße 3,10789,Berlin
3354430614,52.5038531,13.3355461,Curry Wolf,Rankestraße 36,10789,Berlin
3358066813,52.5256393,13.3178799,City Bistro,Kaiserin-Augusta-Allee 97 B,10553,Berlin
3362345352,52.5657962,13.3215756,Dominos,,,
3363584372,52.5686384,13.4114707,Schiller Burger,Berliner Straße 11,13187,Berlin
3364423247,52.5293128,13.5923588,Bester Döner,,,
3365521369,52.5438163,13.7463229,"Imbiss ""zur 25""",,,
3372213943,52.5898492,13.2832587,Asia Imbiss,,,
3380827887,52.4947821,13.3960171,Il Viandante,Zossener Straße 55-58,10961,Berlin
3388516449,52.4812809,13.3490183,Köfteci,Dominicusstraße 36,10827,Berlin
3391131180,52.4867812,13.3237736,Bobsek Burger,Berliner Straße 30-31,10715,Berlin
3391944412,52.4974275,13.2908099,The Mood Burger,Kurfürstendamm 115,10711,Berlin
3394249684,52.4131564,13.5720521,City Döner,,,
3409017217,52.5356939,13.2004075,Döner Kebab,,,
3411231692,52.469474,13.3671217,IKEA Restaurant,Sachsendamm 47,10829,Berlin
3427336779,52.4205063,13.492272,Mamas Küche,Alt-Rudow 19,12357,Berlin
3430685611,52.4937912,13.3846704,Rollt Döner,Yorckstraße 12,,
3440616220,52.5511179,13.4051369,Phuoc,Schivelbeiner Straße 26,,
3442702061,52.6145291,13.4703351,Döner,,,
3443269235,52.4330715,13.242733,Subway,Potsdamer Straße 11,14163,Berlin
3444450293,52.5297277,13.4002442,Tor Kebab,Torstraße 129,10119,Berlin
3446523824,52.567028,13.5191601,Kebab King,Warnitzer Straße 12,13057,Berlin
3474035723,52.5132109,13.3047724,Pizza Napoli,,,
3480272977,52.4969071,13.3551251,Baharat Falafel,Winterfeldtstraße 37,10781,Berlin
3481852919,52.486723,13.3551105,Catbird,Akazienstraße 28,10823,Berlin
3486395921,52.4127773,13.5695326,Ngan Long Bistro,Bruno-Taut-Straße 8,12524,Berlin
3499253024,52.49523,13.4203515,Ketels,,,
3499253063,52.4952777,13.4203255,Aigo Korean Food,,,
3502496144,52.5686483,13.5179978,Lichtenberger Lieferservice,Falkenberger Chaussee 101,13059,Berlin
3506086155,52.5567773,13.3768138,ATA Köfte & Kokorec,,13359,Berlin
3508343426,52.4945352,13.3537339,Caramia Focacceria Gelateria,Goltzstraße 32,10781,Berlin
3511118180,52.5495504,13.3494676,Phönicia,Seestraße 100,13353,Berlin
3518773588,52.5345658,13.4157629,Prenzl Kebap,Kollwitzstraße 47,10405,Berlin
3531946228,52.4249272,13.2349962,Museumsküche,,,
3535732390,52.4740312,13.4261107,LaBettoLab,Okerstraße 43,12049,Berlin
3542201095,52.4951388,13.4324329,Pancho Villa Cantina,Reichenberger Straße 120,10999,Berlin
3553669941,52.4902136,13.3894644,El Chilenito,Bergmannstraße 102,10961,Berlin
3561949186,52.4416127,13.569016,Gülcans Bistrogrill,,,
3570845455,52.4600273,13.3234688,Nordsee,,,
3571089393,52.4688809,13.3322025,Barlys,Rheinstraße 19,12161,Berlin
3573519569,52.4594259,13.3234349,its Mo,Schloßstraße 100,12163,Berlin
3574623993,52.5948338,13.3317304,Dominos,Eichborndamm 292,13437,Berlin
3587795266,52.5233654,13.6460791,,,,
3589417893,52.469183,13.3324771,Balli Burger,Schmiljanstraße 17,12161,Berlin
3592806594,52.501508,13.4415218,Gudé,Köpenicker Straße 1,10997,Berlin
3595355814,52.4423766,13.5693135,Pizza Max,,,
3600619653,52.4336184,13.2600374,Cucciolo,Teltower Damm 13,14169,Berlin
3607091178,52.5207408,13.4055546,dean&david,Karl-Liebknecht-Straße 7,10178,Berlin
3607091179,52.5235536,13.3988452,dean&david,Monbijouplatz 5,10178,Berlin
3610662555,52.4286522,13.328798,Macs Kebap,,,
3611096826,52.4953407,13.4298359,Villa di Wow,Ohlauer Straße 30,10999,Berlin
3613295011,52.5535288,13.435419,Mira Bistro,Langhansstraße 61,13086,Berlin
3615221021,52.5177286,13.4322913,Kalis Deutsche Küche,,,
3615491771,52.527436,13.3306353,Baran Döner Station,Waldstraße 1,10551,Berlin
3615491772,52.5269842,13.3304002,Halis Kebap,Gotzkowskystraße 1,10555,Berlin
3632408169,52.489346,13.3596601,Imren,Hauptstraße 156,10827,Berlin
3632641115,52.4868452,13.358286,Samake Sushi,Crellestraße 2,10827,Berlin
3632641121,52.486538,13.3576383,Efsane,,,
3632641124,52.4869733,13.3577872,Garda Pizza,,,
3632641431,52.4880023,13.358399,Naya Jouly,Hauptstraße 150,10827,Berlin
3633921029,52.4360093,13.3448806,Döner Box,,,
3641307271,52.5521839,13.1223657,MEGA,,,
3644289894,52.4552912,13.5765066,Kebaphaus,Bahnhofstraße 49,12555,Berlin
3646253993,52.4972843,13.498878,Labra,Salzmannstraße 28,10319,Berlin
3646253994,52.4971909,13.498838,Salzmann Bistro,Salzmannstraße 28,10319,Berlin
3650391091,52.4522456,13.4314422,Ketchup 35,Gradestraße 35,12347,Berlin
3652772725,52.5323934,13.3976581,Tommis Burger Joint,Invalidenstraße 160,10115,Berlin
3655216256,52.3438106,13.4350888,Glasower Döner Kebap,,,
3658581497,52.5956444,13.3752044,Torino,Hauptstraße 103,13158,Berlin
3666796896,52.5294778,13.4712901,PizzaLovers,Anton-Saefkow-Platz 12,10369,Berlin
3668303150,52.4735581,13.4558428,Kebab Haus,Saalestraße 40,12059,Berlin
3670161822,52.4292515,13.329718,Asia Imbiss,,,
3672491276,52.504977,13.46941,Kosmetikstudio,Neue Bahnhofstraße 3,,
3675739231,52.5015223,13.3348469,Asia-Land,Augsburger Straße 29,10789,Berlin
3676001081,52.5031428,13.3307336,Five Guys,Joachimsthaler Straße 10,10719,Berlin
3676805351,52.5958551,13.3354461,Food Box,,,
3677318158,52.5560139,13.2073226,Sushi,,,
3677459026,52.5620149,13.2087822,La Sila,Streitstraße 30,13587,Berlin
3686292358,52.4658727,13.4863117,Sahara Imbiss,Kiefholzstraße 183,12437,Berlin
3688058625,52.618237,13.334778,,,,
3703501676,52.5068561,13.4706758,Gemüse Kebab,Neue Bahnhofstraße 25,10245,Berlin
3707767489,52.4698129,13.461923,By Curry,,,
3715380087,52.5759317,13.4131248,Snackpoint,,,
3715461825,52.63628,13.199442,Döner,,,
3717573370,52.6368912,13.2025798,Bistro Sky Oase,Havelpassage 7,16761,Hennigsdorf
3717596764,52.6407081,13.207067,Brüder Burger,Berliner Straße 58a,16761,Hennigsdorf
3717645911,52.6287594,13.2022586,Pizza Planet,Edisonstraße 17,16761,Hennigsdorf
3727774829,52.4457346,13.3864355,Imbiss,,,
3730491777,52.4749418,13.4240296,Burro Unchained,Allerstraße 11,12049,Berlin
3734960539,52.528315,13.3920711,Yarok,Torstraße 195,10115,
3737222085,52.5140535,13.4544206,Zaitoun,Boxhagener Straße 121,10245,Berlin
3738119417,52.4223574,13.7515659,Van Tat,,,
3740577345,52.4871088,13.4309837,Bang Boom Burger,,,
3742323290,52.5077424,13.4974554,Pizza Max,Margaretenstraße 4,10317,Berlin
3750152225,52.5035878,13.4471713,Bro Burger,,,
3751809295,52.5005623,13.4229136,Angry Chicken,Oranienstraße 16,10999,Berlin
3755709522,52.6070088,13.3191523,Nord Bistro,Waidmannsluster Damm 175,13469,Berlin
3758546891,52.403464,13.2197707,Rathaus Imbiss,,,
3758749628,52.5432806,13.3651908,Falafel Dream 2010,Müllerstraße 14a,13353,Berlin
3758934259,52.546869,13.3501412,Java House,,,
3760553690,52.5467193,13.3493413,Safran,Brüsseler Straße 17,13353,Berlin
3771316135,52.5055627,13.5092774,New York Pizza,Zachertstraße 62,10315,Berlin
3772659944,52.5645103,13.5055986,Pizzeria La Rosa,Prerower Platz 1,13051,Berlin
3772659954,52.5643766,13.5067298,Saray Grill,Prerower Platz 1,13051,Berlin
3772667658,52.5643512,13.504792,Burger King,Prerower Platz 1,13051,Berlin
3772667668,52.5647245,13.5056828,Nordsee,,,
3772689495,52.5491897,13.5982371,McDonalds,Landsberger Chaussee 17,,
3772689496,52.5491923,13.5989437,Wurstteufel (Heiße Theke),,,
3772689497,52.5491605,13.5991683,Thang Long China-Bistro,Landsberger Chaussee 17,,
3772706434,52.4153141,13.4953027,Pizzeria Monello,,,
3772713841,52.4023315,13.5257461,Asos Grill,Ortolfstraße 206A,12524,Berlin
3774630007,52.4867127,13.4310991,Three Dudes Next Door,Pannierstraße 6,12047,Berlin
3780185338,52.5494149,13.354272,Döner Game,Müllerstraße 37,13353,Berlin
3789215205,52.4625961,13.513846,Döner Bistro,,12459,Berlin
3790742857,52.3714149,13.1343013,Asiagourmet,Stern-Center 1-10,14480,Potsdam
3792654757,52.4624533,13.5145636,Bistro Weide,Wilhelminenhofstraße 16a,12459,Berlin
3803711353,52.5037635,13.4099057,Foodbag,,10969,
3810384964,52.5170926,13.4203676,Mervan bistro,Schillingstraße 1A,10179,Berlin
3826013959,52.4986898,13.3538164,Pizza Zone,Maaßenstraße 2,10777,Berlin
3826013965,52.4987786,13.3537937,Burgerzone,Maaßenstraße 2,10777,Berlin
3826013971,52.4989029,13.3536189,Curry Nolle,Nollendorfplatz 7,10777,Berlin
3826013972,52.49901,13.3523316,Freshn Fast,Motzstraße 1,10777,Berlin
3826014009,52.4987341,13.3538051,KebUp House,Maaßenstraße 2,10777,Berlin
3826014014,52.498376,13.3538571,Luciano Pizza,Maaßenstraße 6,10777,Berlin
3826452463,52.4973769,13.3464013,Pizza Luna,Martin-Luther-Straße 21,10777,Berlin
3830168143,52.5005816,13.3643104,Vuí Vẻ,Pohlstraße 61,10785,Berlin
3831991073,52.5263897,13.33741,Pizza con Amore,Turmstraße 82,10551,Berlin
3832565603,52.438403,13.4235063,Imbiss,,,
3837620177,52.5004871,13.363105,Burger King,Potsdamer Straße 114,10785,Berlin
3837620189,52.500569,13.3631682,Bam Bi Bowls,Potsdamer Straße 112,10785,Berlin
3837620653,52.5000846,13.3627489,Kaplan,,,
3837620655,52.5002481,13.3628864,Kimlong,Potsdamer Straße 118,10785,Berlin
3841171913,52.5264539,13.3451528,Turm Bistro,,,
3841171917,52.5263102,13.3351519,Imren,,,
3842489107,52.5123815,13.4901425,Dominos,Frankfurter Allee 199,10365,Berlin
3853848980,52.4849642,13.3454022,Quán Chè,Martin-Luther-Straße 103,10825,Berlin
3854065170,52.4529477,13.4382365,Britzer Bistro,,,
3854437095,52.496009,13.3596758,Tori-Katsu,Winterfeldtstraße 7,10781,Berlin
3855567141,52.4972342,13.3614751,Köfteci,Potsdamer Straße 146,10783,Berlin
3855567795,52.4976192,13.3616426,Istanbul Grill,Potsdamer Straße 142,10783,Berlin
3855574934,52.4977355,13.3612508,Yaprak Döner,,,
3859397149,52.4990491,13.3546365,Balli,Nollendorfplatz 8-9,10777,Berlin
3861085176,52.5464727,13.3585857,Ya-hala Chicken & Grillhaus,Müllerstraße 152,13353,Berlin
3862837573,52.5010105,13.3076931,Shora,,,
3865738058,52.5269795,13.3375654,Kirşehir’li Gözlemeci,Bremer Straße 75,10551,Berlin
3880926283,52.4710982,13.4295975,Merakli Köfteci,Hermannstraße 174,12051,Berlin
3883064614,52.5278185,13.3415598,Oh my Bap,Wilhelmshavener Straße 3,10551,Berlin
3883245680,52.4614029,13.5192063,Mr. Tung & Friends,Wilhelminenhofstraße 35,12459,Berlin
3883260176,52.4612763,13.5197728,Kilimanjaro,Wilhelminenhofstraße 37,12459,Berlin
3895256384,52.5237837,13.4092694,Dolores,Rosa-Luxemburg-Straße 7,10178,Berlin
3895256385,52.5243114,13.4081822,Milano Vice,Münzstraße 11b,10178,Berlin
3898026207,52.5089991,13.3145533,Gap,Leibnizstraße 25,10625,Berlin
3901366091,52.5403872,13.4053822,O Der Burger,Oderberger Straße 30,10435,Berlin
3902729059,52.5294859,13.4009801,Cult Curry Mitte,Torstraße 122,10119,Berlin
3902789941,52.5271653,13.3970453,Babba Chu,Auguststraße 63,10117,Berlin
3906190918,52.4633715,13.514082,Jimmys Pizza,Edisonstraße 13,12459,Berlin
3906194252,52.4632228,13.5137334,Staats Burger,Edisonstraße 59,12459,Berlin
3906822483,52.5106885,13.4513617,Antalya Bistro,,10243,Berlin
3906859740,52.513821,13.453582,Rubens Arepas,Warschauer Straße 81,10243,Berlin
3906894577,52.5122324,13.4520754,Best Grill,Warschauer Straße 16,10243,Berlin
3906985188,52.5100429,13.4510908,Mustafa Demirs Gemüsekebap,Warschauer Straße 27A,10243,Berlin
3906999600,52.5095339,13.4508541,Mustafa Demirs Retro Döner,Warschauer Straße 30,10243,Berlin
3918738154,52.4529984,13.3382088,Zaka Sushi,Bismarckstraße 32,12169,Berlin
3922916024,52.5061367,13.3197701,Zaim Falafel,Kantstraße 25,10623,Berlin
3928349157,52.6536849,13.1976431,Bistro Nord,Hradeker Straße 11 a,16761,Hennigsdorf
3937513352,52.5300226,13.4012512,Frittenwerk,Brunnenstraße 1-2,10119,Berlin
3937513963,52.5304311,13.4008728,Asian 2207,Brunnenstraße 4,10119,Berlin
3944883604,52.485958,13.3371714,Pizza Al Taglio,Badensche Straße 9,10825,Berlin
3957039948,52.457863,13.2910405,Reallygoodlife,Königin-Luise-Straße 44,14195,Berlin
3964501407,52.544686,13.426988,Saray Grill,Prenzlauer Allee 178,,
3968672798,52.5160698,13.4815168,Reisschale,Normannenstraße 5a,10367,Berlin
3990176690,52.5066741,13.482873,Tajj Of India,Buchberger Straße 40,10365,Berlin
3991803246,52.526306,13.3038682,Pizza e Pasta,Mierendorffplatz 13,10589,Berlin
3992172156,52.5117415,13.4973234,Uno,Frankfurter Allee 244,,
4010310446,52.5303457,13.6208243,Epis Döner,Leisinger Straße 20,12627,Berlin
4030311572,52.5010882,13.4196147,Noodlen Box,,,
4030311582,52.5010425,13.4197891,Kiezburger,,,
4034138657,52.5003639,13.4222779,Kreuzburger,,10999,Berlin
4034138661,52.5005394,13.4223865,Chickpeas,Oranienstraße 11,,
4034138663,52.5006103,13.4221298,Oregano,Oranienstraße 19a,,
4043589549,52.4677772,13.4196646,Eisbahn-Bistro,,,
4044002280,52.4593868,13.5797613,Mix-Box,Mahlsdorfer Straße 110,12555,Berlin
4046084610,52.5371582,13.3695449,,,,
4054631163,52.4571376,13.3842463,Columbus,,,
4061948090,52.5596585,13.3798098,Pizza Flitzer,Koloniestraße 32,13359,Berlin
4061948102,52.5598995,13.3794232,Volta Grillhaus. Köfte & Tantuni Fisch,Koloniestraße 121,13359,Berlin
4061948103,52.5599764,13.3794667,Café Şarmata,Koloniestraße 121,13359,Berlin
4066800227,52.4738695,13.4275869,Liebe Döner,,,
4070598667,52.5245795,13.3692369,GOSCH Sylt,,,
4070598678,52.5246456,13.3688359,Rice On!,,,
4074274151,52.4916597,13.3785406,Kapadokya,,,
4081432921,52.4355614,13.5419167,Currywurst Nr.1,Dörpfeldstraße 1,12489,Berlin
4087727489,52.445741,13.385165,Falafel & Kebab Kultur,,,
4089517216,52.4106057,13.2660804,Pizza Bulls,,,
4097737693,52.4529948,13.1418137,Pizza Kladow,Sakrower Landstraße 8,14089,Berlin
4097785283,52.455427,13.1440656,Kladow Kebap,,,
4097803234,52.5419546,13.2055499,Grillstation Conti,,,
4100572576,52.5441436,13.3918249,Reis Mama,Brunnenstraße 85,13355,Berlin
4109211892,52.5331792,13.6028624,Wurstspezialitäten und Imbiss,Stollberger Straße 67,12627,Berlin
4109240990,52.531464,13.6041884,Pizza Max,Stollberger Straße 43,12627,Berlin
4109253389,52.5320319,13.603778,Mauritius Grill,Stollberger Straße 51,12627,Berlin
4109493994,52.5471326,13.4168964,Stargarder Burger,Stargarder Straße 75,10437,Berlin
4109583392,52.564205,13.3923153,Paris Döner,Wollankstraße 26,13359,Berlin
4116107894,52.5138607,13.4536043,Gemüse Kebap & friends,Warschauer Straße 81A,,
4119399171,52.5957676,13.3332924,Döner Time,,,
4134264591,52.4305369,13.4941072,Curry-Paule,Stubenrauchstraße 103,12357,Berlin
4136417085,52.5554987,13.3842982,Bahar Imbiss,,,
4140723064,52.5503075,13.3847325,Smack Burger,Badstraße 66,,
4143345633,52.5490213,13.4560956,Merry Guten Appetit,Herbert-Baum-Straße 3,13088,Berlin
4145078611,52.5212759,13.4468892,My Kebap Haus,Straßmannstraße 2,10249,Berlin
4151642691,52.5151925,13.4733487,Brgrs Brgrs,Pettenkoferstraße 2B,10247,Berlin
4155950168,52.5414277,13.3932596,China Bistro,Brunnenstraße 117,,
4155950169,52.5413633,13.3932917,Volta Imbiss,Brunnenstraße 117,13355,Berlin
4157774308,52.483841,13.4475963,Mmaah,Kiehlufer 75,12059,Berlin
4171310010,52.507989,13.3089705,Burgers Berlin,,,
4171310013,52.5067779,13.3080172,Mmaah,Kantstraße 55,10627,Berlin
4172949589,52.5175791,13.461061,Bye Bye Cavaliere,Proskauer Straße 28,10247,Berlin
4172953390,52.5174922,13.4610166,Mekong Küche,Proskauer Straße 28,,
4173488701,52.4440722,13.5059166,Asia Snack,,,
4185576128,52.5049631,13.4072462,Akcaabat,Oranienstraße 72,10969,Berlin
4188056689,52.5071585,13.3859523,Typisch Berlin,Wilhelmstraße 42,10963,Berlin
4188056691,52.5076369,13.385778,Curry at the Wall,Zimmerstraße 100,10117,Berlin
4188093971,52.5136665,13.381425,Curry and Burger,,,
4188093973,52.5655486,13.4066698,Eat Point,,,
4189933698,52.5057373,13.3208142,The Butcher,Kantstraße 144,10623,Berlin
4193676997,52.5531919,13.3787175,Çiğköfte Evi,Badstraße 37A,13357,Berlin
4200634085,52.4696077,13.4413815,Haci Baba (Cömlek),,,
4207913348,52.4927514,13.4444606,Burger Junkys,Lohmühlenstraße 58,12435,Berlin
4211986089,52.6372706,13.2051209,Subway,Postplatz 4c,16761,Hennigsdorf
4219443555,52.4977657,13.3526042,Mmaah,Nollendorfstraße 32,10777,Berlin
4222113790,52.5877033,13.3261302,Indischer Imbiss,,,
4222276049,52.533316,13.409657,freie internationale tankstelle,,,
4230050391,52.5115119,13.4347753,Lakomka,,,
4250113293,52.5175626,13.3067513,Ngon Ngon,,,
4261243654,52.4845276,13.4330532,Snack Baalbaki,Weichselstraße 62,12043,Berlin
4261244006,52.4821411,13.4386886,Sushi 93,Sonnenallee 98,,
4286138993,52.4783325,13.4391035,Vegd,Richardstraße 109,,
4300258889,52.5142508,13.4647411,Zero Stress Pizza,Colbestraße 3,10247,Berlin
4302090187,52.5105171,13.4983692,Cuccis,,,
4304042189,52.4864292,13.3558514,Ilios,Akazienstraße 2,10823,Berlin
4304413094,52.4572731,13.5778718,Ventelino,,,
4304416001,52.4563401,13.5772755,Asia Thai Snack,,,
4304633636,52.5448435,13.3611522,Pizzeria Dun Dun,Triftstraße 1,13353,Berlin
4314574212,52.5470873,13.408461,Pattaya Imbiss,,,
4315470232,52.5499783,13.3492744,Pizza Max,Lüderitzstraße 3,13351,Berlin
4316354954,52.5420082,13.2026866,Pizza Max,Achenbachstraße 11,13585,Berlin
4318276195,52.3531758,13.3076448,Efe-Grill,Dorfaue 9,14979,Großbeeren
4319807856,52.5363797,13.2705333,Kösgeroglu,Nonnendammallee 86,13629,Berlin
4319811427,52.536436,13.2685815,Hühnerwald,Nonnendammallee 84,13629,Berlin
4322856344,52.5911524,13.3765583,Dominos,Kastanienallee 58A,13158,Berlin
4324773172,52.5512615,13.350073,Yildiz Gözleme,Müllerstraße 133A,13349,Berlin
4324785796,52.4381454,13.3831429,Call to Eat,Friedenstraße 7,12107,
4335689620,52.5676518,13.1007219,Rathaus Bistro,,,
4339053522,52.558839,13.3655506,Dominos,Markstraße 23,13409,Berlin
4339135790,52.4231184,13.371017,Sushi 4 you,,,
4341306547,52.4952327,13.298363,Pizza Max,Westfälische Straße 66,10709,Berlin
4345718272,52.3960543,13.2403962,Ali Baba,Potsdamer Straße 6,14513,Teltow
4345718273,52.3961009,13.2403546,CurryLand,,,
4351511610,52.5456079,13.358369,Pizza De Lux,Luxemburger Straße 32,13353,Berlin
4351511618,52.5455246,13.3582169,Sokotra Falafel,,,
4352954852,52.4881813,13.3377326,Mr. Gyros,Grunewaldstraße 54,10825,Berlin
4361415625,52.5294927,13.3688109,Europa City Imbiss,,,
4363623292,52.5069224,13.3044073,Bärlin Spezial,,,
4363623307,52.506929,13.3036536,Korean Chicken & Bowls,,,
4363665317,52.4279129,13.3278225,Pito-Gyro,Kranoldplatz 2,12209,Berlin
4363726442,52.4628688,13.3268763,Pret A Manger,Schloßstraße 120,12163,Berlin
4366589727,52.4884726,13.3377129,Carls,Grunewaldstraße 49,10825,Berlin
4367412761,52.4400148,13.2164536,Bernsteiners,Breisgauer Straße 1,14129,Berlin
4367494203,52.4758334,13.4228836,Ban Ban Kitchen,Schillerpromenade 32,12049,Berlin
4374675800,52.6488642,13.1444472,,,,
4375919424,52.4874188,13.344776,Pizza Max,,,
4376092952,52.4786002,13.3207703,Il Caminetto,Detmolder Straße 50,10715,Berlin
4376092953,52.4772567,13.3200665,Kalyon,Laubacher Straße 30,14197,Berlin
4379478605,52.5238019,13.1977538,Mega Pichelsdorfer Grill,,,
4379478606,52.5327048,13.1978656,Prime Kebab,,,
4379478607,52.5332009,13.1979156,Sarilar Grill,,,
4379478608,52.5285457,13.1959852,MR Falafel,Kerstenweg 1,13581,Berlin
4381394755,52.5444647,13.368744,Sever Imbiss,Lindower Straße 14,,
4389211793,52.5227067,13.4125804,Frittenwerk,,,
4393459543,52.5122481,13.3900314,dean&david,Friedrichstraße 69,10117,Berlin
4396230899,52.5430308,13.3645864,Libanon Falafel,Müllerstraße 165,,
4397781320,52.5211311,13.1942002,My Donose,,,
4406724576,52.5103844,13.2084157,Ketchup 35,,,
4411409193,52.5274313,13.3302132,Happy Burger,Turmstraße 56,10551,Berlin
4411418619,52.5272994,13.3312147,Baklavalari,Turmstraße 54,10551,Berlin
4414952722,52.3692802,13.1347458,Dominos,Gerlachstraße 35,14480,Potsdam
4415243200,52.5354122,13.6316936,burgerme,Mahlsdorfer Straße 53-57,15366,Hoppegarten
4415604080,52.5108868,13.3055983,Fancy Burger,Wilmersdorfer Straße 133,,
4416460944,52.5686452,13.0979392,Döner Haus,Falkenhagener Straße 69,14612,Falkensee
4420353163,52.4042299,13.2555155,Unami,,,
4422452695,52.5052113,13.5144759,Yogi,Alfred-Kowalke-Straße 1-4,10315,Berlin
4423466253,52.5678855,13.3462514,Asia Imbiss,Teichstraße 30,13407,Berlin
4423937392,52.5084992,13.4034083,Kumpir Club,Kommandantenstraße 71,10117,Berlin
4425098301,52.5326083,13.4283856,Mehas,Greifswalder Straße 208,10405,Berlin
4425526989,52.5149978,13.1840938,Imbiss,,13593,
4429093689,52.547053,13.412857,Formidable,Schönhauser Allee 126,10437,Berlin
4436495023,52.5527236,13.380884,Asmin Döner Grillhaus,,,
4436502750,52.5523983,13.3821113,Hambi baba,,,
4437579391,52.5541647,13.3827137,Örnek Lahmacun Evi,,,
4444546185,52.5635786,13.3267982,Viet Dream,,,
4446550254,52.4848519,13.3530496,Cebo’s Burger,Eisenacher Straße 62,10823,Berlin
4447596499,52.4892811,13.3461849,Uzbek Eats,Grunewaldstraße 35,10823,Berlin
4448386322,52.5683455,13.3122618,Grillhaus Kenan,,,
4448386324,52.5679469,13.3126048,Merin Grillhaus,Scharnweberstraße 60,13405,Berlin
4454024995,52.5294138,13.3284308,G.P.S Grilled Pocket Sandwich,Beusselstraße 63,10553,Berlin
4454150178,52.5271358,13.3294173,Kebap House,Turmstraße 62,10551,Berlin
4455039391,52.5336822,13.4305873,Brgrs Brgrs,Greifswalder Straße 37,10405,Berlin
4456233212,52.5325296,13.1977117,Goldene Drachen,Klosterstraße 5a,13581,Berlin
4487189077,52.5454267,13.5924167,Döner Box,,,
4506523503,52.5065893,13.3117927,Son Kitchen,Kantstraße 46,10625,Berlin
4515123685,52.4991899,13.432186,Hühnerhaus 36,Görlitzer Straße 1,10997,Berlin
4533868089,52.5146709,13.4599736,Balkan Grill Aroma,Niederbarnimstraße 26,10247,Berlin
4534097105,52.5081712,13.4666392,Gemüse Kebab,,,
4542091113,52.5146877,13.462828,Pizza XXL,Frankfurter Allee 42,10247,Berlin
4542091124,52.4580993,13.5801938,Mr. Kebap,Elcknerplatz 8,12555,Berlin
4542091125,52.4575176,13.5781007,Burgerzimmer,Bahnhofstraße 33-38,12555,Berlin
4544880374,52.4258616,13.4836216,Nokta Grillhaus,Neuköllner Straße 259,12357,Berlin
4547089192,52.5087328,13.3049765,Nordsee,,,
4551162390,52.5103568,13.305756,Safrani,Wilmersdorfer Straße 129,10627,Berlin
4555544999,52.5922502,13.2830596,Call a Pizza,Schloßstraße 20,13507,
4561734582,52.5057359,13.5200926,Happy Döner,,,
4567767888,52.5085914,13.3051722,Asia Imbiss,,,
4582927492,52.4980787,13.421062,Basmah,Reichenberger Straße 26,10999,Berlin
4583801394,52.4318834,13.2593301,greeneat,Teltower Damm 33,14169,Berlin
4583828566,52.4602877,13.418009,Avci,Tempelhofer Weg 2,12099,Berlin
4583979873,52.5879559,13.4278491,Telepizza,Blankenburger Straße 149,13127,Berlin
4583979876,52.5848091,13.4285974,Bärbels Bistro,Pasewalker Straße 13,13127,Berlin
4596211007,52.4675687,13.4897981,Döner 49,,12437,Berlin
4596211008,52.4675278,13.4897377,Asia Lime,,,
4603580991,52.509615,13.2969837,Ihr Frischebäcker,Suarezstraße 60,14057,Berlin
4605700438,52.4289873,13.5385751,FOOD,,12489,Berlin
4611730985,52.5275858,13.3384355,Hanoi Bistro,Arminiusstraße 2-4,10551,Berlin
4611739974,52.5280162,13.3385112,Burgerlich,Arminiusstraße 2-4,,
4614529742,52.5073231,13.3066861,KFC,Wilmersdorfer Straße 115,10627,Berlin
4623811442,52.4778736,13.281075,Würstle am Roseneck,,,
4625231107,52.5267223,13.3373717,Moabiter Döner,,,
4625232920,52.5268006,13.3366895,Pizza Pasta,,,
4626413458,52.5268538,13.3360289,Gemüse-Döner,Turmstraße 40,10551,Berlin
4639354690,52.5091636,13.4045712,Sandwich Art,,,
4664200998,52.3983851,13.4060583,Grimm Döner,Lichtenrader Damm 162,12305,Berlin
4664307490,52.3867758,13.4086298,Imbiss China,,,
4665970499,52.5098869,13.460255,Kandaka Food,Gärtnerstraße 26,10245,Berlin
4683292219,52.5958626,13.3359134,First Kebab,Wilhelmsruher Damm 230,13435,Berlin
4686702515,52.5245176,13.3350102,Dominos,Alt-Moabit 79,10555,Berlin
4686734387,52.5031008,13.3373853,Back 17,Marburger Straße 17,10789,Berlin
4687833341,52.4798402,13.3519836,Sahara Imbiss,Ebersstraße 74,10827,Berlin
4698343699,52.501225,13.3437788,Dolores,Bayreuther Straße 36,10789,Berlin
4698884699,52.4588215,13.526641,Gemüse Kebap,Rathenaustraße 1,12459,Berlin
4700279910,52.4429161,13.2969682,Asia Imbiss Saigon,Drakestraße 33,12205,Berlin
4703099270,52.4610422,13.4811503,Dominos,Baumschulenstraße 65,12437,Berlin
4703105770,52.4611961,13.481471,Asia Haus,Baumschulenstraße 65 II,12437,Berlin
4704850355,52.4685461,13.49095,Tasty Gemüse Kebap,,12437,Berlin
4709931443,52.4913659,13.4113816,Pizzatrium,Körtestraße 8,10967,Berlin
4712176334,52.4654432,13.4865992,Gorira,Baumschulenstraße 88,12437,Berlin
4715094290,52.4546094,13.6254347,Tanriverdis,Bölschestraße 60,12587,Berlin
4730593839,52.4619955,13.5165041,ISHTAR,Wilhelminenhofstraße 24,12459,Berlin
4731336923,52.4324152,13.4622096,Haci Baba,,,
4732574347,52.5304754,13.2998329,CUCCIS,,,
4736286838,52.5019574,13.3293617,I♥Phở,,,
4736904442,52.4961207,13.3370562,Hammer Koch,Bamberger Straße 7,10777,Berlin
4741168900,52.4484333,13.2757614,Köfte Burger,Garystraße 46,14195,Berlin
4741882121,52.5532551,13.414836,Kebap & Chicken,,,
4748225794,52.386512,13.4001477,Dürümcü Baba,,,
4750521349,52.5100946,13.2778045,Eat&GO,,,
4753256689,52.5106529,13.3896546,Sandwich Art Café,,,Berlin
4758617721,52.4972391,13.7439808,Asja-Sushi-Bar,,,
4762514455,52.4409717,13.6014615,Schützengrill,,,
4762680411,52.4643502,13.4328362,Valentine,Hermannstraße 126,12051,Berlin
4767399103,52.5437369,13.3775525,Curry 44,Hochstraße 44,13357,Berlin
4769294221,52.5817377,13.363113,Gemüsekebap 77,,,
4773332993,52.5108972,13.4583689,Grimy Haus,Gabriel-Max-Straße 17,10245,Berlin
4781765127,52.515071,13.4632917,Salami Social Club,Frankfurter Allee 43,10247,Berlin
4796741122,52.4011553,13.2607667,China Thai,,,
4804439441,52.5659429,13.4086044,Flora Burger,Florastraße 41,13187,Berlin
4804439442,52.5661661,13.4084289,Flora Wrap,Florastraße 63,13187,Berlin
4806911720,52.5083814,13.4974682,Kilimanjaro Wraps & Bowls,Weitlingstraße 29,10317,Berlin
4812222798,52.5655019,13.3946642,Pizza Max,,,
4813445331,52.5264492,13.388009,Kebab Baba,Linienstraße 133,10115,Berlin
4813859503,52.5650398,13.3947562,Döner 02,,,
4813988670,52.5062926,13.3109381,44 Chkn,Kantstraße 123,10625,Berlin
4816206581,52.5337285,13.1957078,Thang Long,,,
4816206582,52.5337973,13.1956586,Kartoffelbox & Fruitstars,,,
4817365211,52.5075917,13.3907378,KFC,Friedrichstraße 45,10969,Berlin
4828048438,52.5546375,13.3450365,Burger Republic,Müllerstraße 59,13349,Berlin
4832594545,52.5725783,13.4176634,Call a Pizza,Damerowstraße 60,13187,Berlin
4839547038,52.520961,13.4119326,Pergamon Döner & Pizza,Dircksenstraße 2,10179,
4839547039,52.5202745,13.3881078,Pergamon Döner & Pizza,Friedrichstraße 142,10117,
4851427390,52.4998032,13.3076114,Prime166,,10707,Berlin
4862244042,52.4810802,13.4263665,Dr Burger,Flughafenstraße 46,12053,Berlin
4862470678,52.5478477,13.4133786,Kukis,,,
4862470679,52.5478411,13.4135033,Burger Lane,,,
4862561443,52.5336384,13.4572219,Food for you,,,
4868155684,52.5882222,13.2847639,Burger Brothers,Berliner Straße 9,,
4870088444,52.5131225,13.4177639,Umami Sushi,Brückenstraße 5A,,
4870088445,52.5120138,13.4171424,Chicken Box,Brückenstraße 2,10179,Berlin
4876537893,52.506435,13.3335174,Risa Chicken,Hardenbergplatz 2,10623,Berlin
4877987721,52.5493267,13.4133333,Kaplan,,,
4879038060,52.4781011,13.3281618,La Corniche,Bundesplatz 9,10715,Berlin
4889681830,52.4916563,13.3924878,Köfte 61,Gneisenaustraße 16,10961,Berlin
4908049916,52.5114213,13.4580927,Curry 66,Grünberger Straße 66,10245,Berlin
4910796621,52.4990111,13.3931045,Al Sultan Bistro,Mehringplatz 6,10969,Berlin
4913540400,52.5267462,13.4478296,Happy Food,,,
4917255673,52.5363954,13.5736138,Kombüse,,,
4924054913,52.4985163,13.4398711,El Taco Loco,Oppelner Straße 34,10997,Berlin
4927830032,52.5395957,13.3955445,Dominos,Stralsunder Straße 61,13355,Berlin
4935091671,52.4233426,13.4744028,Ni Hao,,,
4936116183,52.5464824,13.5925137,Döner Box,,,
4938911233,52.6068026,13.2037083,Havelfischerei,Fährstraße 16,13503,Berlin
4946850776,52.4952337,13.4302399,Sushi Moto,Ohlauer Straße 27,10999,Berlin
4948140432,52.5089518,13.388397,Avan,Mauerstraße 81/82,,
4955492827,52.5307412,13.1961103,Burger Route,,,
4967590823,52.487712,13.3581352,Has Mevlana,Hauptstraße 148,10827,Berlin
4968743796,52.5133751,13.5541731,Dönerhaus,Oberfeldstraße 1K,12683,Berlin
4970467348,52.4526192,13.4490608,Macs Bistro,,12359,Berlin
4974029892,52.5115249,13.4169273,Brgrs Brgrs,Brückenstraße 1A,10179,Berlin
4976233223,52.5500125,13.4225968,Prenzl Burger,Erich-Weinert-Straße 55,10439,Berlin
4977151891,52.4805396,13.4070783,Tempelburger,,,
4977255088,52.5016137,13.3582826,Asia Food-Sushi,,,
5001796524,52.5088722,13.4559091,Zayn,Simon-Dach-Straße 30,10245,Berlin
5008260581,52.5005949,13.3641911,Mahlzeit,Pohlstraße 61,10785,Berlin
5012888722,52.6411526,13.3731263,Imbiss am Teich,,,
